var diffsep = [
    {
      "": 0,
      "station": "University Park",
      "lat": 42.36264779118595,
      "lon": -71.1000609397888,
      "hour": 0,
      "startCounts": 25,
      "endCounts": 13,
      "Diff": 12
    },
    {
      "": 3668,
      "station": "359 Broadway - Broadway at Fayette Street",
      "lat": 42.370803,
      "lon": -71.104412,
      "hour": 0,
      "startCounts": 4,
      "endCounts": 14,
      "Diff": -10
    },
    {
      "": 3667,
      "station": "Curtis Hall - South St at Centre St",
      "lat": 42.309053999999996,
      "lon": -71.11543,
      "hour": 0,
      "startCounts": 2,
      "endCounts": 2,
      "Diff": 0
    },
    {
      "": 3666,
      "station": "Charles st and Beacon St",
      "lat": 42.356052000000005,
      "lon": -71.069849,
      "hour": 0,
      "startCounts": 3,
      "endCounts": 7,
      "Diff": -4
    },
    {
      "": 3665,
      "station": "Dorchester Ave at Gillette Park",
      "lat": 42.34404051001636,
      "lon": -71.0573762655258,
      "hour": 0,
      "startCounts": 1,
      "endCounts": 2,
      "Diff": -1
    },
    {
      "": 3664,
      "station": "Prudential Center - Belvedere St",
      "lat": 42.345959,
      "lon": -71.082578,
      "hour": 0,
      "startCounts": 15,
      "endCounts": 7,
      "Diff": 8
    },
    {
      "": 3637,
      "station": "Seaport Square - Seaport Blvd at Northern Ave",
      "lat": 42.35148193460858,
      "lon": -71.04436084628105,
      "hour": 0,
      "startCounts": 6,
      "endCounts": 4,
      "Diff": 2
    },
    {
      "": 3636,
      "station": "South Station - 700 Atlantic Ave",
      "lat": 42.352175,
      "lon": -71.055547,
      "hour": 0,
      "startCounts": 14,
      "endCounts": 5,
      "Diff": 9
    },
    {
      "": 3635,
      "station": "Boston Convention and Exhibition Center - Summer St at West Side Dr",
      "lat": 42.347763454147454,
      "lon": -71.04535996913908,
      "hour": 0,
      "startCounts": 1,
      "endCounts": 1,
      "Diff": 0
    },
    {
      "": 3596,
      "station": "NCAAA - Walnut Ave at Crawford St",
      "lat": 42.316902,
      "lon": -71.091946,
      "hour": 0,
      "startCounts": 1,
      "endCounts": 2,
      "Diff": -1
    },
    {
      "": 3595,
      "station": "Innovation Lab - 125 Western Ave at Batten Way",
      "lat": 42.363732,
      "lon": -71.124565,
      "hour": 0,
      "startCounts": 2,
      "endCounts": 3,
      "Diff": -1
    },
    {
      "": 3594,
      "station": "Kendall Street",
      "lat": 42.36356015842989,
      "lon": -71.08216792345047,
      "hour": 0,
      "startCounts": 4,
      "endCounts": 2,
      "Diff": 2
    },
    {
      "": 3555,
      "station": "Alewife Station at Russell Field",
      "lat": 42.396105,
      "lon": -71.139459,
      "hour": 0,
      "startCounts": 1,
      "endCounts": 0,
      "Diff": 1
    },
    {
      "": 3554,
      "station": "Ruggles T Stop - Columbus Ave at Melnea Cass Blvd",
      "lat": 42.33649625072997,
      "lon": -71.0874170064926,
      "hour": 0,
      "startCounts": 5,
      "endCounts": 10,
      "Diff": -5
    },
    {
      "": 3514,
      "station": "Colleges of the Fenway - Fenway at Avenue Louis Pasteur",
      "lat": 42.340115122492364,
      "lon": -71.10061883926393,
      "hour": 0,
      "startCounts": 1,
      "endCounts": 7,
      "Diff": -6
    },
    {
      "": 3513,
      "station": "Packard Ave / Powderhouse Blvd",
      "lat": 42.40449,
      "lon": -71.123413,
      "hour": 0,
      "startCounts": 1,
      "endCounts": 4,
      "Diff": -3
    },
    {
      "": 3477,
      "station": "Arch St at Franklin St",
      "lat": 42.35530156110769,
      "lon": -71.0582560300827,
      "hour": 0,
      "startCounts": 2,
      "endCounts": 3,
      "Diff": -1
    },
    {
      "": 3476,
      "station": "Post Office Square - Pearl St at Milk St",
      "lat": 42.356755,
      "lon": -71.05540699999999,
      "hour": 0,
      "startCounts": 3,
      "endCounts": 3,
      "Diff": 0
    },
    {
      "": 3259,
      "station": "Wentworth Institute of Technology - Huntington Ave at Vancouver St",
      "lat": 42.33758601097239,
      "lon": -71.09627097845076,
      "hour": 0,
      "startCounts": 5,
      "endCounts": 4,
      "Diff": 1
    },
    {
      "": 3335,
      "station": "Boylston St at Dartmouth St",
      "lat": 42.350413,
      "lon": -71.07655,
      "hour": 0,
      "startCounts": 3,
      "endCounts": 4,
      "Diff": -1
    },
    {
      "": 3336,
      "station": "S Huntington Ave at Heath St",
      "lat": 42.327972700000004,
      "lon": -71.11089709999999,
      "hour": 0,
      "startCounts": 3,
      "endCounts": 1,
      "Diff": 2
    },
    {
      "": 3337,
      "station": "Beacon St at Arlington St",
      "lat": 42.355549323361345,
      "lon": -71.07284188270569,
      "hour": 0,
      "startCounts": 7,
      "endCounts": 15,
      "Diff": -8
    },
    {
      "": 3338,
      "station": "Beacon St at Washington / Kirkland",
      "lat": 42.37842,
      "lon": -71.10566800000001,
      "hour": 0,
      "startCounts": 11,
      "endCounts": 21,
      "Diff": -10
    },
    {
      "": 3339,
      "station": "Dana Park",
      "lat": 42.361780439606044,
      "lon": -71.10809952020645,
      "hour": 0,
      "startCounts": 8,
      "endCounts": 21,
      "Diff": -13
    },
    {
      "": 3704,
      "station": "One Broadway / Kendall Sq at Main St / 3rd St",
      "lat": 42.362613,
      "lon": -71.08410500000001,
      "hour": 0,
      "startCounts": 1,
      "endCounts": 2,
      "Diff": -1
    },
    {
      "": 3411,
      "station": "Warren St at Chelsea St",
      "lat": 42.371848,
      "lon": -71.060292,
      "hour": 0,
      "startCounts": 6,
      "endCounts": 10,
      "Diff": -4
    },
    {
      "": 3413,
      "station": "Powder House Circle - Nathan Tufts Park",
      "lat": 42.400877,
      "lon": -71.116772,
      "hour": 0,
      "startCounts": 4,
      "endCounts": 5,
      "Diff": -1
    },
    {
      "": 3414,
      "station": "Harvard University Radcliffe Quadrangle at Shepard St / Garden St",
      "lat": 42.380287,
      "lon": -71.125107,
      "hour": 0,
      "startCounts": 7,
      "endCounts": 1,
      "Diff": 6
    },
    {
      "": 3415,
      "station": "Maverick Square - Lewis Mall",
      "lat": 42.368844082898356,
      "lon": -71.03977829217911,
      "hour": 0,
      "startCounts": 1,
      "endCounts": 1,
      "Diff": 0
    },
    {
      "": 3416,
      "station": "Commonwealth Ave At Babcock St",
      "lat": 42.35154734791375,
      "lon": -71.12126246094705,
      "hour": 0,
      "startCounts": 4,
      "endCounts": 9,
      "Diff": -5
    },
    {
      "": 3417,
      "station": "Union Square - Somerville",
      "lat": 42.379637,
      "lon": -71.09531899999999,
      "hour": 0,
      "startCounts": 7,
      "endCounts": 17,
      "Diff": -10
    },
    {
      "": 3475,
      "station": "Brighton Center - Washington St at Cambridge St",
      "lat": 42.34894857235593,
      "lon": -71.15027189254761,
      "hour": 0,
      "startCounts": 5,
      "endCounts": 8,
      "Diff": -3
    },
    {
      "": 3412,
      "station": "Third at Binney",
      "lat": 42.365444861373994,
      "lon": -71.0827714204788,
      "hour": 0,
      "startCounts": 3,
      "endCounts": 10,
      "Diff": -7
    },
    {
      "": 3705,
      "station": "Washington Square at Washington St. / Beacon St.",
      "lat": 42.339335,
      "lon": -71.13493000000001,
      "hour": 0,
      "startCounts": 1,
      "endCounts": 3,
      "Diff": -2
    },
    {
      "": 3706,
      "station": "The Lawn on D",
      "lat": 42.344792,
      "lon": -71.044024,
      "hour": 0,
      "startCounts": 1,
      "endCounts": 3,
      "Diff": -2
    },
    {
      "": 3707,
      "station": "Ink Block - Harrison Ave at Herald St",
      "lat": 42.345901,
      "lon": -71.063187,
      "hour": 0,
      "startCounts": 2,
      "endCounts": 4,
      "Diff": -2
    },
    {
      "": 4003,
      "station": "Fresh Pond Reservation",
      "lat": 42.38267827521855,
      "lon": -71.143478951426,
      "hour": 0,
      "startCounts": 0,
      "endCounts": 2,
      "Diff": -2
    },
    {
      "": 4004,
      "station": "Mt Auburn",
      "lat": 42.37478628706384,
      "lon": -71.13320231437683,
      "hour": 0,
      "startCounts": 0,
      "endCounts": 3,
      "Diff": -3
    },
    {
      "": 4024,
      "station": "Brookline Village - Station Street @ MBTA",
      "lat": 42.33289074055233,
      "lon": -71.11658334732057,
      "hour": 0,
      "startCounts": 0,
      "endCounts": 5,
      "Diff": -5
    },
    {
      "": 4035,
      "station": "Andrew T Stop - Dorchester Ave at Dexter St",
      "lat": 42.33047365041517,
      "lon": -71.05701684951781,
      "hour": 0,
      "startCounts": 0,
      "endCounts": 9,
      "Diff": -9
    },
    {
      "": 4036,
      "station": "Roxbury YMCA - Warren St at MLK Blvd",
      "lat": 42.317873293456024,
      "lon": -71.08243077993394,
      "hour": 0,
      "startCounts": 0,
      "endCounts": 1,
      "Diff": -1
    },
    {
      "": 4062,
      "station": "Linear Park - Mass. Ave. at Cameron Ave.",
      "lat": 42.397828000000004,
      "lon": -71.130516,
      "hour": 0,
      "startCounts": 0,
      "endCounts": 3,
      "Diff": -3
    },
    {
      "": 3977,
      "station": "Magoun Square at Trum Field",
      "lat": 42.398365000000005,
      "lon": -71.10781800000001,
      "hour": 0,
      "startCounts": 0,
      "endCounts": 6,
      "Diff": -6
    },
    {
      "": 4063,
      "station": "New Balance - 20 Guest St",
      "lat": 42.357329218677066,
      "lon": -71.14673539996147,
      "hour": 0,
      "startCounts": 0,
      "endCounts": 5,
      "Diff": -5
    },
    {
      "": 4122,
      "station": "EF - North Point Park",
      "lat": 42.369885,
      "lon": -71.06995699999999,
      "hour": 0,
      "startCounts": 0,
      "endCounts": 6,
      "Diff": -6
    },
    {
      "": 4137,
      "station": "Washington St at Brock St",
      "lat": 42.348952846695106,
      "lon": -71.16031676530837,
      "hour": 0,
      "startCounts": 0,
      "endCounts": 2,
      "Diff": -2
    },
    {
      "": 4138,
      "station": "E Cottage St at Columbia Rd",
      "lat": 42.320561,
      "lon": -71.06198,
      "hour": 0,
      "startCounts": 0,
      "endCounts": 6,
      "Diff": -6
    },
    {
      "": 4173,
      "station": "Walnut Ave at Warren St",
      "lat": 42.324081,
      "lon": -71.083235,
      "hour": 0,
      "startCounts": 0,
      "endCounts": 1,
      "Diff": -1
    },
    {
      "": 4189,
      "station": "Washington St at Melnea Cass Blvd",
      "lat": 42.332817,
      "lon": -71.081198,
      "hour": 0,
      "startCounts": 0,
      "endCounts": 1,
      "Diff": -1
    },
    {
      "": 4212,
      "station": "Hayes Square - Vine St at Moulton St",
      "lat": 42.377022,
      "lon": -71.056605,
      "hour": 0,
      "startCounts": 0,
      "endCounts": 1,
      "Diff": -1
    },
    {
      "": 4074,
      "station": "Green Street T Stop - Green St at Amory St",
      "lat": 42.310579,
      "lon": -71.107341,
      "hour": 0,
      "startCounts": 0,
      "endCounts": 6,
      "Diff": -6
    },
    {
      "": 3258,
      "station": "Christian Science Plaza - Massachusetts Ave at Westland Ave",
      "lat": 42.3436658245146,
      "lon": -71.08582377433777,
      "hour": 0,
      "startCounts": 16,
      "endCounts": 13,
      "Diff": 3
    },
    {
      "": 3958,
      "station": "Brian P. Murphy Staircase at Child Street",
      "lat": 42.3720597013741,
      "lon": -71.07202649116515,
      "hour": 0,
      "startCounts": 1,
      "endCounts": 3,
      "Diff": -2
    },
    {
      "": 3937,
      "station": "Edwards Playground - Main St at Eden St",
      "lat": 42.378965,
      "lon": -71.068607,
      "hour": 0,
      "startCounts": 1,
      "endCounts": 0,
      "Diff": 1
    },
    {
      "": 3739,
      "station": "Purchase St at Pearl St",
      "lat": 42.354659000000005,
      "lon": -71.05318100000001,
      "hour": 0,
      "startCounts": 4,
      "endCounts": 1,
      "Diff": 3
    },
    {
      "": 3740,
      "station": "Harvard University / SEAS Cruft-Pierce Halls at 29 Oxford St",
      "lat": 42.377945000000004,
      "lon": -71.116865,
      "hour": 0,
      "startCounts": 4,
      "endCounts": 5,
      "Diff": -1
    },
    {
      "": 3785,
      "station": "Brighton Mills - 370 Western Ave",
      "lat": 42.3615457081725,
      "lon": -71.13776206970216,
      "hour": 0,
      "startCounts": 2,
      "endCounts": 1,
      "Diff": 1
    },
    {
      "": 3786,
      "station": "Piers Park",
      "lat": 42.36543154627481,
      "lon": -71.03625655174254,
      "hour": 0,
      "startCounts": 3,
      "endCounts": 1,
      "Diff": 2
    },
    {
      "": 3807,
      "station": "Somerville City Hall",
      "lat": 42.386844,
      "lon": -71.09812,
      "hour": 0,
      "startCounts": 1,
      "endCounts": 5,
      "Diff": -4
    },
    {
      "": 3808,
      "station": "Soldiers Field Park - 111 Western Ave",
      "lat": 42.365064000000004,
      "lon": -71.119233,
      "hour": 0,
      "startCounts": 2,
      "endCounts": 9,
      "Diff": -7
    },
    {
      "": 3957,
      "station": "Danehy Park",
      "lat": 42.388965999999996,
      "lon": -71.132788,
      "hour": 0,
      "startCounts": 1,
      "endCounts": 1,
      "Diff": 0
    },
    {
      "": 3821,
      "station": "One Memorial Drive",
      "lat": 42.36161932076685,
      "lon": -71.08043550520959,
      "hour": 0,
      "startCounts": 3,
      "endCounts": 0,
      "Diff": 3
    },
    {
      "": 3823,
      "station": "Surface Rd at India St",
      "lat": 42.358155,
      "lon": -71.05216300000001,
      "hour": 0,
      "startCounts": 1,
      "endCounts": 4,
      "Diff": -3
    },
    {
      "": 3848,
      "station": "Lechmere Station at Cambridge St / First St",
      "lat": 42.370677,
      "lon": -71.07652900000001,
      "hour": 0,
      "startCounts": 1,
      "endCounts": 20,
      "Diff": -19
    },
    {
      "": 3884,
      "station": "Alewife MBTA at Steel Place",
      "lat": 42.395588457167094,
      "lon": -71.14260613918304,
      "hour": 0,
      "startCounts": 3,
      "endCounts": 1,
      "Diff": 2
    },
    {
      "": 3919,
      "station": "Sidney Research Campus/ Erie Street at Waverly",
      "lat": 42.35775309465199,
      "lon": -71.10393404960631,
      "hour": 0,
      "startCounts": 2,
      "endCounts": 4,
      "Diff": -2
    },
    {
      "": 3920,
      "station": "Broadway St at Mt Pleasant St",
      "lat": 42.38614141163957,
      "lon": -71.07828140258789,
      "hour": 0,
      "startCounts": 1,
      "endCounts": 2,
      "Diff": -1
    },
    {
      "": 3921,
      "station": "MLK Blvd at Washington St",
      "lat": 42.32143814183195,
      "lon": -71.09126061201096,
      "hour": 0,
      "startCounts": 1,
      "endCounts": 0,
      "Diff": 1
    },
    {
      "": 1951,
      "station": "Verizon Innovation Hub 10 Ware Street",
      "lat": 42.37250864997261,
      "lon": -71.11305356025694,
      "hour": 0,
      "startCounts": 6,
      "endCounts": 3,
      "Diff": 3
    },
    {
      "": 4219,
      "station": "Egleston Square - Atherton St at Washington St",
      "lat": 42.315692,
      "lon": -71.09863399999999,
      "hour": 0,
      "startCounts": 0,
      "endCounts": 1,
      "Diff": -1
    },
    {
      "": 3257,
      "station": "Boston Medical Center - E Concord St at Harrison Ave",
      "lat": 42.336437,
      "lon": -71.073089,
      "hour": 0,
      "startCounts": 6,
      "endCounts": 6,
      "Diff": 0
    },
    {
      "": 3255,
      "station": "Clarendon Hill at Broadway",
      "lat": 42.406302000000004,
      "lon": -71.132446,
      "hour": 0,
      "startCounts": 1,
      "endCounts": 2,
      "Diff": -1
    },
    {
      "": 2492,
      "station": "Spaulding Rehabilitation Hospital - Charlestown Navy Yard",
      "lat": 42.378338,
      "lon": -71.048927,
      "hour": 0,
      "startCounts": 7,
      "endCounts": 2,
      "Diff": 5
    },
    {
      "": 2491,
      "station": "Lafayette Square at Mass Ave / Main St / Columbia St",
      "lat": 42.36346469304347,
      "lon": -71.10057324171065,
      "hour": 0,
      "startCounts": 21,
      "endCounts": 9,
      "Diff": 12
    },
    {
      "": 2490,
      "station": "Roxbury Crossing T Stop - Columbus Ave at Tremont St",
      "lat": 42.331184,
      "lon": -71.095171,
      "hour": 0,
      "startCounts": 2,
      "endCounts": 5,
      "Diff": -3
    },
    {
      "": 2489,
      "station": "Central Sq Post Office / Cambridge City Hall at Mass Ave / Pleasant St",
      "lat": 42.366426000000004,
      "lon": -71.10549499999999,
      "hour": 0,
      "startCounts": 28,
      "endCounts": 11,
      "Diff": 17
    },
    {
      "": 2488,
      "station": "Seaport Hotel - Congress St at Seaport Ln",
      "lat": 42.34881026188269,
      "lon": -71.04167744055303,
      "hour": 0,
      "startCounts": 3,
      "endCounts": 1,
      "Diff": 2
    },
    {
      "": 2487,
      "station": "Chinatown Gate Plaza",
      "lat": 42.351356,
      "lon": -71.05936700000001,
      "hour": 0,
      "startCounts": 7,
      "endCounts": 10,
      "Diff": -3
    },
    {
      "": 2486,
      "station": "Stuart St at Charles St",
      "lat": 42.351146,
      "lon": -71.066289,
      "hour": 0,
      "startCounts": 12,
      "endCounts": 12,
      "Diff": 0
    },
    {
      "": 1975,
      "station": "Park Dr at Buswell St",
      "lat": 42.347241,
      "lon": -71.105301,
      "hour": 0,
      "startCounts": 24,
      "endCounts": 13,
      "Diff": 11
    },
    {
      "": 1974,
      "station": "Newbury St at Hereford St",
      "lat": 42.348717,
      "lon": -71.085954,
      "hour": 0,
      "startCounts": 18,
      "endCounts": 9,
      "Diff": 9
    },
    {
      "": 1973,
      "station": "Commonwealth Ave at Buick St",
      "lat": 42.35062177153799,
      "lon": -71.11288218766276,
      "hour": 0,
      "startCounts": 6,
      "endCounts": 5,
      "Diff": 1
    },
    {
      "": 1972,
      "station": "Harvard University River Houses at DeWolfe St / Cowperthwaite St",
      "lat": 42.36919031768079,
      "lon": -71.11714124679565,
      "hour": 0,
      "startCounts": 11,
      "endCounts": 14,
      "Diff": -3
    },
    {
      "": 1971,
      "station": "Cambridge St - at Columbia St / Webster Ave",
      "lat": 42.372969,
      "lon": -71.094445,
      "hour": 0,
      "startCounts": 13,
      "endCounts": 9,
      "Diff": 4
    },
    {
      "": 1970,
      "station": "Lesley University",
      "lat": 42.38674802045056,
      "lon": -71.11901879310608,
      "hour": 0,
      "startCounts": 3,
      "endCounts": 3,
      "Diff": 0
    },
    {
      "": 1969,
      "station": "Cambridge St at Joy St",
      "lat": 42.36130407013564,
      "lon": -71.0652096569538,
      "hour": 0,
      "startCounts": 10,
      "endCounts": 13,
      "Diff": -3
    },
    {
      "": 1968,
      "station": "Congress St at Northern Ave",
      "lat": 42.3481,
      "lon": -71.03764,
      "hour": 0,
      "startCounts": 5,
      "endCounts": 4,
      "Diff": 1
    },
    {
      "": 1967,
      "station": "Aquarium T Stop - 200 Atlantic Ave",
      "lat": 42.35991176110118,
      "lon": -71.0514298081398,
      "hour": 0,
      "startCounts": 6,
      "endCounts": 5,
      "Diff": 1
    },
    {
      "": 1966,
      "station": "Boylston St at Berkeley St",
      "lat": 42.351141982547496,
      "lon": -71.07329249382019,
      "hour": 0,
      "startCounts": 4,
      "endCounts": 3,
      "Diff": 1
    },
    {
      "": 1952,
      "station": "Boylston St at Fairfield St",
      "lat": 42.348762,
      "lon": -71.082383,
      "hour": 0,
      "startCounts": 19,
      "endCounts": 11,
      "Diff": 8
    },
    {
      "": 1953,
      "station": "Rowes Wharf at Atlantic Ave",
      "lat": 42.357143,
      "lon": -71.050699,
      "hour": 0,
      "startCounts": 15,
      "endCounts": 6,
      "Diff": 9
    },
    {
      "": 1954,
      "station": "MIT at Mass Ave / Amherst St",
      "lat": 42.3581,
      "lon": -71.093198,
      "hour": 0,
      "startCounts": 39,
      "endCounts": 50,
      "Diff": -11
    },
    {
      "": 1955,
      "station": "Harvard Square at Brattle St / Eliot St",
      "lat": 42.373231,
      "lon": -71.120886,
      "hour": 0,
      "startCounts": 17,
      "endCounts": 12,
      "Diff": 5
    },
    {
      "": 1956,
      "station": "Boston City Hall - 28 State St",
      "lat": 42.35892,
      "lon": -71.057629,
      "hour": 0,
      "startCounts": 14,
      "endCounts": 8,
      "Diff": 6
    },
    {
      "": 1957,
      "station": "Burlington Ave at Brookline Ave",
      "lat": 42.345733,
      "lon": -71.10069399999999,
      "hour": 0,
      "startCounts": 10,
      "endCounts": 2,
      "Diff": 8
    },
    {
      "": 2493,
      "station": "Hyde Square - Barbara St at Centre St",
      "lat": 42.32090296264123,
      "lon": -71.11188411712645,
      "hour": 0,
      "startCounts": 1,
      "endCounts": 2,
      "Diff": -1
    },
    {
      "": 1958,
      "station": "Yawkey Way at Boylston St.",
      "lat": 42.3446808403874,
      "lon": -71.09785348176956,
      "hour": 0,
      "startCounts": 22,
      "endCounts": 21,
      "Diff": 1
    },
    {
      "": 1960,
      "station": "Beacon St at Massachusetts Ave",
      "lat": 42.350826806690954,
      "lon": -71.0898108780384,
      "hour": 0,
      "startCounts": 46,
      "endCounts": 24,
      "Diff": 22
    },
    {
      "": 1961,
      "station": "Copley Square - Dartmouth St at Boylston St",
      "lat": 42.34976701008725,
      "lon": -71.0773265361786,
      "hour": 0,
      "startCounts": 13,
      "endCounts": 16,
      "Diff": -3
    },
    {
      "": 1962,
      "station": "Harvard Kennedy School at Bennett St / Eliot St",
      "lat": 42.371991654086756,
      "lon": -71.12226963043213,
      "hour": 0,
      "startCounts": 3,
      "endCounts": 1,
      "Diff": 2
    },
    {
      "": 1963,
      "station": "Conway Park - Somerville Avenue",
      "lat": 42.383404999999996,
      "lon": -71.10759300000001,
      "hour": 0,
      "startCounts": 5,
      "endCounts": 14,
      "Diff": -9
    },
    {
      "": 1964,
      "station": "South End Library - Tremont St at W Newton St",
      "lat": 42.341332,
      "lon": -71.076847,
      "hour": 0,
      "startCounts": 5,
      "endCounts": 8,
      "Diff": -3
    },
    {
      "": 1965,
      "station": "Tremont St at E Berkeley St",
      "lat": 42.345392,
      "lon": -71.069616,
      "hour": 0,
      "startCounts": 20,
      "endCounts": 13,
      "Diff": 7
    },
    {
      "": 1959,
      "station": "Kendall T",
      "lat": 42.362427842912396,
      "lon": -71.08495473861693,
      "hour": 0,
      "startCounts": 14,
      "endCounts": 17,
      "Diff": -3
    },
    {
      "": 2494,
      "station": "Bunker Hill Community College",
      "lat": 42.37408991426522,
      "lon": -71.06905996799469,
      "hour": 0,
      "startCounts": 1,
      "endCounts": 0,
      "Diff": 1
    },
    {
      "": 2495,
      "station": "CambridgeSide Galleria - CambridgeSide PL at Land Blvd",
      "lat": 42.366981,
      "lon": -71.076472,
      "hour": 0,
      "startCounts": 1,
      "endCounts": 3,
      "Diff": -2
    },
    {
      "": 2496,
      "station": "JFK Crossing at Harvard St. / Thorndike St.",
      "lat": 42.346563,
      "lon": -71.128374,
      "hour": 0,
      "startCounts": 8,
      "endCounts": 6,
      "Diff": 2
    },
    {
      "": 2850,
      "station": "Landmark Center - Brookline Ave at Park Dr",
      "lat": 42.345194289440954,
      "lon": -71.1016970872879,
      "hour": 0,
      "startCounts": 12,
      "endCounts": 7,
      "Diff": 5
    },
    {
      "": 2851,
      "station": "Wilson Square",
      "lat": 42.385582,
      "lon": -71.113341,
      "hour": 0,
      "startCounts": 1,
      "endCounts": 15,
      "Diff": -14
    },
    {
      "": 3152,
      "station": "Fan Pier",
      "lat": 42.35294080239233,
      "lon": -71.04388475418091,
      "hour": 0,
      "startCounts": 1,
      "endCounts": 0,
      "Diff": 1
    },
    {
      "": 3244,
      "station": "Coolidge Corner - Beacon St @ Centre St",
      "lat": 42.341598,
      "lon": -71.123338,
      "hour": 0,
      "startCounts": 2,
      "endCounts": 9,
      "Diff": -7
    },
    {
      "": 3245,
      "station": "Murphy Skating Rink - 1880 Day Blvd",
      "lat": 42.336448,
      "lon": -71.023739,
      "hour": 0,
      "startCounts": 1,
      "endCounts": 8,
      "Diff": -7
    },
    {
      "": 3246,
      "station": "Congress St at North St",
      "lat": 42.360613,
      "lon": -71.057452,
      "hour": 0,
      "startCounts": 7,
      "endCounts": 9,
      "Diff": -2
    },
    {
      "": 2849,
      "station": "Tremont St at West St",
      "lat": 42.354979,
      "lon": -71.063348,
      "hour": 0,
      "startCounts": 10,
      "endCounts": 14,
      "Diff": -4
    },
    {
      "": 3247,
      "station": "Teele Square at 239 Holland St",
      "lat": 42.402763,
      "lon": -71.126908,
      "hour": 0,
      "startCounts": 2,
      "endCounts": 6,
      "Diff": -4
    },
    {
      "": 3249,
      "station": "Cambridge Dept. of Public Works -147 Hampshire St.",
      "lat": 42.37119727759414,
      "lon": -71.09759867191316,
      "hour": 0,
      "startCounts": 4,
      "endCounts": 9,
      "Diff": -5
    },
    {
      "": 3250,
      "station": "Nashua Street at Red Auerbach Way",
      "lat": 42.365673,
      "lon": -71.064263,
      "hour": 0,
      "startCounts": 4,
      "endCounts": 6,
      "Diff": -2
    },
    {
      "": 3251,
      "station": "Airport T Stop - Bremen St at Brooks St",
      "lat": 42.375339000000004,
      "lon": -71.031304,
      "hour": 0,
      "startCounts": 2,
      "endCounts": 0,
      "Diff": 2
    },
    {
      "": 3252,
      "station": "Ryan Playground - Dorchester Ave at Harbor View St",
      "lat": 42.317642,
      "lon": -71.056664,
      "hour": 0,
      "startCounts": 7,
      "endCounts": 3,
      "Diff": 4
    },
    {
      "": 3253,
      "station": "Silber Way",
      "lat": 42.349495995140025,
      "lon": -71.10057592391969,
      "hour": 0,
      "startCounts": 10,
      "endCounts": 18,
      "Diff": -8
    },
    {
      "": 3254,
      "station": "W Broadway at Dorchester St",
      "lat": 42.335693,
      "lon": -71.045859,
      "hour": 0,
      "startCounts": 5,
      "endCounts": 10,
      "Diff": -5
    },
    {
      "": 3248,
      "station": "Lewis Wharf at Atlantic Ave",
      "lat": 42.363871,
      "lon": -71.050877,
      "hour": 0,
      "startCounts": 1,
      "endCounts": 2,
      "Diff": -1
    },
    {
      "": 3256,
      "station": "Washington St at Rutland St",
      "lat": 42.338514601785995,
      "lon": -71.07404083013535,
      "hour": 0,
      "startCounts": 12,
      "endCounts": 16,
      "Diff": -4
    },
    {
      "": 2848,
      "station": "Washington St at Lenox St",
      "lat": 42.3350989929096,
      "lon": -71.07903778553009,
      "hour": 0,
      "startCounts": 2,
      "endCounts": 10,
      "Diff": -8
    },
    {
      "": 2846,
      "station": "Dudley Square - Dudley St at Warren St",
      "lat": 42.32854046293402,
      "lon": -71.08416482806204,
      "hour": 0,
      "startCounts": 2,
      "endCounts": 4,
      "Diff": -2
    },
    {
      "": 2497,
      "station": "One Kendall Square at Hampshire St / Portland St",
      "lat": 42.366277000000004,
      "lon": -71.09169,
      "hour": 0,
      "startCounts": 24,
      "endCounts": 25,
      "Diff": -1
    },
    {
      "": 2498,
      "station": "B.U. Central - 725 Comm. Ave.",
      "lat": 42.350406,
      "lon": -71.10827900000001,
      "hour": 0,
      "startCounts": 11,
      "endCounts": 8,
      "Diff": 3
    },
    {
      "": 2499,
      "station": "Congress St at Sleeper St",
      "lat": 42.351004495946704,
      "lon": -71.04930013418199,
      "hour": 0,
      "startCounts": 7,
      "endCounts": 4,
      "Diff": 3
    },
    {
      "": 2500,
      "station": "Harvard University Housing - 115 Putnam Ave at Peabody Terrace",
      "lat": 42.366621,
      "lon": -71.114214,
      "hour": 0,
      "startCounts": 5,
      "endCounts": 11,
      "Diff": -6
    },
    {
      "": 2501,
      "station": "Porter Square Station",
      "lat": 42.387995000000004,
      "lon": -71.119084,
      "hour": 0,
      "startCounts": 6,
      "endCounts": 2,
      "Diff": 4
    },
    {
      "": 2502,
      "station": "Ames St at Main St",
      "lat": 42.3625,
      "lon": -71.08821999999999,
      "hour": 0,
      "startCounts": 29,
      "endCounts": 24,
      "Diff": 5
    },
    {
      "": 2847,
      "station": "Columbus Ave at Massachusetts Ave",
      "lat": 42.340542615516355,
      "lon": -71.08138847914233,
      "hour": 0,
      "startCounts": 7,
      "endCounts": 14,
      "Diff": -7
    },
    {
      "": 2503,
      "station": "Kenmore Square",
      "lat": 42.348706,
      "lon": -71.097009,
      "hour": 0,
      "startCounts": 13,
      "endCounts": 17,
      "Diff": -4
    },
    {
      "": 2629,
      "station": "Harvard University Gund Hall at Quincy St / Kirkland S",
      "lat": 42.376369,
      "lon": -71.114025,
      "hour": 0,
      "startCounts": 11,
      "endCounts": 17,
      "Diff": -6
    },
    {
      "": 2630,
      "station": "Packard's Corner - Commonwealth Ave at Brighton Ave",
      "lat": 42.352261,
      "lon": -71.12383100000001,
      "hour": 0,
      "startCounts": 6,
      "endCounts": 24,
      "Diff": -18
    },
    {
      "": 2631,
      "station": "Boylston St at Washington St",
      "lat": 42.352409,
      "lon": -71.062679,
      "hour": 0,
      "startCounts": 12,
      "endCounts": 5,
      "Diff": 7
    },
    {
      "": 2632,
      "station": "Charles Circle - Charles St at Cambridge St",
      "lat": 42.36071444836764,
      "lon": -71.07092812657356,
      "hour": 0,
      "startCounts": 18,
      "endCounts": 11,
      "Diff": 7
    },
    {
      "": 2633,
      "station": "South Boston Library - 646 E Broadway",
      "lat": 42.335741,
      "lon": -71.03877,
      "hour": 0,
      "startCounts": 4,
      "endCounts": 12,
      "Diff": -8
    },
    {
      "": 2845,
      "station": "Binney St / Sixth St",
      "lat": 42.366095,
      "lon": -71.086388,
      "hour": 0,
      "startCounts": 8,
      "endCounts": 13,
      "Diff": -5
    },
    {
      "": 2628,
      "station": "Boylston St at Arlington St",
      "lat": 42.352033,
      "lon": -71.070627,
      "hour": 0,
      "startCounts": 13,
      "endCounts": 18,
      "Diff": -5
    },
    {
      "": 4231,
      "station": "Upham's Corner",
      "lat": 42.317283,
      "lon": -71.065363,
      "hour": 0,
      "startCounts": 0,
      "endCounts": 2,
      "Diff": -2
    },
    {
      "": 3822,
      "station": "Washington St at Waltham St",
      "lat": 42.341522,
      "lon": -71.068922,
      "hour": 0,
      "startCounts": 1,
      "endCounts": 3,
      "Diff": -2
    },
    {
      "": 1950,
      "station": "Union Square - Brighton Ave at Cambridge St",
      "lat": 42.353334000000004,
      "lon": -71.137313,
      "hour": 0,
      "startCounts": 10,
      "endCounts": 3,
      "Diff": 7
    },
    {
      "": 23,
      "station": "HMS/HSPH - Avenue Louis Pasteur at Longwood Ave",
      "lat": 42.337417484597296,
      "lon": -71.10286116600038,
      "hour": 0,
      "startCounts": 4,
      "endCounts": 4,
      "Diff": 0
    },
    {
      "": 22,
      "station": "175 N Harvard St",
      "lat": 42.363796,
      "lon": -71.129164,
      "hour": 0,
      "startCounts": 4,
      "endCounts": 11,
      "Diff": -7
    },
    {
      "": 20,
      "station": "W Broadway at D St",
      "lat": 42.3391085,
      "lon": -71.05144320000001,
      "hour": 0,
      "startCounts": 5,
      "endCounts": 7,
      "Diff": -2
    },
    {
      "": 19,
      "station": "Davis Square",
      "lat": 42.396969,
      "lon": -71.123024,
      "hour": 0,
      "startCounts": 21,
      "endCounts": 9,
      "Diff": 12
    },
    {
      "": 18,
      "station": "MIT Pacific St at Purrington St",
      "lat": 42.359573201090434,
      "lon": -71.10129475593567,
      "hour": 0,
      "startCounts": 43,
      "endCounts": 41,
      "Diff": 2
    },
    {
      "": 17,
      "station": "Central Square at Mass Ave / Essex St",
      "lat": 42.36507,
      "lon": -71.1031,
      "hour": 0,
      "startCounts": 30,
      "endCounts": 34,
      "Diff": -4
    },
    {
      "": 16,
      "station": "Harvard Law School at Mass Ave / Jarvis St",
      "lat": 42.379011,
      "lon": -71.119945,
      "hour": 0,
      "startCounts": 11,
      "endCounts": 9,
      "Diff": 2
    },
    {
      "": 15,
      "station": "Northeastern University - North Parking Lot",
      "lat": 42.341814,
      "lon": -71.090179,
      "hour": 0,
      "startCounts": 16,
      "endCounts": 19,
      "Diff": -3
    },
    {
      "": 14,
      "station": "Cross St at Hanover St",
      "lat": 42.362811,
      "lon": -71.056067,
      "hour": 0,
      "startCounts": 17,
      "endCounts": 15,
      "Diff": 2
    },
    {
      "": 13,
      "station": "Back Bay T Stop - Dartmouth St at Stuart St",
      "lat": 42.34807412317439,
      "lon": -71.07657015323639,
      "hour": 0,
      "startCounts": 8,
      "endCounts": 7,
      "Diff": 1
    },
    {
      "": 12,
      "station": "Lower Cambridgeport at Magazine St/Riverside Rd",
      "lat": 42.35721850317653,
      "lon": -71.1138716340065,
      "hour": 0,
      "startCounts": 5,
      "endCounts": 10,
      "Diff": -5
    },
    {
      "": 21,
      "station": "Inman Square at Vellucci Plaza / Hampshire St",
      "lat": 42.374035,
      "lon": -71.101427,
      "hour": 0,
      "startCounts": 12,
      "endCounts": 20,
      "Diff": -8
    },
    {
      "": 10,
      "station": "Allston Green District - Griggs St at Commonwealth Ave",
      "lat": 42.348520145812714,
      "lon": -71.13394662737845,
      "hour": 0,
      "startCounts": 7,
      "endCounts": 12,
      "Diff": -5
    },
    {
      "": 11,
      "station": "Jackson Square T Stop",
      "lat": 42.32293117195949,
      "lon": -71.10014140605927,
      "hour": 0,
      "startCounts": 3,
      "endCounts": 10,
      "Diff": -7
    },
    {
      "": 1,
      "station": "Watermark Seaport - Boston Wharf Rd at Seaport Blvd",
      "lat": 42.351586001198456,
      "lon": -71.04569256305693,
      "hour": 0,
      "startCounts": 13,
      "endCounts": 3,
      "Diff": 10
    },
    {
      "": 3,
      "station": "Longwood Ave at Binney St",
      "lat": 42.338629,
      "lon": -71.1065,
      "hour": 0,
      "startCounts": 10,
      "endCounts": 4,
      "Diff": 6
    },
    {
      "": 4,
      "station": "MIT Vassar St",
      "lat": 42.35560121327927,
      "lon": -71.10394477844237,
      "hour": 0,
      "startCounts": 21,
      "endCounts": 54,
      "Diff": -33
    },
    {
      "": 2,
      "station": "MIT Stata Center at Vassar St / Main St",
      "lat": 42.3621312344991,
      "lon": -71.09115600585936,
      "hour": 0,
      "startCounts": 11,
      "endCounts": 4,
      "Diff": 7
    },
    {
      "": 6,
      "station": "Harvard Square at Mass Ave/ Dunster",
      "lat": 42.373267999999996,
      "lon": -71.118579,
      "hour": 0,
      "startCounts": 22,
      "endCounts": 12,
      "Diff": 10
    },
    {
      "": 7,
      "station": "Cambridge Main Library at Broadway / Trowbridge St",
      "lat": 42.373379,
      "lon": -71.111075,
      "hour": 0,
      "startCounts": 16,
      "endCounts": 9,
      "Diff": 7
    },
    {
      "": 8,
      "station": "Boylston St at Massachusetts Ave",
      "lat": 42.347265,
      "lon": -71.088088,
      "hour": 0,
      "startCounts": 22,
      "endCounts": 4,
      "Diff": 18
    },
    {
      "": 9,
      "station": "State Street at Channel Center",
      "lat": 42.344136999999996,
      "lon": -71.05260799999999,
      "hour": 0,
      "startCounts": 3,
      "endCounts": 1,
      "Diff": 2
    },
    {
      "": 5,
      "station": "Brigham Circle - Francis St at Huntington Ave",
      "lat": 42.33462893055976,
      "lon": -71.10407917767589,
      "hour": 0,
      "startCounts": 17,
      "endCounts": 11,
      "Diff": 6
    },
    {
      "": 3669,
      "station": "Nashua Street at Red Auerbach Way",
      "lat": 42.365673,
      "lon": -71.064263,
      "hour": 1,
      "startCounts": 2,
      "endCounts": 4,
      "Diff": -2
    },
    {
      "": 3710,
      "station": "Third at Binney",
      "lat": 42.365444861373994,
      "lon": -71.0827714204788,
      "hour": 1,
      "startCounts": 2,
      "endCounts": 6,
      "Diff": -4
    },
    {
      "": 3670,
      "station": "Somerville City Hall",
      "lat": 42.386844,
      "lon": -71.09812,
      "hour": 1,
      "startCounts": 1,
      "endCounts": 6,
      "Diff": -5
    },
    {
      "": 3671,
      "station": "Soldiers Field Park - 111 Western Ave",
      "lat": 42.365064000000004,
      "lon": -71.119233,
      "hour": 1,
      "startCounts": 1,
      "endCounts": 6,
      "Diff": -5
    },
    {
      "": 3672,
      "station": "Warren St at Chelsea St",
      "lat": 42.371848,
      "lon": -71.060292,
      "hour": 1,
      "startCounts": 1,
      "endCounts": 2,
      "Diff": -1
    },
    {
      "": 3708,
      "station": "Newbury St at Hereford St",
      "lat": 42.348717,
      "lon": -71.085954,
      "hour": 1,
      "startCounts": 13,
      "endCounts": 11,
      "Diff": 2
    },
    {
      "": 3709,
      "station": "Boylston St at Washington St",
      "lat": 42.352409,
      "lon": -71.062679,
      "hour": 1,
      "startCounts": 4,
      "endCounts": 3,
      "Diff": 1
    },
    {
      "": 3711,
      "station": "EF - North Point Park",
      "lat": 42.369885,
      "lon": -71.06995699999999,
      "hour": 1,
      "startCounts": 3,
      "endCounts": 5,
      "Diff": -2
    },
    {
      "": 3760,
      "station": "Wentworth Institute of Technology - Huntington Ave at Vancouver St",
      "lat": 42.33758601097239,
      "lon": -71.09627097845076,
      "hour": 1,
      "startCounts": 2,
      "endCounts": 4,
      "Diff": -2
    },
    {
      "": 3714,
      "station": "Andrew T Stop - Dorchester Ave at Dexter St",
      "lat": 42.33047365041517,
      "lon": -71.05701684951781,
      "hour": 1,
      "startCounts": 1,
      "endCounts": 0,
      "Diff": 1
    },
    {
      "": 3715,
      "station": "Seaport Hotel - Congress St at Seaport Ln",
      "lat": 42.34881026188269,
      "lon": -71.04167744055303,
      "hour": 1,
      "startCounts": 1,
      "endCounts": 0,
      "Diff": 1
    },
    {
      "": 3758,
      "station": "Jackson Square T Stop",
      "lat": 42.32293117195949,
      "lon": -71.10014140605927,
      "hour": 1,
      "startCounts": 1,
      "endCounts": 4,
      "Diff": -3
    },
    {
      "": 3759,
      "station": "Ryan Playground - Dorchester Ave at Harbor View St",
      "lat": 42.317642,
      "lon": -71.056664,
      "hour": 1,
      "startCounts": 3,
      "endCounts": 3,
      "Diff": 0
    },
    {
      "": 3774,
      "station": "Coolidge Corner - Beacon St @ Centre St",
      "lat": 42.341598,
      "lon": -71.123338,
      "hour": 1,
      "startCounts": 4,
      "endCounts": 5,
      "Diff": -1
    },
    {
      "": 3775,
      "station": "Packard Ave / Powderhouse Blvd",
      "lat": 42.40449,
      "lon": -71.123413,
      "hour": 1,
      "startCounts": 1,
      "endCounts": 8,
      "Diff": -7
    },
    {
      "": 3776,
      "station": "NCAAA - Walnut Ave at Crawford St",
      "lat": 42.316902,
      "lon": -71.091946,
      "hour": 1,
      "startCounts": 1,
      "endCounts": 1,
      "Diff": 0
    },
    {
      "": 3639,
      "station": "One Broadway / Kendall Sq at Main St / 3rd St",
      "lat": 42.362613,
      "lon": -71.08410500000001,
      "hour": 1,
      "startCounts": 1,
      "endCounts": 1,
      "Diff": 0
    },
    {
      "": 3713,
      "station": "East Boston Neighborhood Health Center - 20 Maverick Square",
      "lat": 42.369536,
      "lon": -71.03943100000001,
      "hour": 1,
      "startCounts": 1,
      "endCounts": 0,
      "Diff": 1
    },
    {
      "": 3638,
      "station": "175 N Harvard St",
      "lat": 42.363796,
      "lon": -71.129164,
      "hour": 1,
      "startCounts": 2,
      "endCounts": 3,
      "Diff": -1
    },
    {
      "": 3424,
      "station": "Fan Pier",
      "lat": 42.35294080239233,
      "lon": -71.04388475418091,
      "hour": 1,
      "startCounts": 1,
      "endCounts": 0,
      "Diff": 1
    },
    {
      "": 3599,
      "station": "Powder House Circle - Nathan Tufts Park",
      "lat": 42.400877,
      "lon": -71.116772,
      "hour": 1,
      "startCounts": 2,
      "endCounts": 2,
      "Diff": 0
    },
    {
      "": 3350,
      "station": "Stuart St at Charles St",
      "lat": 42.351146,
      "lon": -71.066289,
      "hour": 1,
      "startCounts": 15,
      "endCounts": 15,
      "Diff": 0
    },
    {
      "": 3418,
      "station": "Kendall T",
      "lat": 42.362427842912396,
      "lon": -71.08495473861693,
      "hour": 1,
      "startCounts": 9,
      "endCounts": 6,
      "Diff": 3
    },
    {
      "": 3419,
      "station": "Harvard University / SEAS Cruft-Pierce Halls at 29 Oxford St",
      "lat": 42.377945000000004,
      "lon": -71.116865,
      "hour": 1,
      "startCounts": 3,
      "endCounts": 0,
      "Diff": 3
    },
    {
      "": 3420,
      "station": "Murphy Skating Rink - 1880 Day Blvd",
      "lat": 42.336448,
      "lon": -71.023739,
      "hour": 1,
      "startCounts": 2,
      "endCounts": 4,
      "Diff": -2
    },
    {
      "": 3421,
      "station": "Boylston St at Berkeley St",
      "lat": 42.351141982547496,
      "lon": -71.07329249382019,
      "hour": 1,
      "startCounts": 4,
      "endCounts": 1,
      "Diff": 3
    },
    {
      "": 3422,
      "station": "W Broadway at D St",
      "lat": 42.3391085,
      "lon": -71.05144320000001,
      "hour": 1,
      "startCounts": 1,
      "endCounts": 3,
      "Diff": -2
    },
    {
      "": 3423,
      "station": "Dorchester Ave at Gillette Park",
      "lat": 42.34404051001636,
      "lon": -71.0573762655258,
      "hour": 1,
      "startCounts": 1,
      "endCounts": 3,
      "Diff": -2
    },
    {
      "": 3824,
      "station": "Sidney Research Campus/ Erie Street at Waverly",
      "lat": 42.35775309465199,
      "lon": -71.10393404960631,
      "hour": 1,
      "startCounts": 1,
      "endCounts": 1,
      "Diff": 0
    },
    {
      "": 3425,
      "station": "CambridgeSide Galleria - CambridgeSide PL at Land Blvd",
      "lat": 42.366981,
      "lon": -71.076472,
      "hour": 1,
      "startCounts": 1,
      "endCounts": 6,
      "Diff": -5
    },
    {
      "": 3426,
      "station": "Lewis Wharf at Atlantic Ave",
      "lat": 42.363871,
      "lon": -71.050877,
      "hour": 1,
      "startCounts": 1,
      "endCounts": 5,
      "Diff": -4
    },
    {
      "": 3515,
      "station": "South Boston Library - 646 E Broadway",
      "lat": 42.335741,
      "lon": -71.03877,
      "hour": 1,
      "startCounts": 4,
      "endCounts": 3,
      "Diff": 1
    },
    {
      "": 3556,
      "station": "Binney St / Sixth St",
      "lat": 42.366095,
      "lon": -71.086388,
      "hour": 1,
      "startCounts": 6,
      "endCounts": 8,
      "Diff": -2
    },
    {
      "": 3557,
      "station": "Harvard University Gund Hall at Quincy St / Kirkland S",
      "lat": 42.376369,
      "lon": -71.114025,
      "hour": 1,
      "startCounts": 9,
      "endCounts": 7,
      "Diff": 2
    },
    {
      "": 3558,
      "station": "Spaulding Rehabilitation Hospital - Charlestown Navy Yard",
      "lat": 42.378338,
      "lon": -71.048927,
      "hour": 1,
      "startCounts": 1,
      "endCounts": 1,
      "Diff": 0
    },
    {
      "": 3559,
      "station": "Beacon St at Washington / Kirkland",
      "lat": 42.37842,
      "lon": -71.10566800000001,
      "hour": 1,
      "startCounts": 2,
      "endCounts": 15,
      "Diff": -13
    },
    {
      "": 3597,
      "station": "Dudley Square - Dudley St at Warren St",
      "lat": 42.32854046293402,
      "lon": -71.08416482806204,
      "hour": 1,
      "startCounts": 1,
      "endCounts": 1,
      "Diff": 0
    },
    {
      "": 3598,
      "station": "Harvard University Radcliffe Quadrangle at Shepard St / Garden St",
      "lat": 42.380287,
      "lon": -71.125107,
      "hour": 1,
      "startCounts": 2,
      "endCounts": 9,
      "Diff": -7
    },
    {
      "": 3600,
      "station": "Union Square - Brighton Ave at Cambridge St",
      "lat": 42.353334000000004,
      "lon": -71.137313,
      "hour": 1,
      "startCounts": 6,
      "endCounts": 10,
      "Diff": -4
    },
    {
      "": 3825,
      "station": "Green Street T Stop - Green St at Amory St",
      "lat": 42.310579,
      "lon": -71.107341,
      "hour": 1,
      "startCounts": 1,
      "endCounts": 0,
      "Diff": 1
    },
    {
      "": 3939,
      "station": "Brian P. Murphy Staircase at Child Street",
      "lat": 42.3720597013741,
      "lon": -71.07202649116515,
      "hour": 1,
      "startCounts": 1,
      "endCounts": 3,
      "Diff": -2
    },
    {
      "": 3849,
      "station": "Linear Park - Mass. Ave. at Cameron Ave.",
      "lat": 42.397828000000004,
      "lon": -71.130516,
      "hour": 1,
      "startCounts": 1,
      "endCounts": 0,
      "Diff": 1
    },
    {
      "": 4089,
      "station": "JFK Crossing at Harvard St. / Thorndike St.",
      "lat": 42.346563,
      "lon": -71.128374,
      "hour": 1,
      "startCounts": 0,
      "endCounts": 3,
      "Diff": -3
    },
    {
      "": 4101,
      "station": "Broadway St at Mt Pleasant St",
      "lat": 42.38614141163957,
      "lon": -71.07828140258789,
      "hour": 1,
      "startCounts": 0,
      "endCounts": 4,
      "Diff": -4
    },
    {
      "": 4102,
      "station": "Walnut Ave at Warren St",
      "lat": 42.324081,
      "lon": -71.083235,
      "hour": 1,
      "startCounts": 0,
      "endCounts": 1,
      "Diff": -1
    },
    {
      "": 4123,
      "station": "Harvard Kennedy School at Bennett St / Eliot St",
      "lat": 42.371991654086756,
      "lon": -71.12226963043213,
      "hour": 1,
      "startCounts": 0,
      "endCounts": 1,
      "Diff": -1
    },
    {
      "": 4131,
      "station": "Conway Park - Somerville Avenue",
      "lat": 42.383404999999996,
      "lon": -71.10759300000001,
      "hour": 1,
      "startCounts": 0,
      "endCounts": 5,
      "Diff": -5
    },
    {
      "": 4146,
      "station": "Main St at Austin St",
      "lat": 42.375603000000005,
      "lon": -71.06460799999999,
      "hour": 1,
      "startCounts": 0,
      "endCounts": 1,
      "Diff": -1
    },
    {
      "": 4155,
      "station": "Roxbury YMCA - Warren St at MLK Blvd",
      "lat": 42.317873293456024,
      "lon": -71.08243077993394,
      "hour": 1,
      "startCounts": 0,
      "endCounts": 2,
      "Diff": -2
    },
    {
      "": 4156,
      "station": "Bunker Hill Community College",
      "lat": 42.37408991426522,
      "lon": -71.06905996799469,
      "hour": 1,
      "startCounts": 0,
      "endCounts": 1,
      "Diff": -1
    },
    {
      "": 4157,
      "station": "Hayes Square - Vine St at Moulton St",
      "lat": 42.377022,
      "lon": -71.056605,
      "hour": 1,
      "startCounts": 0,
      "endCounts": 1,
      "Diff": -1
    },
    {
      "": 4158,
      "station": "S Huntington Ave at Heath St",
      "lat": 42.327972700000004,
      "lon": -71.11089709999999,
      "hour": 1,
      "startCounts": 0,
      "endCounts": 2,
      "Diff": -2
    },
    {
      "": 4162,
      "station": "Chelsea St at Saratoga St",
      "lat": 42.379771999999996,
      "lon": -71.02744799999999,
      "hour": 1,
      "startCounts": 0,
      "endCounts": 1,
      "Diff": -1
    },
    {
      "": 4190,
      "station": "Oak Square - 615 Washington St",
      "lat": 42.350570000000005,
      "lon": -71.16649100000001,
      "hour": 1,
      "startCounts": 0,
      "endCounts": 1,
      "Diff": -1
    },
    {
      "": 4196,
      "station": "Washington St at Brock St",
      "lat": 42.348952846695106,
      "lon": -71.16031676530837,
      "hour": 1,
      "startCounts": 0,
      "endCounts": 1,
      "Diff": -1
    },
    {
      "": 4197,
      "station": "Upham's Corner",
      "lat": 42.317283,
      "lon": -71.065363,
      "hour": 1,
      "startCounts": 0,
      "endCounts": 2,
      "Diff": -2
    },
    {
      "": 4207,
      "station": "The Lawn on D",
      "lat": 42.344792,
      "lon": -71.044024,
      "hour": 1,
      "startCounts": 0,
      "endCounts": 1,
      "Diff": -1
    },
    {
      "": 4214,
      "station": "Washington St at Melnea Cass Blvd",
      "lat": 42.332817,
      "lon": -71.081198,
      "hour": 1,
      "startCounts": 0,
      "endCounts": 1,
      "Diff": -1
    },
    {
      "": 4220,
      "station": "JFK/UMass T Stop",
      "lat": 42.320339735157226,
      "lon": -71.05118036270143,
      "hour": 1,
      "startCounts": 0,
      "endCounts": 1,
      "Diff": -1
    },
    {
      "": 4088,
      "station": "Hyde Square - Barbara St at Centre St",
      "lat": 42.32090296264123,
      "lon": -71.11188411712645,
      "hour": 1,
      "startCounts": 0,
      "endCounts": 2,
      "Diff": -2
    },
    {
      "": 3826,
      "station": "Lower Cambridgeport at Magazine St/Riverside Rd",
      "lat": 42.35721850317653,
      "lon": -71.1138716340065,
      "hour": 1,
      "startCounts": 1,
      "endCounts": 7,
      "Diff": -6
    },
    {
      "": 4075,
      "station": "Magoun Square at Trum Field",
      "lat": 42.398365000000005,
      "lon": -71.10781800000001,
      "hour": 1,
      "startCounts": 0,
      "endCounts": 3,
      "Diff": -3
    },
    {
      "": 4037,
      "station": "Glendon St at Condor St",
      "lat": 42.38240377674137,
      "lon": -71.03024303913115,
      "hour": 1,
      "startCounts": 0,
      "endCounts": 1,
      "Diff": -1
    },
    {
      "": 3850,
      "station": "Arch St at Franklin St",
      "lat": 42.35530156110769,
      "lon": -71.0582560300827,
      "hour": 1,
      "startCounts": 1,
      "endCounts": 0,
      "Diff": 1
    },
    {
      "": 3851,
      "station": "Wilson Square",
      "lat": 42.385582,
      "lon": -71.113341,
      "hour": 1,
      "startCounts": 1,
      "endCounts": 5,
      "Diff": -4
    },
    {
      "": 3852,
      "station": "Mt Auburn",
      "lat": 42.37478628706384,
      "lon": -71.13320231437683,
      "hour": 1,
      "startCounts": 1,
      "endCounts": 4,
      "Diff": -3
    },
    {
      "": 3853,
      "station": "Brookline Village - Station Street @ MBTA",
      "lat": 42.33289074055233,
      "lon": -71.11658334732057,
      "hour": 1,
      "startCounts": 2,
      "endCounts": 1,
      "Diff": 1
    },
    {
      "": 3854,
      "station": "Post Office Square - Pearl St at Milk St",
      "lat": 42.356755,
      "lon": -71.05540699999999,
      "hour": 1,
      "startCounts": 2,
      "endCounts": 0,
      "Diff": 2
    },
    {
      "": 3855,
      "station": "Seaport Square - Seaport Blvd at Northern Ave",
      "lat": 42.35148193460858,
      "lon": -71.04436084628105,
      "hour": 1,
      "startCounts": 1,
      "endCounts": 3,
      "Diff": -2
    },
    {
      "": 3885,
      "station": "Danehy Park",
      "lat": 42.388965999999996,
      "lon": -71.132788,
      "hour": 1,
      "startCounts": 3,
      "endCounts": 3,
      "Diff": 0
    },
    {
      "": 3886,
      "station": "Central Square - East Boston",
      "lat": 42.37430732260765,
      "lon": -71.03807777166365,
      "hour": 1,
      "startCounts": 2,
      "endCounts": 0,
      "Diff": 2
    },
    {
      "": 3938,
      "station": "Washington St at Lenox St",
      "lat": 42.3350989929096,
      "lon": -71.07903778553009,
      "hour": 1,
      "startCounts": 1,
      "endCounts": 5,
      "Diff": -4
    },
    {
      "": 3349,
      "station": "MIT Vassar St",
      "lat": 42.35560121327927,
      "lon": -71.10394477844237,
      "hour": 1,
      "startCounts": 6,
      "endCounts": 23,
      "Diff": -17
    },
    {
      "": 3959,
      "station": "Colleges of the Fenway - Fenway at Avenue Louis Pasteur",
      "lat": 42.340115122492364,
      "lon": -71.10061883926393,
      "hour": 1,
      "startCounts": 7,
      "endCounts": 5,
      "Diff": 2
    },
    {
      "": 3960,
      "station": "Harvard University Housing - 115 Putnam Ave at Peabody Terrace",
      "lat": 42.366621,
      "lon": -71.114214,
      "hour": 1,
      "startCounts": 2,
      "endCounts": 9,
      "Diff": -7
    },
    {
      "": 3961,
      "station": "Maverick Square - Lewis Mall",
      "lat": 42.368844082898356,
      "lon": -71.03977829217911,
      "hour": 1,
      "startCounts": 1,
      "endCounts": 0,
      "Diff": 1
    },
    {
      "": 3962,
      "station": "Congress St at Sleeper St",
      "lat": 42.351004495946704,
      "lon": -71.04930013418199,
      "hour": 1,
      "startCounts": 1,
      "endCounts": 2,
      "Diff": -1
    },
    {
      "": 3978,
      "station": "Teele Square at 239 Holland St",
      "lat": 42.402763,
      "lon": -71.126908,
      "hour": 1,
      "startCounts": 0,
      "endCounts": 5,
      "Diff": -5
    },
    {
      "": 4005,
      "station": "Egleston Square - Atherton St at Washington St",
      "lat": 42.315692,
      "lon": -71.09863399999999,
      "hour": 1,
      "startCounts": 0,
      "endCounts": 2,
      "Diff": -2
    },
    {
      "": 4025,
      "station": "E Cottage St at Columbia Rd",
      "lat": 42.320561,
      "lon": -71.06198,
      "hour": 1,
      "startCounts": 0,
      "endCounts": 1,
      "Diff": -1
    },
    {
      "": 4052,
      "station": "State Street at Channel Center",
      "lat": 42.344136999999996,
      "lon": -71.05260799999999,
      "hour": 1,
      "startCounts": 0,
      "endCounts": 1,
      "Diff": -1
    },
    {
      "": 3348,
      "station": "Cambridge St - at Columbia St / Webster Ave",
      "lat": 42.372969,
      "lon": -71.094445,
      "hour": 1,
      "startCounts": 8,
      "endCounts": 6,
      "Diff": 2
    },
    {
      "": 3260,
      "station": "Brigham Circle - Francis St at Huntington Ave",
      "lat": 42.33462893055976,
      "lon": -71.10407917767589,
      "hour": 1,
      "startCounts": 3,
      "endCounts": 8,
      "Diff": -5
    },
    {
      "": 3346,
      "station": "Congress St at North St",
      "lat": 42.360613,
      "lon": -71.057452,
      "hour": 1,
      "startCounts": 7,
      "endCounts": 2,
      "Diff": 5
    },
    {
      "": 1996,
      "station": "Boston City Hall - 28 State St",
      "lat": 42.35892,
      "lon": -71.057629,
      "hour": 1,
      "startCounts": 10,
      "endCounts": 3,
      "Diff": 7
    },
    {
      "": 1997,
      "station": "Davis Square",
      "lat": 42.396969,
      "lon": -71.123024,
      "hour": 1,
      "startCounts": 5,
      "endCounts": 7,
      "Diff": -2
    },
    {
      "": 1998,
      "station": "Beacon St at Massachusetts Ave",
      "lat": 42.350826806690954,
      "lon": -71.0898108780384,
      "hour": 1,
      "startCounts": 51,
      "endCounts": 23,
      "Diff": 28
    },
    {
      "": 1999,
      "station": "Park Dr at Buswell St",
      "lat": 42.347241,
      "lon": -71.105301,
      "hour": 1,
      "startCounts": 7,
      "endCounts": 3,
      "Diff": 4
    },
    {
      "": 2000,
      "station": "Brighton Center - Washington St at Cambridge St",
      "lat": 42.34894857235593,
      "lon": -71.15027189254761,
      "hour": 1,
      "startCounts": 4,
      "endCounts": 14,
      "Diff": -10
    },
    {
      "": 25,
      "station": "New Balance - 20 Guest St",
      "lat": 42.357329218677066,
      "lon": -71.14673539996147,
      "hour": 1,
      "startCounts": 1,
      "endCounts": 1,
      "Diff": 0
    },
    {
      "": 26,
      "station": "Charles Circle - Charles St at Cambridge St",
      "lat": 42.36071444836764,
      "lon": -71.07092812657356,
      "hour": 1,
      "startCounts": 14,
      "endCounts": 5,
      "Diff": 9
    },
    {
      "": 27,
      "station": "HMS/HSPH - Avenue Louis Pasteur at Longwood Ave",
      "lat": 42.337417484597296,
      "lon": -71.10286116600038,
      "hour": 1,
      "startCounts": 6,
      "endCounts": 4,
      "Diff": 2
    },
    {
      "": 28,
      "station": "Ink Block - Harrison Ave at Herald St",
      "lat": 42.345901,
      "lon": -71.063187,
      "hour": 1,
      "startCounts": 4,
      "endCounts": 0,
      "Diff": 4
    },
    {
      "": 29,
      "station": "Aquarium T Stop - 200 Atlantic Ave",
      "lat": 42.35991176110118,
      "lon": -71.0514298081398,
      "hour": 1,
      "startCounts": 3,
      "endCounts": 3,
      "Diff": 0
    },
    {
      "": 30,
      "station": "University Park",
      "lat": 42.36264779118595,
      "lon": -71.1000609397888,
      "hour": 1,
      "startCounts": 18,
      "endCounts": 10,
      "Diff": 8
    },
    {
      "": 31,
      "station": "Verizon Innovation Hub 10 Ware Street",
      "lat": 42.37250864997261,
      "lon": -71.11305356025694,
      "hour": 1,
      "startCounts": 6,
      "endCounts": 2,
      "Diff": 4
    },
    {
      "": 32,
      "station": "Alewife MBTA at Steel Place",
      "lat": 42.395588457167094,
      "lon": -71.14260613918304,
      "hour": 1,
      "startCounts": 2,
      "endCounts": 2,
      "Diff": 0
    },
    {
      "": 33,
      "station": "Boston Convention and Exhibition Center - Summer St at West Side Dr",
      "lat": 42.347763454147454,
      "lon": -71.04535996913908,
      "hour": 1,
      "startCounts": 1,
      "endCounts": 1,
      "Diff": 0
    },
    {
      "": 34,
      "station": "Lesley University",
      "lat": 42.38674802045056,
      "lon": -71.11901879310608,
      "hour": 1,
      "startCounts": 1,
      "endCounts": 2,
      "Diff": -1
    },
    {
      "": 35,
      "station": "Central Sq Post Office / Cambridge City Hall at Mass Ave / Pleasant St",
      "lat": 42.366426000000004,
      "lon": -71.10549499999999,
      "hour": 1,
      "startCounts": 14,
      "endCounts": 10,
      "Diff": 4
    },
    {
      "": 36,
      "station": "Clarendon Hill at Broadway",
      "lat": 42.406302000000004,
      "lon": -71.132446,
      "hour": 1,
      "startCounts": 1,
      "endCounts": 2,
      "Diff": -1
    },
    {
      "": 1995,
      "station": "Boylston St at Dartmouth St",
      "lat": 42.350413,
      "lon": -71.07655,
      "hour": 1,
      "startCounts": 4,
      "endCounts": 4,
      "Diff": 0
    },
    {
      "": 2504,
      "station": "Cross St at Hanover St",
      "lat": 42.362811,
      "lon": -71.056067,
      "hour": 1,
      "startCounts": 9,
      "endCounts": 5,
      "Diff": 4
    },
    {
      "": 1994,
      "station": "Commonwealth Ave at Buick St",
      "lat": 42.35062177153799,
      "lon": -71.11288218766276,
      "hour": 1,
      "startCounts": 6,
      "endCounts": 1,
      "Diff": 5
    },
    {
      "": 1992,
      "station": "Allston Green District - Griggs St at Commonwealth Ave",
      "lat": 42.348520145812714,
      "lon": -71.13394662737845,
      "hour": 1,
      "startCounts": 2,
      "endCounts": 6,
      "Diff": -4
    },
    {
      "": 24,
      "station": "Inman Square at Vellucci Plaza / Hampshire St",
      "lat": 42.374035,
      "lon": -71.101427,
      "hour": 1,
      "startCounts": 6,
      "endCounts": 14,
      "Diff": -8
    },
    {
      "": 1976,
      "station": "MIT at Mass Ave / Amherst St",
      "lat": 42.3581,
      "lon": -71.093198,
      "hour": 1,
      "startCounts": 36,
      "endCounts": 52,
      "Diff": -16
    },
    {
      "": 1977,
      "station": "MIT Pacific St at Purrington St",
      "lat": 42.359573201090434,
      "lon": -71.10129475593567,
      "hour": 1,
      "startCounts": 29,
      "endCounts": 25,
      "Diff": 4
    },
    {
      "": 1978,
      "station": "Yawkey Way at Boylston St.",
      "lat": 42.3446808403874,
      "lon": -71.09785348176956,
      "hour": 1,
      "startCounts": 20,
      "endCounts": 22,
      "Diff": -2
    },
    {
      "": 1979,
      "station": "Harvard Square at Brattle St / Eliot St",
      "lat": 42.373231,
      "lon": -71.120886,
      "hour": 1,
      "startCounts": 8,
      "endCounts": 1,
      "Diff": 7
    },
    {
      "": 1980,
      "station": "Harvard University River Houses at DeWolfe St / Cowperthwaite St",
      "lat": 42.36919031768079,
      "lon": -71.11714124679565,
      "hour": 1,
      "startCounts": 2,
      "endCounts": 4,
      "Diff": -2
    },
    {
      "": 1981,
      "station": "Tremont St at E Berkeley St",
      "lat": 42.345392,
      "lon": -71.069616,
      "hour": 1,
      "startCounts": 10,
      "endCounts": 6,
      "Diff": 4
    },
    {
      "": 1982,
      "station": "Porter Square Station",
      "lat": 42.387995000000004,
      "lon": -71.119084,
      "hour": 1,
      "startCounts": 3,
      "endCounts": 3,
      "Diff": 0
    },
    {
      "": 1983,
      "station": "Harvard Law School at Mass Ave / Jarvis St",
      "lat": 42.379011,
      "lon": -71.119945,
      "hour": 1,
      "startCounts": 12,
      "endCounts": 6,
      "Diff": 6
    },
    {
      "": 1984,
      "station": "Christian Science Plaza - Massachusetts Ave at Westland Ave",
      "lat": 42.3436658245146,
      "lon": -71.08582377433777,
      "hour": 1,
      "startCounts": 16,
      "endCounts": 14,
      "Diff": 2
    },
    {
      "": 1985,
      "station": "One Kendall Square at Hampshire St / Portland St",
      "lat": 42.366277000000004,
      "lon": -71.09169,
      "hour": 1,
      "startCounts": 24,
      "endCounts": 8,
      "Diff": 16
    },
    {
      "": 1986,
      "station": "Roxbury Crossing T Stop - Columbus Ave at Tremont St",
      "lat": 42.331184,
      "lon": -71.095171,
      "hour": 1,
      "startCounts": 4,
      "endCounts": 8,
      "Diff": -4
    },
    {
      "": 1987,
      "station": "Longwood Ave at Binney St",
      "lat": 42.338629,
      "lon": -71.1065,
      "hour": 1,
      "startCounts": 4,
      "endCounts": 0,
      "Diff": 4
    },
    {
      "": 1988,
      "station": "Tremont St at West St",
      "lat": 42.354979,
      "lon": -71.063348,
      "hour": 1,
      "startCounts": 15,
      "endCounts": 10,
      "Diff": 5
    },
    {
      "": 1989,
      "station": "South End Library - Tremont St at W Newton St",
      "lat": 42.341332,
      "lon": -71.076847,
      "hour": 1,
      "startCounts": 2,
      "endCounts": 7,
      "Diff": -5
    },
    {
      "": 1990,
      "station": "Harvard Square at Mass Ave/ Dunster",
      "lat": 42.373267999999996,
      "lon": -71.118579,
      "hour": 1,
      "startCounts": 14,
      "endCounts": 7,
      "Diff": 7
    },
    {
      "": 1991,
      "station": "Congress St at Northern Ave",
      "lat": 42.3481,
      "lon": -71.03764,
      "hour": 1,
      "startCounts": 3,
      "endCounts": 2,
      "Diff": 1
    },
    {
      "": 1993,
      "station": "Dana Park",
      "lat": 42.361780439606044,
      "lon": -71.10809952020645,
      "hour": 1,
      "startCounts": 6,
      "endCounts": 6,
      "Diff": 0
    },
    {
      "": 3347,
      "station": "359 Broadway - Broadway at Fayette Street",
      "lat": 42.370803,
      "lon": -71.104412,
      "hour": 1,
      "startCounts": 4,
      "endCounts": 11,
      "Diff": -7
    },
    {
      "": 2505,
      "station": "Commonwealth Ave At Babcock St",
      "lat": 42.35154734791375,
      "lon": -71.12126246094705,
      "hour": 1,
      "startCounts": 5,
      "endCounts": 6,
      "Diff": -1
    },
    {
      "": 2507,
      "station": "Cambridge Main Library at Broadway / Trowbridge St",
      "lat": 42.373379,
      "lon": -71.111075,
      "hour": 1,
      "startCounts": 3,
      "endCounts": 5,
      "Diff": -2
    },
    {
      "": 2855,
      "station": "Boylston St at Arlington St",
      "lat": 42.352033,
      "lon": -71.070627,
      "hour": 1,
      "startCounts": 6,
      "endCounts": 6,
      "Diff": 0
    },
    {
      "": 2856,
      "station": "Boston Medical Center - E Concord St at Harrison Ave",
      "lat": 42.336437,
      "lon": -71.073089,
      "hour": 1,
      "startCounts": 1,
      "endCounts": 2,
      "Diff": -1
    },
    {
      "": 3050,
      "station": "B.U. Central - 725 Comm. Ave.",
      "lat": 42.350406,
      "lon": -71.10827900000001,
      "hour": 1,
      "startCounts": 5,
      "endCounts": 5,
      "Diff": 0
    },
    {
      "": 3051,
      "station": "Boylston St at Massachusetts Ave",
      "lat": 42.347265,
      "lon": -71.088088,
      "hour": 1,
      "startCounts": 6,
      "endCounts": 10,
      "Diff": -4
    },
    {
      "": 3052,
      "station": "Charles st and Beacon St",
      "lat": 42.356052000000005,
      "lon": -71.069849,
      "hour": 1,
      "startCounts": 11,
      "endCounts": 7,
      "Diff": 4
    },
    {
      "": 3053,
      "station": "MIT Stata Center at Vassar St / Main St",
      "lat": 42.3621312344991,
      "lon": -71.09115600585936,
      "hour": 1,
      "startCounts": 5,
      "endCounts": 3,
      "Diff": 2
    },
    {
      "": 3054,
      "station": "Washington St at Rutland St",
      "lat": 42.338514601785995,
      "lon": -71.07404083013535,
      "hour": 1,
      "startCounts": 5,
      "endCounts": 8,
      "Diff": -3
    },
    {
      "": 4232,
      "station": "The Eddy - New St at Sumner St",
      "lat": 42.370744,
      "lon": -71.044201,
      "hour": 1,
      "startCounts": 0,
      "endCounts": 2,
      "Diff": -2
    },
    {
      "": 3261,
      "station": "Boylston St at Fairfield St",
      "lat": 42.348762,
      "lon": -71.082383,
      "hour": 1,
      "startCounts": 7,
      "endCounts": 2,
      "Diff": 5
    },
    {
      "": 3262,
      "station": "Lechmere Station at Cambridge St / First St",
      "lat": 42.370677,
      "lon": -71.07652900000001,
      "hour": 1,
      "startCounts": 5,
      "endCounts": 13,
      "Diff": -8
    },
    {
      "": 3263,
      "station": "Ruggles T Stop - Columbus Ave at Melnea Cass Blvd",
      "lat": 42.33649625072997,
      "lon": -71.0874170064926,
      "hour": 1,
      "startCounts": 4,
      "endCounts": 6,
      "Diff": -2
    },
    {
      "": 3340,
      "station": "Washington St at Waltham St",
      "lat": 42.341522,
      "lon": -71.068922,
      "hour": 1,
      "startCounts": 3,
      "endCounts": 3,
      "Diff": 0
    },
    {
      "": 3341,
      "station": "Burlington Ave at Brookline Ave",
      "lat": 42.345733,
      "lon": -71.10069399999999,
      "hour": 1,
      "startCounts": 1,
      "endCounts": 0,
      "Diff": 1
    },
    {
      "": 3342,
      "station": "Cambridge Dept. of Public Works -147 Hampshire St.",
      "lat": 42.37119727759414,
      "lon": -71.09759867191316,
      "hour": 1,
      "startCounts": 7,
      "endCounts": 10,
      "Diff": -3
    },
    {
      "": 3343,
      "station": "Landmark Center - Brookline Ave at Park Dr",
      "lat": 42.345194289440954,
      "lon": -71.1016970872879,
      "hour": 1,
      "startCounts": 4,
      "endCounts": 1,
      "Diff": 3
    },
    {
      "": 3344,
      "station": "Chinatown Gate Plaza",
      "lat": 42.351356,
      "lon": -71.05936700000001,
      "hour": 1,
      "startCounts": 7,
      "endCounts": 4,
      "Diff": 3
    },
    {
      "": 3345,
      "station": "Washington Square at Washington St. / Beacon St.",
      "lat": 42.339335,
      "lon": -71.13493000000001,
      "hour": 1,
      "startCounts": 1,
      "endCounts": 0,
      "Diff": 1
    },
    {
      "": 2854,
      "station": "Back Bay T Stop - Dartmouth St at Stuart St",
      "lat": 42.34807412317439,
      "lon": -71.07657015323639,
      "hour": 1,
      "startCounts": 6,
      "endCounts": 2,
      "Diff": 4
    },
    {
      "": 2506,
      "station": "Copley Square - Dartmouth St at Boylston St",
      "lat": 42.34976701008725,
      "lon": -71.0773265361786,
      "hour": 1,
      "startCounts": 11,
      "endCounts": 7,
      "Diff": 4
    },
    {
      "": 2853,
      "station": "Edwards Playground - Main St at Eden St",
      "lat": 42.378965,
      "lon": -71.068607,
      "hour": 1,
      "startCounts": 1,
      "endCounts": 3,
      "Diff": -2
    },
    {
      "": 2637,
      "station": "W Broadway at Dorchester St",
      "lat": 42.335693,
      "lon": -71.045859,
      "hour": 1,
      "startCounts": 4,
      "endCounts": 8,
      "Diff": -4
    },
    {
      "": 2508,
      "station": "Silber Way",
      "lat": 42.349495995140025,
      "lon": -71.10057592391969,
      "hour": 1,
      "startCounts": 7,
      "endCounts": 12,
      "Diff": -5
    },
    {
      "": 2509,
      "station": "Union Square - Somerville",
      "lat": 42.379637,
      "lon": -71.09531899999999,
      "hour": 1,
      "startCounts": 11,
      "endCounts": 7,
      "Diff": 4
    },
    {
      "": 2510,
      "station": "Kenmore Square",
      "lat": 42.348706,
      "lon": -71.097009,
      "hour": 1,
      "startCounts": 13,
      "endCounts": 10,
      "Diff": 3
    },
    {
      "": 2511,
      "station": "Cambridge St at Joy St",
      "lat": 42.36130407013564,
      "lon": -71.0652096569538,
      "hour": 1,
      "startCounts": 8,
      "endCounts": 11,
      "Diff": -3
    },
    {
      "": 2512,
      "station": "Columbus Ave at Massachusetts Ave",
      "lat": 42.340542615516355,
      "lon": -71.08138847914233,
      "hour": 1,
      "startCounts": 5,
      "endCounts": 4,
      "Diff": 1
    },
    {
      "": 2513,
      "station": "Purchase St at Pearl St",
      "lat": 42.354659000000005,
      "lon": -71.05318100000001,
      "hour": 1,
      "startCounts": 3,
      "endCounts": 0,
      "Diff": 3
    },
    {
      "": 2514,
      "station": "South Station - 700 Atlantic Ave",
      "lat": 42.352175,
      "lon": -71.055547,
      "hour": 1,
      "startCounts": 4,
      "endCounts": 5,
      "Diff": -1
    },
    {
      "": 2515,
      "station": "Beacon St at Arlington St",
      "lat": 42.355549323361345,
      "lon": -71.07284188270569,
      "hour": 1,
      "startCounts": 4,
      "endCounts": 4,
      "Diff": 0
    },
    {
      "": 2516,
      "station": "Rowes Wharf at Atlantic Ave",
      "lat": 42.357143,
      "lon": -71.050699,
      "hour": 1,
      "startCounts": 5,
      "endCounts": 0,
      "Diff": 5
    },
    {
      "": 2517,
      "station": "Ames St at Main St",
      "lat": 42.3625,
      "lon": -71.08821999999999,
      "hour": 1,
      "startCounts": 16,
      "endCounts": 10,
      "Diff": 6
    },
    {
      "": 2518,
      "station": "Northeastern University - North Parking Lot",
      "lat": 42.341814,
      "lon": -71.090179,
      "hour": 1,
      "startCounts": 5,
      "endCounts": 9,
      "Diff": -4
    },
    {
      "": 2519,
      "station": "Watermark Seaport - Boston Wharf Rd at Seaport Blvd",
      "lat": 42.351586001198456,
      "lon": -71.04569256305693,
      "hour": 1,
      "startCounts": 3,
      "endCounts": 2,
      "Diff": 1
    },
    {
      "": 2520,
      "station": "Lafayette Square at Mass Ave / Main St / Columbia St",
      "lat": 42.36346469304347,
      "lon": -71.10057324171065,
      "hour": 1,
      "startCounts": 10,
      "endCounts": 5,
      "Diff": 5
    },
    {
      "": 2521,
      "station": "Central Square at Mass Ave / Essex St",
      "lat": 42.36507,
      "lon": -71.1031,
      "hour": 1,
      "startCounts": 19,
      "endCounts": 17,
      "Diff": 2
    },
    {
      "": 2634,
      "station": "Kendall Street",
      "lat": 42.36356015842989,
      "lon": -71.08216792345047,
      "hour": 1,
      "startCounts": 6,
      "endCounts": 3,
      "Diff": 3
    },
    {
      "": 2635,
      "station": "Packard's Corner - Commonwealth Ave at Brighton Ave",
      "lat": 42.352261,
      "lon": -71.12383100000001,
      "hour": 1,
      "startCounts": 15,
      "endCounts": 5,
      "Diff": 10
    },
    {
      "": 2636,
      "station": "Surface Rd at India St",
      "lat": 42.358155,
      "lon": -71.05216300000001,
      "hour": 1,
      "startCounts": 4,
      "endCounts": 3,
      "Diff": 1
    },
    {
      "": 2852,
      "station": "Prudential Center - Belvedere St",
      "lat": 42.345959,
      "lon": -71.082578,
      "hour": 1,
      "startCounts": 4,
      "endCounts": 7,
      "Diff": -3
    },
    {
      "": 4233,
      "station": "Brighton Mills - 370 Western Ave",
      "lat": 42.3615457081725,
      "lon": -71.13776206970216,
      "hour": 1,
      "startCounts": 0,
      "endCounts": 3,
      "Diff": -3
    },
    {
      "": 3712,
      "station": "Innovation Lab - 125 Western Ave at Batten Way",
      "lat": 42.363732,
      "lon": -71.124565,
      "hour": 1,
      "startCounts": 1,
      "endCounts": 1,
      "Diff": 0
    },
    {
      "": 3602,
      "station": "Harvard University Gund Hall at Quincy St / Kirkland S",
      "lat": 42.376369,
      "lon": -71.114025,
      "hour": 2,
      "startCounts": 4,
      "endCounts": 2,
      "Diff": 2
    },
    {
      "": 41,
      "station": "Boylston St at Fairfield St",
      "lat": 42.348762,
      "lon": -71.082383,
      "hour": 2,
      "startCounts": 2,
      "endCounts": 1,
      "Diff": 1
    },
    {
      "": 42,
      "station": "Harvard Kennedy School at Bennett St / Eliot St",
      "lat": 42.371991654086756,
      "lon": -71.12226963043213,
      "hour": 2,
      "startCounts": 1,
      "endCounts": 1,
      "Diff": 0
    },
    {
      "": 3645,
      "station": "South Boston Library - 646 E Broadway",
      "lat": 42.335741,
      "lon": -71.03877,
      "hour": 2,
      "startCounts": 3,
      "endCounts": 7,
      "Diff": -4
    },
    {
      "": 3762,
      "station": "Third at Binney",
      "lat": 42.365444861373994,
      "lon": -71.0827714204788,
      "hour": 2,
      "startCounts": 2,
      "endCounts": 5,
      "Diff": -3
    },
    {
      "": 3644,
      "station": "Lesley University",
      "lat": 42.38674802045056,
      "lon": -71.11901879310608,
      "hour": 2,
      "startCounts": 3,
      "endCounts": 1,
      "Diff": 2
    },
    {
      "": 3427,
      "station": "Lewis Wharf at Atlantic Ave",
      "lat": 42.363871,
      "lon": -71.050877,
      "hour": 2,
      "startCounts": 3,
      "endCounts": 2,
      "Diff": 1
    },
    {
      "": 3428,
      "station": "Seaport Square - Seaport Blvd at Northern Ave",
      "lat": 42.35148193460858,
      "lon": -71.04436084628105,
      "hour": 2,
      "startCounts": 2,
      "endCounts": 1,
      "Diff": 1
    },
    {
      "": 3429,
      "station": "Egleston Square - Atherton St at Washington St",
      "lat": 42.315692,
      "lon": -71.09863399999999,
      "hour": 2,
      "startCounts": 1,
      "endCounts": 2,
      "Diff": -1
    },
    {
      "": 3430,
      "station": "Congress St at Sleeper St",
      "lat": 42.351004495946704,
      "lon": -71.04930013418199,
      "hour": 2,
      "startCounts": 1,
      "endCounts": 0,
      "Diff": 1
    },
    {
      "": 3431,
      "station": "Longwood Ave at Binney St",
      "lat": 42.338629,
      "lon": -71.1065,
      "hour": 2,
      "startCounts": 6,
      "endCounts": 0,
      "Diff": 6
    },
    {
      "": 3432,
      "station": "Ruggles T Stop - Columbus Ave at Melnea Cass Blvd",
      "lat": 42.33649625072997,
      "lon": -71.0874170064926,
      "hour": 2,
      "startCounts": 2,
      "endCounts": 1,
      "Diff": 1
    },
    {
      "": 3433,
      "station": "Park Dr at Buswell St",
      "lat": 42.347241,
      "lon": -71.105301,
      "hour": 2,
      "startCounts": 1,
      "endCounts": 4,
      "Diff": -3
    },
    {
      "": 3434,
      "station": "Washington St at Lenox St",
      "lat": 42.3350989929096,
      "lon": -71.07903778553009,
      "hour": 2,
      "startCounts": 2,
      "endCounts": 4,
      "Diff": -2
    },
    {
      "": 3435,
      "station": "Boston City Hall - 28 State St",
      "lat": 42.35892,
      "lon": -71.057629,
      "hour": 2,
      "startCounts": 7,
      "endCounts": 3,
      "Diff": 4
    },
    {
      "": 3436,
      "station": "Allston Green District - Griggs St at Commonwealth Ave",
      "lat": 42.348520145812714,
      "lon": -71.13394662737845,
      "hour": 2,
      "startCounts": 3,
      "endCounts": 5,
      "Diff": -2
    },
    {
      "": 3437,
      "station": "Cross St at Hanover St",
      "lat": 42.362811,
      "lon": -71.056067,
      "hour": 2,
      "startCounts": 5,
      "endCounts": 6,
      "Diff": -1
    },
    {
      "": 4208,
      "station": "Alewife MBTA at Steel Place",
      "lat": 42.395588457167094,
      "lon": -71.14260613918304,
      "hour": 2,
      "startCounts": 0,
      "endCounts": 3,
      "Diff": -3
    },
    {
      "": 40,
      "station": "Ink Block - Harrison Ave at Herald St",
      "lat": 42.345901,
      "lon": -71.063187,
      "hour": 2,
      "startCounts": 2,
      "endCounts": 6,
      "Diff": -4
    },
    {
      "": 4209,
      "station": "Maverick Square - Lewis Mall",
      "lat": 42.368844082898356,
      "lon": -71.03977829217911,
      "hour": 2,
      "startCounts": 0,
      "endCounts": 2,
      "Diff": -2
    },
    {
      "": 39,
      "station": "South Station - 700 Atlantic Ave",
      "lat": 42.352175,
      "lon": -71.055547,
      "hour": 2,
      "startCounts": 8,
      "endCounts": 3,
      "Diff": 5
    },
    {
      "": 37,
      "station": "Charles st and Beacon St",
      "lat": 42.356052000000005,
      "lon": -71.069849,
      "hour": 2,
      "startCounts": 6,
      "endCounts": 5,
      "Diff": 1
    },
    {
      "": 3979,
      "station": "New Balance - 20 Guest St",
      "lat": 42.357329218677066,
      "lon": -71.14673539996147,
      "hour": 2,
      "startCounts": 0,
      "endCounts": 3,
      "Diff": -3
    },
    {
      "": 4092,
      "station": "Cambridge Main Library at Broadway / Trowbridge St",
      "lat": 42.373379,
      "lon": -71.111075,
      "hour": 2,
      "startCounts": 0,
      "endCounts": 2,
      "Diff": -2
    },
    {
      "": 4053,
      "station": "Rindge Avenue - O'Neill Library",
      "lat": 42.392765999999995,
      "lon": -71.129042,
      "hour": 2,
      "startCounts": 0,
      "endCounts": 1,
      "Diff": -1
    },
    {
      "": 4054,
      "station": "Jackson Square T Stop",
      "lat": 42.32293117195949,
      "lon": -71.10014140605927,
      "hour": 2,
      "startCounts": 0,
      "endCounts": 1,
      "Diff": -1
    },
    {
      "": 4091,
      "station": "The Lawn on D",
      "lat": 42.344792,
      "lon": -71.044024,
      "hour": 2,
      "startCounts": 0,
      "endCounts": 1,
      "Diff": -1
    },
    {
      "": 3949,
      "station": "Sidney Research Campus/ Erie Street at Waverly",
      "lat": 42.35775309465199,
      "lon": -71.10393404960631,
      "hour": 2,
      "startCounts": 1,
      "endCounts": 1,
      "Diff": 0
    },
    {
      "": 3741,
      "station": "Commonwealth Ave At Babcock St",
      "lat": 42.35154734791375,
      "lon": -71.12126246094705,
      "hour": 2,
      "startCounts": 2,
      "endCounts": 5,
      "Diff": -3
    },
    {
      "": 3351,
      "station": "Columbus Ave at Massachusetts Ave",
      "lat": 42.340542615516355,
      "lon": -71.08138847914233,
      "hour": 2,
      "startCounts": 5,
      "endCounts": 19,
      "Diff": -14
    },
    {
      "": 4198,
      "station": "South End Library - Tremont St at W Newton St",
      "lat": 42.341332,
      "lon": -71.076847,
      "hour": 2,
      "startCounts": 0,
      "endCounts": 1,
      "Diff": -1
    },
    {
      "": 3352,
      "station": "Boylston St at Dartmouth St",
      "lat": 42.350413,
      "lon": -71.07655,
      "hour": 2,
      "startCounts": 3,
      "endCounts": 0,
      "Diff": 3
    },
    {
      "": 3353,
      "station": "Central Square at Mass Ave / Essex St",
      "lat": 42.36507,
      "lon": -71.1031,
      "hour": 2,
      "startCounts": 11,
      "endCounts": 6,
      "Diff": 5
    },
    {
      "": 3354,
      "station": "Chinatown Gate Plaza",
      "lat": 42.351356,
      "lon": -71.05936700000001,
      "hour": 2,
      "startCounts": 3,
      "endCounts": 4,
      "Diff": -1
    },
    {
      "": 3355,
      "station": "MIT Vassar St",
      "lat": 42.35560121327927,
      "lon": -71.10394477844237,
      "hour": 2,
      "startCounts": 4,
      "endCounts": 12,
      "Diff": -8
    },
    {
      "": 3356,
      "station": "Brookline Village - Station Street @ MBTA",
      "lat": 42.33289074055233,
      "lon": -71.11658334732057,
      "hour": 2,
      "startCounts": 1,
      "endCounts": 1,
      "Diff": 0
    },
    {
      "": 3357,
      "station": "Packard Ave / Powderhouse Blvd",
      "lat": 42.40449,
      "lon": -71.123413,
      "hour": 2,
      "startCounts": 1,
      "endCounts": 3,
      "Diff": -2
    },
    {
      "": 3358,
      "station": "Lechmere Station at Cambridge St / First St",
      "lat": 42.370677,
      "lon": -71.07652900000001,
      "hour": 2,
      "startCounts": 1,
      "endCounts": 6,
      "Diff": -5
    },
    {
      "": 3359,
      "station": "Packard's Corner - Commonwealth Ave at Brighton Ave",
      "lat": 42.352261,
      "lon": -71.12383100000001,
      "hour": 2,
      "startCounts": 10,
      "endCounts": 6,
      "Diff": 4
    },
    {
      "": 38,
      "station": "Back Bay T Stop - Dartmouth St at Stuart St",
      "lat": 42.34807412317439,
      "lon": -71.07657015323639,
      "hour": 2,
      "startCounts": 4,
      "endCounts": 2,
      "Diff": 2
    },
    {
      "": 3761,
      "station": "Surface Rd at India St",
      "lat": 42.358155,
      "lon": -71.05216300000001,
      "hour": 2,
      "startCounts": 4,
      "endCounts": 1,
      "Diff": 3
    },
    {
      "": 2522,
      "station": "Congress St at North St",
      "lat": 42.360613,
      "lon": -71.057452,
      "hour": 2,
      "startCounts": 5,
      "endCounts": 3,
      "Diff": 2
    },
    {
      "": 2523,
      "station": "Boylston St at Arlington St",
      "lat": 42.352033,
      "lon": -71.070627,
      "hour": 2,
      "startCounts": 10,
      "endCounts": 4,
      "Diff": 6
    },
    {
      "": 3560,
      "station": "Copley Square - Dartmouth St at Boylston St",
      "lat": 42.34976701008725,
      "lon": -71.0773265361786,
      "hour": 2,
      "startCounts": 5,
      "endCounts": 3,
      "Diff": 2
    },
    {
      "": 43,
      "station": "Harvard Square at Mass Ave/ Dunster",
      "lat": 42.373267999999996,
      "lon": -71.118579,
      "hour": 2,
      "startCounts": 6,
      "endCounts": 2,
      "Diff": 4
    },
    {
      "": 44,
      "station": "MIT Pacific St at Purrington St",
      "lat": 42.359573201090434,
      "lon": -71.10129475593567,
      "hour": 2,
      "startCounts": 13,
      "endCounts": 14,
      "Diff": -1
    },
    {
      "": 45,
      "station": "Christian Science Plaza - Massachusetts Ave at Westland Ave",
      "lat": 42.3436658245146,
      "lon": -71.08582377433777,
      "hour": 2,
      "startCounts": 22,
      "endCounts": 8,
      "Diff": 14
    },
    {
      "": 3829,
      "station": "Silber Way",
      "lat": 42.349495995140025,
      "lon": -71.10057592391969,
      "hour": 2,
      "startCounts": 3,
      "endCounts": 7,
      "Diff": -4
    },
    {
      "": 4235,
      "station": "Washington St at Brock St",
      "lat": 42.348952846695106,
      "lon": -71.16031676530837,
      "hour": 2,
      "startCounts": 0,
      "endCounts": 1,
      "Diff": -1
    },
    {
      "": 2638,
      "station": "Seaport Hotel - Congress St at Seaport Ln",
      "lat": 42.34881026188269,
      "lon": -71.04167744055303,
      "hour": 2,
      "startCounts": 1,
      "endCounts": 0,
      "Diff": 1
    },
    {
      "": 2639,
      "station": "Tremont St at E Berkeley St",
      "lat": 42.345392,
      "lon": -71.069616,
      "hour": 2,
      "startCounts": 10,
      "endCounts": 7,
      "Diff": 3
    },
    {
      "": 2640,
      "station": "Charles Circle - Charles St at Cambridge St",
      "lat": 42.36071444836764,
      "lon": -71.07092812657356,
      "hour": 2,
      "startCounts": 4,
      "endCounts": 9,
      "Diff": -5
    },
    {
      "": 2641,
      "station": "Harvard Square at Brattle St / Eliot St",
      "lat": 42.373231,
      "lon": -71.120886,
      "hour": 2,
      "startCounts": 3,
      "endCounts": 1,
      "Diff": 2
    },
    {
      "": 2642,
      "station": "Dorchester Ave at Gillette Park",
      "lat": 42.34404051001636,
      "lon": -71.0573762655258,
      "hour": 2,
      "startCounts": 2,
      "endCounts": 0,
      "Diff": 2
    },
    {
      "": 4077,
      "station": "Landmark Center - Brookline Ave at Park Dr",
      "lat": 42.345194289440954,
      "lon": -71.1016970872879,
      "hour": 2,
      "startCounts": 0,
      "endCounts": 7,
      "Diff": -7
    },
    {
      "": 3603,
      "station": "Ames St at Main St",
      "lat": 42.3625,
      "lon": -71.08821999999999,
      "hour": 2,
      "startCounts": 6,
      "endCounts": 5,
      "Diff": 1
    },
    {
      "": 4078,
      "station": "Congress St at Northern Ave",
      "lat": 42.3481,
      "lon": -71.03764,
      "hour": 2,
      "startCounts": 0,
      "endCounts": 5,
      "Diff": -5
    },
    {
      "": 4079,
      "station": "Mt Auburn",
      "lat": 42.37478628706384,
      "lon": -71.13320231437683,
      "hour": 2,
      "startCounts": 0,
      "endCounts": 4,
      "Diff": -4
    },
    {
      "": 4006,
      "station": "Brighton Center - Washington St at Cambridge St",
      "lat": 42.34894857235593,
      "lon": -71.15027189254761,
      "hour": 2,
      "startCounts": 0,
      "endCounts": 9,
      "Diff": -9
    },
    {
      "": 3601,
      "station": "Boylston St at Washington St",
      "lat": 42.352409,
      "lon": -71.062679,
      "hour": 2,
      "startCounts": 5,
      "endCounts": 7,
      "Diff": -2
    },
    {
      "": 4227,
      "station": "Fresh Pond Reservation",
      "lat": 42.38267827521855,
      "lon": -71.143478951426,
      "hour": 2,
      "startCounts": 0,
      "endCounts": 2,
      "Diff": -2
    },
    {
      "": 3966,
      "station": "Alewife Station at Russell Field",
      "lat": 42.396105,
      "lon": -71.139459,
      "hour": 2,
      "startCounts": 1,
      "endCounts": 4,
      "Diff": -3
    },
    {
      "": 3965,
      "station": "Harvard University Radcliffe Quadrangle at Shepard St / Garden St",
      "lat": 42.380287,
      "lon": -71.125107,
      "hour": 2,
      "startCounts": 1,
      "endCounts": 0,
      "Diff": 1
    },
    {
      "": 3964,
      "station": "Hyde Square - Barbara St at Centre St",
      "lat": 42.32090296264123,
      "lon": -71.11188411712645,
      "hour": 2,
      "startCounts": 1,
      "endCounts": 0,
      "Diff": 1
    },
    {
      "": 2524,
      "station": "Newbury St at Hereford St",
      "lat": 42.348717,
      "lon": -71.085954,
      "hour": 2,
      "startCounts": 6,
      "endCounts": 6,
      "Diff": 0
    },
    {
      "": 2525,
      "station": "Boylston St at Massachusetts Ave",
      "lat": 42.347265,
      "lon": -71.088088,
      "hour": 2,
      "startCounts": 8,
      "endCounts": 11,
      "Diff": -3
    },
    {
      "": 2526,
      "station": "Kenmore Square",
      "lat": 42.348706,
      "lon": -71.097009,
      "hour": 2,
      "startCounts": 7,
      "endCounts": 3,
      "Diff": 4
    },
    {
      "": 2527,
      "station": "Stuart St at Charles St",
      "lat": 42.351146,
      "lon": -71.066289,
      "hour": 2,
      "startCounts": 16,
      "endCounts": 9,
      "Diff": 7
    },
    {
      "": 2528,
      "station": "Union Square - Somerville",
      "lat": 42.379637,
      "lon": -71.09531899999999,
      "hour": 2,
      "startCounts": 3,
      "endCounts": 7,
      "Diff": -4
    },
    {
      "": 3643,
      "station": "Roxbury Crossing T Stop - Columbus Ave at Tremont St",
      "lat": 42.331184,
      "lon": -71.095171,
      "hour": 2,
      "startCounts": 4,
      "endCounts": 5,
      "Diff": -1
    },
    {
      "": 3642,
      "station": "Cambridge St - at Columbia St / Webster Ave",
      "lat": 42.372969,
      "lon": -71.094445,
      "hour": 2,
      "startCounts": 3,
      "endCounts": 1,
      "Diff": 2
    },
    {
      "": 3641,
      "station": "Washington St at Waltham St",
      "lat": 42.341522,
      "lon": -71.068922,
      "hour": 2,
      "startCounts": 2,
      "endCounts": 0,
      "Diff": 2
    },
    {
      "": 3980,
      "station": "Linear Park - Mass. Ave. at Cameron Ave.",
      "lat": 42.397828000000004,
      "lon": -71.130516,
      "hour": 2,
      "startCounts": 0,
      "endCounts": 1,
      "Diff": -1
    },
    {
      "": 3640,
      "station": "Cambridge Dept. of Public Works -147 Hampshire St.",
      "lat": 42.37119727759414,
      "lon": -71.09759867191316,
      "hour": 2,
      "startCounts": 3,
      "endCounts": 6,
      "Diff": -3
    },
    {
      "": 3827,
      "station": "ID Building West",
      "lat": 42.344796,
      "lon": -71.031614,
      "hour": 2,
      "startCounts": 1,
      "endCounts": 0,
      "Diff": 1
    },
    {
      "": 4221,
      "station": "One Memorial Drive",
      "lat": 42.36161932076685,
      "lon": -71.08043550520959,
      "hour": 2,
      "startCounts": 0,
      "endCounts": 1,
      "Diff": -1
    },
    {
      "": 3743,
      "station": "Murphy Skating Rink - 1880 Day Blvd",
      "lat": 42.336448,
      "lon": -71.023739,
      "hour": 2,
      "startCounts": 1,
      "endCounts": 4,
      "Diff": -3
    },
    {
      "": 3742,
      "station": "Binney St / Sixth St",
      "lat": 42.366095,
      "lon": -71.086388,
      "hour": 2,
      "startCounts": 2,
      "endCounts": 1,
      "Diff": 1
    },
    {
      "": 2857,
      "station": "Prudential Center - Belvedere St",
      "lat": 42.345959,
      "lon": -71.082578,
      "hour": 2,
      "startCounts": 1,
      "endCounts": 10,
      "Diff": -9
    },
    {
      "": 3828,
      "station": "Coolidge Corner - Beacon St @ Centre St",
      "lat": 42.341598,
      "lon": -71.123338,
      "hour": 2,
      "startCounts": 3,
      "endCounts": 3,
      "Diff": 0
    },
    {
      "": 4076,
      "station": "Spaulding Rehabilitation Hospital - Charlestown Navy Yard",
      "lat": 42.378338,
      "lon": -71.048927,
      "hour": 2,
      "startCounts": 0,
      "endCounts": 2,
      "Diff": -2
    },
    {
      "": 3963,
      "station": "Rowes Wharf at Atlantic Ave",
      "lat": 42.357143,
      "lon": -71.050699,
      "hour": 2,
      "startCounts": 1,
      "endCounts": 3,
      "Diff": -2
    },
    {
      "": 3718,
      "station": "Inman Square at Vellucci Plaza / Hampshire St",
      "lat": 42.374035,
      "lon": -71.101427,
      "hour": 2,
      "startCounts": 1,
      "endCounts": 8,
      "Diff": -7
    },
    {
      "": 3941,
      "station": "Dana Park",
      "lat": 42.361780439606044,
      "lon": -71.10809952020645,
      "hour": 2,
      "startCounts": 2,
      "endCounts": 1,
      "Diff": 1
    },
    {
      "": 3809,
      "station": "B.U. Central - 725 Comm. Ave.",
      "lat": 42.350406,
      "lon": -71.10827900000001,
      "hour": 2,
      "startCounts": 3,
      "endCounts": 6,
      "Diff": -3
    },
    {
      "": 3763,
      "station": "175 N Harvard St",
      "lat": 42.363796,
      "lon": -71.129164,
      "hour": 2,
      "startCounts": 4,
      "endCounts": 4,
      "Diff": 0
    },
    {
      "": 4148,
      "station": "Wilson Square",
      "lat": 42.385582,
      "lon": -71.113341,
      "hour": 2,
      "startCounts": 0,
      "endCounts": 3,
      "Diff": -3
    },
    {
      "": 4026,
      "station": "CambridgeSide Galleria - CambridgeSide PL at Land Blvd",
      "lat": 42.366981,
      "lon": -71.076472,
      "hour": 2,
      "startCounts": 0,
      "endCounts": 2,
      "Diff": -2
    },
    {
      "": 3055,
      "station": "Harvard University Housing - 115 Putnam Ave at Peabody Terrace",
      "lat": 42.366621,
      "lon": -71.114214,
      "hour": 2,
      "startCounts": 4,
      "endCounts": 1,
      "Diff": 3
    },
    {
      "": 3858,
      "station": "Watermark Seaport - Boston Wharf Rd at Seaport Blvd",
      "lat": 42.351586001198456,
      "lon": -71.04569256305693,
      "hour": 2,
      "startCounts": 3,
      "endCounts": 0,
      "Diff": 3
    },
    {
      "": 3857,
      "station": "EF - North Point Park",
      "lat": 42.369885,
      "lon": -71.06995699999999,
      "hour": 2,
      "startCounts": 1,
      "endCounts": 4,
      "Diff": -3
    },
    {
      "": 3856,
      "station": "Harvard University River Houses at DeWolfe St / Cowperthwaite St",
      "lat": 42.36919031768079,
      "lon": -71.11714124679565,
      "hour": 2,
      "startCounts": 4,
      "endCounts": 3,
      "Diff": 1
    },
    {
      "": 4027,
      "station": "Powder House Circle - Nathan Tufts Park",
      "lat": 42.400877,
      "lon": -71.116772,
      "hour": 2,
      "startCounts": 0,
      "endCounts": 3,
      "Diff": -3
    },
    {
      "": 4147,
      "station": "Bowdoin St at Quincy St",
      "lat": 42.30785224238503,
      "lon": -71.06512248516083,
      "hour": 2,
      "startCounts": 0,
      "endCounts": 1,
      "Diff": -1
    },
    {
      "": 3981,
      "station": "HMS/HSPH - Avenue Louis Pasteur at Longwood Ave",
      "lat": 42.337417484597296,
      "lon": -71.10286116600038,
      "hour": 2,
      "startCounts": 0,
      "endCounts": 16,
      "Diff": -16
    },
    {
      "": 3677,
      "station": "Post Office Square - Pearl St at Milk St",
      "lat": 42.356755,
      "lon": -71.05540699999999,
      "hour": 2,
      "startCounts": 5,
      "endCounts": 0,
      "Diff": 5
    },
    {
      "": 4031,
      "station": "Andrew T Stop - Dorchester Ave at Dexter St",
      "lat": 42.33047365041517,
      "lon": -71.05701684951781,
      "hour": 2,
      "startCounts": 0,
      "endCounts": 3,
      "Diff": -3
    },
    {
      "": 4159,
      "station": "Brian P. Murphy Staircase at Child Street",
      "lat": 42.3720597013741,
      "lon": -71.07202649116515,
      "hour": 2,
      "startCounts": 0,
      "endCounts": 2,
      "Diff": -2
    },
    {
      "": 4160,
      "station": "Broadway St at Mt Pleasant St",
      "lat": 42.38614141163957,
      "lon": -71.07828140258789,
      "hour": 2,
      "startCounts": 0,
      "endCounts": 1,
      "Diff": -1
    },
    {
      "": 4161,
      "station": "Brighton Mills - 370 Western Ave",
      "lat": 42.3615457081725,
      "lon": -71.13776206970216,
      "hour": 2,
      "startCounts": 0,
      "endCounts": 1,
      "Diff": -1
    },
    {
      "": 3676,
      "station": "Cambridge St at Joy St",
      "lat": 42.36130407013564,
      "lon": -71.0652096569538,
      "hour": 2,
      "startCounts": 3,
      "endCounts": 5,
      "Diff": -2
    },
    {
      "": 4163,
      "station": "Upham's Corner",
      "lat": 42.317283,
      "lon": -71.065363,
      "hour": 2,
      "startCounts": 0,
      "endCounts": 3,
      "Diff": -3
    },
    {
      "": 3678,
      "station": "Union Square - Brighton Ave at Cambridge St",
      "lat": 42.353334000000004,
      "lon": -71.137313,
      "hour": 2,
      "startCounts": 10,
      "endCounts": 3,
      "Diff": 7
    },
    {
      "": 3787,
      "station": "Orient Heights T Stop - Bennington St at Saratoga St",
      "lat": 42.386781,
      "lon": -71.006098,
      "hour": 2,
      "startCounts": 1,
      "endCounts": 0,
      "Diff": 1
    },
    {
      "": 4103,
      "station": "Lower Cambridgeport at Magazine St/Riverside Rd",
      "lat": 42.35721850317653,
      "lon": -71.1138716340065,
      "hour": 2,
      "startCounts": 0,
      "endCounts": 8,
      "Diff": -8
    },
    {
      "": 4141,
      "station": "Harvard University / SEAS Cruft-Pierce Halls at 29 Oxford St",
      "lat": 42.377945000000004,
      "lon": -71.116865,
      "hour": 2,
      "startCounts": 0,
      "endCounts": 3,
      "Diff": -3
    },
    {
      "": 4007,
      "station": "359 Broadway - Broadway at Fayette Street",
      "lat": 42.370803,
      "lon": -71.104412,
      "hour": 2,
      "startCounts": 0,
      "endCounts": 7,
      "Diff": -7
    },
    {
      "": 4008,
      "station": "Teele Square at 239 Holland St",
      "lat": 42.402763,
      "lon": -71.126908,
      "hour": 2,
      "startCounts": 0,
      "endCounts": 1,
      "Diff": -1
    },
    {
      "": 3717,
      "station": "Aquarium T Stop - 200 Atlantic Ave",
      "lat": 42.35991176110118,
      "lon": -71.0514298081398,
      "hour": 2,
      "startCounts": 4,
      "endCounts": 1,
      "Diff": 3
    },
    {
      "": 3716,
      "station": "Beacon St at Arlington St",
      "lat": 42.355549323361345,
      "lon": -71.07284188270569,
      "hour": 2,
      "startCounts": 3,
      "endCounts": 7,
      "Diff": -4
    },
    {
      "": 3719,
      "station": "Washington Square at Washington St. / Beacon St.",
      "lat": 42.339335,
      "lon": -71.13493000000001,
      "hour": 2,
      "startCounts": 2,
      "endCounts": 2,
      "Diff": 0
    },
    {
      "": 4124,
      "station": "Dudley Square - Dudley St at Warren St",
      "lat": 42.32854046293402,
      "lon": -71.08416482806204,
      "hour": 2,
      "startCounts": 0,
      "endCounts": 2,
      "Diff": -2
    },
    {
      "": 4108,
      "station": "Green Street T Stop - Green St at Amory St",
      "lat": 42.310579,
      "lon": -71.107341,
      "hour": 2,
      "startCounts": 0,
      "endCounts": 5,
      "Diff": -5
    },
    {
      "": 4107,
      "station": "Wentworth Institute of Technology - Huntington Ave at Vancouver St",
      "lat": 42.33758601097239,
      "lon": -71.09627097845076,
      "hour": 2,
      "startCounts": 0,
      "endCounts": 6,
      "Diff": -6
    },
    {
      "": 4106,
      "station": "Danehy Park",
      "lat": 42.388965999999996,
      "lon": -71.132788,
      "hour": 2,
      "startCounts": 0,
      "endCounts": 3,
      "Diff": -3
    },
    {
      "": 3860,
      "station": "Burlington Ave at Brookline Ave",
      "lat": 42.345733,
      "lon": -71.10069399999999,
      "hour": 2,
      "startCounts": 1,
      "endCounts": 0,
      "Diff": 1
    },
    {
      "": 4105,
      "station": "Innovation Lab - 125 Western Ave at Batten Way",
      "lat": 42.363732,
      "lon": -71.124565,
      "hour": 2,
      "startCounts": 0,
      "endCounts": 1,
      "Diff": -1
    },
    {
      "": 4104,
      "station": "Kendall T",
      "lat": 42.362427842912396,
      "lon": -71.08495473861693,
      "hour": 2,
      "startCounts": 0,
      "endCounts": 4,
      "Diff": -4
    },
    {
      "": 4139,
      "station": "Conway Park - Somerville Avenue",
      "lat": 42.383404999999996,
      "lon": -71.10759300000001,
      "hour": 2,
      "startCounts": 0,
      "endCounts": 5,
      "Diff": -5
    },
    {
      "": 3056,
      "station": "Brigham Circle - Francis St at Huntington Ave",
      "lat": 42.33462893055976,
      "lon": -71.10407917767589,
      "hour": 2,
      "startCounts": 1,
      "endCounts": 3,
      "Diff": -2
    },