var difffeb = [
  {
    "": 0,
    "station": "MIT at Mass Ave / Amherst St",
    "lat": 42.3581,
    "lon": -71.093198,
    "hour": 0,
    "startCounts": 26,
    "endCounts": 8,
    "Diff": 18
  },
  {
    "": 603,
    "station": "Inman Square at Vellucci Plaza / Hampshire St",
    "lat": 42.374035,
    "lon": -71.101427,
    "hour": 0,
    "startCounts": 3,
    "endCounts": 6,
    "Diff": -3
  },
  {
    "": 602,
    "station": "Harvard University Gund Hall at Quincy St / Kirkland S",
    "lat": 42.376369,
    "lon": -71.114025,
    "hour": 0,
    "startCounts": 4,
    "endCounts": 1,
    "Diff": 3
  },
  {
    "": 601,
    "station": "Harvard Kennedy School at Bennett St / Eliot St",
    "lat": 42.371991654086756,
    "lon": -71.12226963043213,
    "hour": 0,
    "startCounts": 2,
    "endCounts": 0,
    "Diff": 2
  },
  {
    "": 920,
    "station": "Harvard University Housing - 115 Putnam Ave at Peabody Terrace",
    "lat": 42.366621,
    "lon": -71.114214,
    "hour": 0,
    "startCounts": 0,
    "endCounts": 12,
    "Diff": -12
  },
  {
    "": 925,
    "station": "Lechmere Station at Cambridge St / First St",
    "lat": 42.370677,
    "lon": -71.07652900000001,
    "hour": 0,
    "startCounts": 0,
    "endCounts": 5,
    "Diff": -5
  },
  {
    "": 570,
    "station": "Central Sq Post Office / Cambridge City Hall at Mass Ave / Pleasant St",
    "lat": 42.366426000000004,
    "lon": -71.10549499999999,
    "hour": 0,
    "startCounts": 8,
    "endCounts": 7,
    "Diff": 1
  },
  {
    "": 917,
    "station": "Third at Binney",
    "lat": 42.365444861373994,
    "lon": -71.0827714204788,
    "hour": 0,
    "startCounts": 0,
    "endCounts": 4,
    "Diff": -4
  },
  {
    "": 569,
    "station": "Ames St at Main St",
    "lat": 42.3625,
    "lon": -71.08821999999999,
    "hour": 0,
    "startCounts": 4,
    "endCounts": 2,
    "Diff": 2
  },
  {
    "": 567,
    "station": "Harvard Law School at Mass Ave / Jarvis St",
    "lat": 42.379011,
    "lon": -71.119945,
    "hour": 0,
    "startCounts": 9,
    "endCounts": 1,
    "Diff": 8
  },
  {
    "": 981,
    "station": "Rindge Avenue - O'Neill Library",
    "lat": 42.392765999999995,
    "lon": -71.129042,
    "hour": 0,
    "startCounts": 0,
    "endCounts": 1,
    "Diff": -1
  },
  {
    "": 979,
    "station": "Copley Square - Dartmouth St at Boylston St",
    "lat": 42.349672999999996,
    "lon": -71.077303,
    "hour": 0,
    "startCounts": 0,
    "endCounts": 1,
    "Diff": -1
  },
  {
    "": 934,
    "station": "Danehy Park",
    "lat": 42.388965999999996,
    "lon": -71.132788,
    "hour": 0,
    "startCounts": 0,
    "endCounts": 1,
    "Diff": -1
  },
  {
    "": 972,
    "station": "Sidney Research Campus/ Erie Street at Waverly",
    "lat": 42.35775309465199,
    "lon": -71.10393404960631,
    "hour": 0,
    "startCounts": 0,
    "endCounts": 2,
    "Diff": -2
  },
  {
    "": 359,
    "station": "Harvard University Radcliffe Quadrangle at Shepard St / Garden St",
    "lat": 42.380287,
    "lon": -71.125107,
    "hour": 0,
    "startCounts": 8,
    "endCounts": 5,
    "Diff": 3
  },
  {
    "": 568,
    "station": "Harvard Square at Brattle St / Eliot St",
    "lat": 42.373231,
    "lon": -71.120886,
    "hour": 0,
    "startCounts": 9,
    "endCounts": 1,
    "Diff": 8
  },
  {
    "": 360,
    "station": "359 Broadway - Broadway at Fayette Street",
    "lat": 42.370803,
    "lon": -71.104412,
    "hour": 0,
    "startCounts": 1,
    "endCounts": 16,
    "Diff": -15
  },
  {
    "": 916,
    "station": "Dana Park",
    "lat": 42.361780439606044,
    "lon": -71.10809952020645,
    "hour": 0,
    "startCounts": 0,
    "endCounts": 6,
    "Diff": -6
  },
  {
    "": 630,
    "station": "MIT Stata Center at Vassar St / Main St",
    "lat": 42.3619622,
    "lon": -71.0920526,
    "hour": 0,
    "startCounts": 8,
    "endCounts": 2,
    "Diff": 6
  },
  {
    "": 720,
    "station": "Lafayette Square at Mass Ave / Main St / Columbia St",
    "lat": 42.36346469304347,
    "lon": -71.10057324171065,
    "hour": 0,
    "startCounts": 3,
    "endCounts": 2,
    "Diff": 1
  },
  {
    "": 755,
    "station": "Kendall T",
    "lat": 42.362427842912396,
    "lon": -71.08495473861693,
    "hour": 0,
    "startCounts": 7,
    "endCounts": 2,
    "Diff": 5
  },
  {
    "": 761,
    "station": "Lower Cambridgeport at Magazine St/Riverside Rd",
    "lat": 42.356953999999995,
    "lon": -71.113687,
    "hour": 0,
    "startCounts": 1,
    "endCounts": 2,
    "Diff": -1
  },
  {
    "": 762,
    "station": "Lesley University",
    "lat": 42.38674802045056,
    "lon": -71.11901879310608,
    "hour": 0,
    "startCounts": 1,
    "endCounts": 3,
    "Diff": -2
  },
  {
    "": 795,
    "station": "Binney St / Sixth St",
    "lat": 42.366095,
    "lon": -71.086388,
    "hour": 0,
    "startCounts": 1,
    "endCounts": 0,
    "Diff": 1
  },
  {
    "": 796,
    "station": "Kendall Street",
    "lat": 42.36356015842989,
    "lon": -71.08216792345047,
    "hour": 0,
    "startCounts": 1,
    "endCounts": 0,
    "Diff": 1
  },
  {
    "": 629,
    "station": "One Broadway / Kendall Sq at Main St / 3rd St",
    "lat": 42.362613,
    "lon": -71.08410500000001,
    "hour": 0,
    "startCounts": 2,
    "endCounts": 2,
    "Diff": 0
  },
  {
    "": 812,
    "station": "Brian P. Murphy Staircase at Child Street",
    "lat": 42.3720597013741,
    "lon": -71.07202649116515,
    "hour": 0,
    "startCounts": 1,
    "endCounts": 0,
    "Diff": 1
  },
  {
    "": 824,
    "station": "Cambridge Main Library at Broadway / Trowbridge St",
    "lat": 42.373379,
    "lon": -71.111075,
    "hour": 0,
    "startCounts": 1,
    "endCounts": 7,
    "Diff": -6
  },
  {
    "": 693,
    "station": "Harvard Square at Mass Ave/ Dunster",
    "lat": 42.373267999999996,
    "lon": -71.118579,
    "hour": 0,
    "startCounts": 10,
    "endCounts": 4,
    "Diff": 6
  },
  {
    "": 836,
    "station": "Cambridge St - at Columbia St / Webster Ave",
    "lat": 42.372969,
    "lon": -71.094445,
    "hour": 0,
    "startCounts": 2,
    "endCounts": 4,
    "Diff": -2
  },
  {
    "": 692,
    "station": "Central Square at Mass Ave / Essex St",
    "lat": 42.36507,
    "lon": -71.1031,
    "hour": 0,
    "startCounts": 9,
    "endCounts": 2,
    "Diff": 7
  },
  {
    "": 856,
    "station": "Porter Square Station",
    "lat": 42.387995000000004,
    "lon": -71.119084,
    "hour": 0,
    "startCounts": 1,
    "endCounts": 3,
    "Diff": -2
  },
  {
    "": 908,
    "station": "Mt Auburn",
    "lat": 42.37478628706384,
    "lon": -71.13320231437683,
    "hour": 0,
    "startCounts": 0,
    "endCounts": 1,
    "Diff": -1
  },
  {
    "": 823,
    "station": "Alewife MBTA at Steel Place",
    "lat": 42.395588457167094,
    "lon": -71.14260613918304,
    "hour": 0,
    "startCounts": 1,
    "endCounts": 0,
    "Diff": 1
  },
  {
    "": 361,
    "station": "University Park",
    "lat": 42.36264779118595,
    "lon": -71.1000609397888,
    "hour": 0,
    "startCounts": 5,
    "endCounts": 8,
    "Diff": -3
  },
  {
    "": 915,
    "station": "MIT Vassar St",
    "lat": 42.35560121327927,
    "lon": -71.10394477844237,
    "hour": 0,
    "startCounts": 0,
    "endCounts": 7,
    "Diff": -7
  },
  {
    "": 942,
    "station": "Linear Park - Mass. Ave. at Cameron Ave.",
    "lat": 42.397828000000004,
    "lon": -71.130516,
    "hour": 0,
    "startCounts": 0,
    "endCounts": 2,
    "Diff": -2
  },
  {
    "": 510,
    "station": "MIT Pacific St at Purrington St",
    "lat": 42.359573201090434,
    "lon": -71.10129475593567,
    "hour": 0,
    "startCounts": 6,
    "endCounts": 22,
    "Diff": -16
  },
  {
    "": 509,
    "station": "One Kendall Square at Hampshire St / Portland St",
    "lat": 42.366277000000004,
    "lon": -71.09169,
    "hour": 0,
    "startCounts": 13,
    "endCounts": 9,
    "Diff": 4
  },
  {
    "": 508,
    "station": "Harvard University River Houses at DeWolfe St / Cowperthwaite St",
    "lat": 42.36919031768079,
    "lon": -71.11714124679565,
    "hour": 0,
    "startCounts": 6,
    "endCounts": 6,
    "Diff": 0
  },
  {
    "": 1,
    "station": "Harvard University / SEAS Cruft-Pierce Halls at 29 Oxford St",
    "lat": 42.377945000000004,
    "lon": -71.116865,
    "hour": 0,
    "startCounts": 7,
    "endCounts": 1,
    "Diff": 6
  },
  {
    "": 783,
    "station": "Kendall T",
    "lat": 42.362427842912396,
    "lon": -71.08495473861693,
    "hour": 1,
    "startCounts": 3,
    "endCounts": 0,
    "Diff": 3
  },
  {
    "": 513,
    "station": "Harvard University / SEAS Cruft-Pierce Halls at 29 Oxford St",
    "lat": 42.377945000000004,
    "lon": -71.116865,
    "hour": 1,
    "startCounts": 3,
    "endCounts": 2,
    "Diff": 1
  },
  {
    "": 571,
    "station": "Lesley University",
    "lat": 42.38674802045056,
    "lon": -71.11901879310608,
    "hour": 1,
    "startCounts": 1,
    "endCounts": 0,
    "Diff": 1
  },
  {
    "": 3,
    "station": "Kendall Street",
    "lat": 42.36356015842989,
    "lon": -71.08216792345047,
    "hour": 1,
    "startCounts": 2,
    "endCounts": 0,
    "Diff": 2
  },
  {
    "": 512,
    "station": "One Kendall Square at Hampshire St / Portland St",
    "lat": 42.366277000000004,
    "lon": -71.09169,
    "hour": 1,
    "startCounts": 3,
    "endCounts": 9,
    "Diff": -6
  },
  {
    "": 511,
    "station": "MIT at Mass Ave / Amherst St",
    "lat": 42.3581,
    "lon": -71.093198,
    "hour": 1,
    "startCounts": 9,
    "endCounts": 7,
    "Diff": 2
  },
  {
    "": 604,
    "station": "Harvard University River Houses at DeWolfe St / Cowperthwaite St",
    "lat": 42.36919031768079,
    "lon": -71.11714124679565,
    "hour": 1,
    "startCounts": 2,
    "endCounts": 5,
    "Diff": -3
  },
  {
    "": 605,
    "station": "MIT Pacific St at Purrington St",
    "lat": 42.359573201090434,
    "lon": -71.10129475593567,
    "hour": 1,
    "startCounts": 4,
    "endCounts": 9,
    "Diff": -5
  },
  {
    "": 918,
    "station": "Linear Park - Mass. Ave. at Cameron Ave.",
    "lat": 42.397828000000004,
    "lon": -71.130516,
    "hour": 1,
    "startCounts": 0,
    "endCounts": 4,
    "Diff": -4
  },
  {
    "": 763,
    "station": "Lechmere Station at Cambridge St / First St",
    "lat": 42.370677,
    "lon": -71.07652900000001,
    "hour": 1,
    "startCounts": 1,
    "endCounts": 2,
    "Diff": -1
  },
  {
    "": 631,
    "station": "Lafayette Square at Mass Ave / Main St / Columbia St",
    "lat": 42.36346469304347,
    "lon": -71.10057324171065,
    "hour": 1,
    "startCounts": 7,
    "endCounts": 1,
    "Diff": 6
  },
  {
    "": 657,
    "station": "University Park",
    "lat": 42.36264779118595,
    "lon": -71.1000609397888,
    "hour": 1,
    "startCounts": 6,
    "endCounts": 8,
    "Diff": -2
  },
  {
    "": 658,
    "station": "CambridgeSide Galleria - CambridgeSide PL at Land Blvd",
    "lat": 42.366981,
    "lon": -71.076472,
    "hour": 1,
    "startCounts": 1,
    "endCounts": 0,
    "Diff": 1
  },
  {
    "": 659,
    "station": "Harvard University Gund Hall at Quincy St / Kirkland S",
    "lat": 42.376369,
    "lon": -71.114025,
    "hour": 1,
    "startCounts": 4,
    "endCounts": 4,
    "Diff": 0
  },
  {
    "": 813,
    "station": "Inman Square at Vellucci Plaza / Hampshire St",
    "lat": 42.374035,
    "lon": -71.101427,
    "hour": 1,
    "startCounts": 2,
    "endCounts": 4,
    "Diff": -2
  },
  {
    "": 672,
    "station": "MIT Stata Center at Vassar St / Main St",
    "lat": 42.3619622,
    "lon": -71.0920526,
    "hour": 1,
    "startCounts": 8,
    "endCounts": 1,
    "Diff": 7
  },
  {
    "": 673,
    "station": "Harvard Square at Mass Ave/ Dunster",
    "lat": 42.373267999999996,
    "lon": -71.118579,
    "hour": 1,
    "startCounts": 5,
    "endCounts": 5,
    "Diff": 0
  },
  {
    "": 941,
    "station": "Lower Cambridgeport at Magazine St/Riverside Rd",
    "lat": 42.356953999999995,
    "lon": -71.113687,
    "hour": 1,
    "startCounts": 0,
    "endCounts": 4,
    "Diff": -4
  },
  {
    "": 814,
    "station": "Harvard University Housing - 115 Putnam Ave at Peabody Terrace",
    "lat": 42.366621,
    "lon": -71.114214,
    "hour": 1,
    "startCounts": 2,
    "endCounts": 2,
    "Diff": 0
  },
  {
    "": 815,
    "station": "Cambridge Main Library at Broadway / Trowbridge St",
    "lat": 42.373379,
    "lon": -71.111075,
    "hour": 1,
    "startCounts": 1,
    "endCounts": 1,
    "Diff": 0
  },
  {
    "": 837,
    "station": "Harvard University Radcliffe Quadrangle at Shepard St / Garden St",
    "lat": 42.380287,
    "lon": -71.125107,
    "hour": 1,
    "startCounts": 1,
    "endCounts": 4,
    "Diff": -3
  },
  {
    "": 826,
    "station": "EF - North Point Park",
    "lat": 42.369885,
    "lon": -71.06995699999999,
    "hour": 1,
    "startCounts": 1,
    "endCounts": 0,
    "Diff": 1
  },
  {
    "": 825,
    "station": "Third at Binney",
    "lat": 42.365444861373994,
    "lon": -71.0827714204788,
    "hour": 1,
    "startCounts": 1,
    "endCounts": 0,
    "Diff": 1
  },
  {
    "": 930,
    "station": "359 Broadway - Broadway at Fayette Street",
    "lat": 42.370803,
    "lon": -71.104412,
    "hour": 1,
    "startCounts": 0,
    "endCounts": 4,
    "Diff": -4
  },
  {
    "": 797,
    "station": "One Broadway / Kendall Sq at Main St / 3rd St",
    "lat": 42.362613,
    "lon": -71.08410500000001,
    "hour": 1,
    "startCounts": 3,
    "endCounts": 1,
    "Diff": 2
  },
  {
    "": 694,
    "station": "Central Square at Mass Ave / Essex St",
    "lat": 42.36507,
    "lon": -71.1031,
    "hour": 1,
    "startCounts": 7,
    "endCounts": 2,
    "Diff": 5
  },
  {
    "": 750,
    "station": "Binney St / Sixth St",
    "lat": 42.366095,
    "lon": -71.086388,
    "hour": 1,
    "startCounts": 1,
    "endCounts": 4,
    "Diff": -3
  },
  {
    "": 970,
    "station": "Alewife MBTA at Steel Place",
    "lat": 42.395588457167094,
    "lon": -71.14260613918304,
    "hour": 1,
    "startCounts": 0,
    "endCounts": 1,
    "Diff": -1
  },
  {
    "": 362,
    "station": "Ames St at Main St",
    "lat": 42.3625,
    "lon": -71.08821999999999,
    "hour": 1,
    "startCounts": 2,
    "endCounts": 1,
    "Diff": 1
  },
  {
    "": 2,
    "station": "Central Sq Post Office / Cambridge City Hall at Mass Ave / Pleasant St",
    "lat": 42.366426000000004,
    "lon": -71.10549499999999,
    "hour": 1,
    "startCounts": 4,
    "endCounts": 3,
    "Diff": 1
  },
  {
    "": 973,
    "station": "Harvard Square at Brattle St / Eliot St",
    "lat": 42.373231,
    "lon": -71.120886,
    "hour": 1,
    "startCounts": 0,
    "endCounts": 1,
    "Diff": -1
  },
  {
    "": 712,
    "station": "Porter Square Station",
    "lat": 42.387995000000004,
    "lon": -71.119084,
    "hour": 1,
    "startCounts": 1,
    "endCounts": 2,
    "Diff": -1
  },
  {
    "": 956,
    "station": "Cambridge St - at Columbia St / Webster Ave",
    "lat": 42.372969,
    "lon": -71.094445,
    "hour": 1,
    "startCounts": 0,
    "endCounts": 1,
    "Diff": -1
  },
  {
    "": 730,
    "station": "Harvard Law School at Mass Ave / Jarvis St",
    "lat": 42.379011,
    "lon": -71.119945,
    "hour": 1,
    "startCounts": 3,
    "endCounts": 0,
    "Diff": 3
  },
  {
    "": 756,
    "station": "MIT Vassar St",
    "lat": 42.35560121327927,
    "lon": -71.10394477844237,
    "hour": 1,
    "startCounts": 1,
    "endCounts": 5,
    "Diff": -4
  },
  {
    "": 765,
    "station": "Central Sq Post Office / Cambridge City Hall at Mass Ave / Pleasant St",
    "lat": 42.366426000000004,
    "lon": -71.10549499999999,
    "hour": 2,
    "startCounts": 2,
    "endCounts": 1,
    "Diff": 1
  },
  {
    "": 715,
    "station": "Harvard Square at Mass Ave/ Dunster",
    "lat": 42.373267999999996,
    "lon": -71.118579,
    "hour": 2,
    "startCounts": 5,
    "endCounts": 1,
    "Diff": 4
  },
  {
    "": 764,
    "station": "Harvard University Radcliffe Quadrangle at Shepard St / Garden St",
    "lat": 42.380287,
    "lon": -71.125107,
    "hour": 2,
    "startCounts": 1,
    "endCounts": 0,
    "Diff": 1
  },
  {
    "": 982,
    "station": "Harvard University River Houses at DeWolfe St / Cowperthwaite St",
    "lat": 42.36919031768079,
    "lon": -71.11714124679565,
    "hour": 2,
    "startCounts": 0,
    "endCounts": 1,
    "Diff": -1
  },
  {
    "": 766,
    "station": "Binney St / Sixth St",
    "lat": 42.366095,
    "lon": -71.086388,
    "hour": 2,
    "startCounts": 2,
    "endCounts": 0,
    "Diff": 2
  },
  {
    "": 660,
    "station": "Harvard Law School at Mass Ave / Jarvis St",
    "lat": 42.379011,
    "lon": -71.119945,
    "hour": 2,
    "startCounts": 3,
    "endCounts": 1,
    "Diff": 2
  },
  {
    "": 895,
    "station": "Cambridge St - at Columbia St / Webster Ave",
    "lat": 42.372969,
    "lon": -71.094445,
    "hour": 2,
    "startCounts": 0,
    "endCounts": 3,
    "Diff": -3
  },
  {
    "": 940,
    "station": "Porter Square Station",
    "lat": 42.387995000000004,
    "lon": -71.119084,
    "hour": 2,
    "startCounts": 0,
    "endCounts": 2,
    "Diff": -2
  },
  {
    "": 714,
    "station": "One Kendall Square at Hampshire St / Portland St",
    "lat": 42.366277000000004,
    "lon": -71.09169,
    "hour": 2,
    "startCounts": 1,
    "endCounts": 0,
    "Diff": 1
  },
  {
    "": 857,
    "station": "Cambridge Main Library at Broadway / Trowbridge St",
    "lat": 42.373379,
    "lon": -71.111075,
    "hour": 2,
    "startCounts": 1,
    "endCounts": 1,
    "Diff": 0
  },
  {
    "": 713,
    "station": "MIT at Mass Ave / Amherst St",
    "lat": 42.3581,
    "lon": -71.093198,
    "hour": 2,
    "startCounts": 6,
    "endCounts": 5,
    "Diff": 1
  },
  {
    "": 840,
    "station": "Harvard University / SEAS Cruft-Pierce Halls at 29 Oxford St",
    "lat": 42.377945000000004,
    "lon": -71.116865,
    "hour": 2,
    "startCounts": 1,
    "endCounts": 0,
    "Diff": 1
  },
  {
    "": 839,
    "station": "Harvard Square at Brattle St / Eliot St",
    "lat": 42.373231,
    "lon": -71.120886,
    "hour": 2,
    "startCounts": 1,
    "endCounts": 0,
    "Diff": 1
  },
  {
    "": 838,
    "station": "Harvard University Housing - 115 Putnam Ave at Peabody Terrace",
    "lat": 42.366621,
    "lon": -71.114214,
    "hour": 2,
    "startCounts": 1,
    "endCounts": 4,
    "Diff": -3
  },
  {
    "": 816,
    "station": "One Broadway / Kendall Sq at Main St / 3rd St",
    "lat": 42.362613,
    "lon": -71.08410500000001,
    "hour": 2,
    "startCounts": 1,
    "endCounts": 0,
    "Diff": 1
  },
  {
    "": 817,
    "station": "MIT Vassar St",
    "lat": 42.35560121327927,
    "lon": -71.10394477844237,
    "hour": 2,
    "startCounts": 1,
    "endCounts": 2,
    "Diff": -1
  },
  {
    "": 827,
    "station": "Inman Square at Vellucci Plaza / Hampshire St",
    "lat": 42.374035,
    "lon": -71.101427,
    "hour": 2,
    "startCounts": 1,
    "endCounts": 8,
    "Diff": -7
  },
  {
    "": 767,
    "station": "Lower Cambridgeport at Magazine St/Riverside Rd",
    "lat": 42.356953999999995,
    "lon": -71.113687,
    "hour": 2,
    "startCounts": 3,
    "endCounts": 0,
    "Diff": 3
  },
  {
    "": 935,
    "station": "Lesley University",
    "lat": 42.38674802045056,
    "lon": -71.11901879310608,
    "hour": 2,
    "startCounts": 0,
    "endCounts": 3,
    "Diff": -3
  },
  {
    "": 606,
    "station": "Kendall T",
    "lat": 42.362427842912396,
    "lon": -71.08495473861693,
    "hour": 2,
    "startCounts": 2,
    "endCounts": 2,
    "Diff": 0
  },
  {
    "": 607,
    "station": "Central Square at Mass Ave / Essex St",
    "lat": 42.36507,
    "lon": -71.1031,
    "hour": 2,
    "startCounts": 2,
    "endCounts": 0,
    "Diff": 2
  },
  {
    "": 4,
    "station": "Harvard University Gund Hall at Quincy St / Kirkland S",
    "lat": 42.376369,
    "lon": -71.114025,
    "hour": 2,
    "startCounts": 5,
    "endCounts": 1,
    "Diff": 4
  },
  {
    "": 931,
    "station": "Lechmere Station at Cambridge St / First St",
    "lat": 42.370677,
    "lon": -71.07652900000001,
    "hour": 2,
    "startCounts": 0,
    "endCounts": 4,
    "Diff": -4
  },
  {
    "": 573,
    "station": "MIT Pacific St at Purrington St",
    "lat": 42.359573201090434,
    "lon": -71.10129475593567,
    "hour": 2,
    "startCounts": 2,
    "endCounts": 9,
    "Diff": -7
  },
  {
    "": 967,
    "station": "Third at Binney",
    "lat": 42.365444861373994,
    "lon": -71.0827714204788,
    "hour": 2,
    "startCounts": 0,
    "endCounts": 1,
    "Diff": -1
  },
  {
    "": 968,
    "station": "359 Broadway - Broadway at Fayette Street",
    "lat": 42.370803,
    "lon": -71.104412,
    "hour": 2,
    "startCounts": 0,
    "endCounts": 2,
    "Diff": -2
  },
  {
    "": 974,
    "station": "Sidney Research Campus/ Erie Street at Waverly",
    "lat": 42.35775309465199,
    "lon": -71.10393404960631,
    "hour": 2,
    "startCounts": 0,
    "endCounts": 1,
    "Diff": -1
  },
  {
    "": 971,
    "station": "CambridgeSide Galleria - CambridgeSide PL at Land Blvd",
    "lat": 42.366981,
    "lon": -71.076472,
    "hour": 2,
    "startCounts": 0,
    "endCounts": 1,
    "Diff": -1
  },
  {
    "": 608,
    "station": "MIT Stata Center at Vassar St / Main St",
    "lat": 42.3619622,
    "lon": -71.0920526,
    "hour": 2,
    "startCounts": 1,
    "endCounts": 2,
    "Diff": -1
  },
  {
    "": 921,
    "station": "Rindge Avenue - O'Neill Library",
    "lat": 42.392765999999995,
    "lon": -71.129042,
    "hour": 2,
    "startCounts": 0,
    "endCounts": 1,
    "Diff": -1
  },
  {
    "": 514,
    "station": "University Park",
    "lat": 42.36264779118595,
    "lon": -71.1000609397888,
    "hour": 2,
    "startCounts": 2,
    "endCounts": 1,
    "Diff": 1
  },
  {
    "": 572,
    "station": "Lafayette Square at Mass Ave / Main St / Columbia St",
    "lat": 42.36346469304347,
    "lon": -71.10057324171065,
    "hour": 2,
    "startCounts": 2,
    "endCounts": 1,
    "Diff": 1
  },
  {
    "": 575,
    "station": "One Kendall Square at Hampshire St / Portland St",
    "lat": 42.366277000000004,
    "lon": -71.09169,
    "hour": 3,
    "startCounts": 1,
    "endCounts": 0,
    "Diff": 1
  },
  {
    "": 674,
    "station": "MIT Stata Center at Vassar St / Main St",
    "lat": 42.3619622,
    "lon": -71.0920526,
    "hour": 3,
    "startCounts": 6,
    "endCounts": 2,
    "Diff": 4
  },
  {
    "": 574,
    "station": "Cambridge Main Library at Broadway / Trowbridge St",
    "lat": 42.373379,
    "lon": -71.111075,
    "hour": 3,
    "startCounts": 2,
    "endCounts": 0,
    "Diff": 2
  },
  {
    "": 902,
    "station": "Kendall T",
    "lat": 42.362427842912396,
    "lon": -71.08495473861693,
    "hour": 3,
    "startCounts": 0,
    "endCounts": 1,
    "Diff": -1
  },
  {
    "": 799,
    "station": "Porter Square Station",
    "lat": 42.387995000000004,
    "lon": -71.119084,
    "hour": 3,
    "startCounts": 1,
    "endCounts": 2,
    "Diff": -1
  },
  {
    "": 818,
    "station": "Harvard Square at Mass Ave/ Dunster",
    "lat": 42.373267999999996,
    "lon": -71.118579,
    "hour": 3,
    "startCounts": 1,
    "endCounts": 2,
    "Diff": -1
  },
  {
    "": 829,
    "station": "CambridgeSide Galleria - CambridgeSide PL at Land Blvd",
    "lat": 42.366981,
    "lon": -71.076472,
    "hour": 3,
    "startCounts": 2,
    "endCounts": 1,
    "Diff": 1
  },
  {
    "": 828,
    "station": "Lechmere Station at Cambridge St / First St",
    "lat": 42.370677,
    "lon": -71.07652900000001,
    "hour": 3,
    "startCounts": 2,
    "endCounts": 9,
    "Diff": -7
  },
  {
    "": 363,
    "station": "MIT at Mass Ave / Amherst St",
    "lat": 42.3581,
    "lon": -71.093198,
    "hour": 3,
    "startCounts": 3,
    "endCounts": 0,
    "Diff": 3
  },
  {
    "": 364,
    "station": "University Park",
    "lat": 42.36264779118595,
    "lon": -71.1000609397888,
    "hour": 3,
    "startCounts": 1,
    "endCounts": 0,
    "Diff": 1
  },
  {
    "": 695,
    "station": "Harvard University Gund Hall at Quincy St / Kirkland S",
    "lat": 42.376369,
    "lon": -71.114025,
    "hour": 3,
    "startCounts": 2,
    "endCounts": 0,
    "Diff": 2
  },
  {
    "": 5,
    "station": "Central Sq Post Office / Cambridge City Hall at Mass Ave / Pleasant St",
    "lat": 42.366426000000004,
    "lon": -71.10549499999999,
    "hour": 3,
    "startCounts": 2,
    "endCounts": 0,
    "Diff": 2
  },
  {
    "": 954,
    "station": "Dana Park",
    "lat": 42.361780439606044,
    "lon": -71.10809952020645,
    "hour": 3,
    "startCounts": 0,
    "endCounts": 1,
    "Diff": -1
  },
  {
    "": 798,
    "station": "Inman Square at Vellucci Plaza / Hampshire St",
    "lat": 42.374035,
    "lon": -71.101427,
    "hour": 3,
    "startCounts": 1,
    "endCounts": 1,
    "Diff": 0
  },
  {
    "": 955,
    "station": "Sidney Research Campus/ Erie Street at Waverly",
    "lat": 42.35775309465199,
    "lon": -71.10393404960631,
    "hour": 3,
    "startCounts": 0,
    "endCounts": 2,
    "Diff": -2
  },
  {
    "": 938,
    "station": "Cambridge St - at Columbia St / Webster Ave",
    "lat": 42.372969,
    "lon": -71.094445,
    "hour": 3,
    "startCounts": 0,
    "endCounts": 2,
    "Diff": -2
  },
  {
    "": 963,
    "station": "Harvard University / SEAS Cruft-Pierce Halls at 29 Oxford St",
    "lat": 42.377945000000004,
    "lon": -71.116865,
    "hour": 3,
    "startCounts": 0,
    "endCounts": 2,
    "Diff": -2
  },
  {
    "": 939,
    "station": "One Broadway / Kendall Sq at Main St / 3rd St",
    "lat": 42.362613,
    "lon": -71.08410500000001,
    "hour": 3,
    "startCounts": 0,
    "endCounts": 1,
    "Diff": -1
  },
  {
    "": 696,
    "station": "Central Square at Mass Ave / Essex St",
    "lat": 42.36507,
    "lon": -71.1031,
    "hour": 3,
    "startCounts": 1,
    "endCounts": 0,
    "Diff": 1
  },
  {
    "": 716,
    "station": "Binney St / Sixth St",
    "lat": 42.366095,
    "lon": -71.086388,
    "hour": 3,
    "startCounts": 2,
    "endCounts": 0,
    "Diff": 2
  },
  {
    "": 919,
    "station": "Rindge Avenue - O'Neill Library",
    "lat": 42.392765999999995,
    "lon": -71.129042,
    "hour": 3,
    "startCounts": 0,
    "endCounts": 1,
    "Diff": -1
  },
  {
    "": 957,
    "station": "MIT Pacific St at Purrington St",
    "lat": 42.359573201090434,
    "lon": -71.10129475593567,
    "hour": 3,
    "startCounts": 0,
    "endCounts": 2,
    "Diff": -2
  },
  {
    "": 964,
    "station": "MIT at Mass Ave / Amherst St",
    "lat": 42.3581,
    "lon": -71.093198,
    "hour": 4,
    "startCounts": 0,
    "endCounts": 1,
    "Diff": -1
  },
  {
    "": 632,
    "station": "MIT Stata Center at Vassar St / Main St",
    "lat": 42.3619622,
    "lon": -71.0920526,
    "hour": 4,
    "startCounts": 3,
    "endCounts": 0,
    "Diff": 3
  },
  {
    "": 830,
    "station": "Harvard Law School at Mass Ave / Jarvis St",
    "lat": 42.379011,
    "lon": -71.119945,
    "hour": 4,
    "startCounts": 1,
    "endCounts": 0,
    "Diff": 1
  },
  {
    "": 517,
    "station": "Harvard University Gund Hall at Quincy St / Kirkland S",
    "lat": 42.376369,
    "lon": -71.114025,
    "hour": 4,
    "startCounts": 2,
    "endCounts": 0,
    "Diff": 2
  },
  {
    "": 516,
    "station": "Harvard University River Houses at DeWolfe St / Cowperthwaite St",
    "lat": 42.36919031768079,
    "lon": -71.11714124679565,
    "hour": 4,
    "startCounts": 1,
    "endCounts": 0,
    "Diff": 1
  },
  {
    "": 515,
    "station": "Binney St / Sixth St",
    "lat": 42.366095,
    "lon": -71.086388,
    "hour": 4,
    "startCounts": 3,
    "endCounts": 0,
    "Diff": 3
  },
  {
    "": 958,
    "station": "One Broadway / Kendall Sq at Main St / 3rd St",
    "lat": 42.362613,
    "lon": -71.08410500000001,
    "hour": 4,
    "startCounts": 0,
    "endCounts": 1,
    "Diff": -1
  },
  {
    "": 6,
    "station": "Ames St at Main St",
    "lat": 42.3625,
    "lon": -71.08821999999999,
    "hour": 4,
    "startCounts": 1,
    "endCounts": 1,
    "Diff": 0
  },
  {
    "": 922,
    "station": "Inman Square at Vellucci Plaza / Hampshire St",
    "lat": 42.374035,
    "lon": -71.101427,
    "hour": 4,
    "startCounts": 0,
    "endCounts": 1,
    "Diff": -1
  },
  {
    "": 858,
    "station": "MIT Vassar St",
    "lat": 42.35560121327927,
    "lon": -71.10394477844237,
    "hour": 4,
    "startCounts": 1,
    "endCounts": 0,
    "Diff": 1
  },
  {
    "": 661,
    "station": "One Kendall Square at Hampshire St / Portland St",
    "lat": 42.366277000000004,
    "lon": -71.09169,
    "hour": 4,
    "startCounts": 2,
    "endCounts": 0,
    "Diff": 2
  },
  {
    "": 903,
    "station": "Harvard University Radcliffe Quadrangle at Shepard St / Garden St",
    "lat": 42.380287,
    "lon": -71.125107,
    "hour": 4,
    "startCounts": 0,
    "endCounts": 2,
    "Diff": -2
  },
  {
    "": 773,
    "station": "Harvard University Housing - 115 Putnam Ave at Peabody Terrace",
    "lat": 42.366621,
    "lon": -71.114214,
    "hour": 4,
    "startCounts": 1,
    "endCounts": 0,
    "Diff": 1
  },
  {
    "": 909,
    "station": "Lechmere Station at Cambridge St / First St",
    "lat": 42.370677,
    "lon": -71.07652900000001,
    "hour": 4,
    "startCounts": 0,
    "endCounts": 7,
    "Diff": -7
  },
  {
    "": 896,
    "station": "359 Broadway - Broadway at Fayette Street",
    "lat": 42.370803,
    "lon": -71.104412,
    "hour": 4,
    "startCounts": 0,
    "endCounts": 2,
    "Diff": -2
  },
  {
    "": 910,
    "station": "Harvard University / SEAS Cruft-Pierce Halls at 29 Oxford St",
    "lat": 42.377945000000004,
    "lon": -71.116865,
    "hour": 4,
    "startCounts": 0,
    "endCounts": 1,
    "Diff": -1
  },
  {
    "": 609,
    "station": "Dana Park",
    "lat": 42.361780439606044,
    "lon": -71.10809952020645,
    "hour": 4,
    "startCounts": 1,
    "endCounts": 0,
    "Diff": 1
  },
  {
    "": 785,
    "station": "University Park",
    "lat": 42.36264779118595,
    "lon": -71.1000609397888,
    "hour": 5,
    "startCounts": 1,
    "endCounts": 3,
    "Diff": -2
  },
  {
    "": 778,
    "station": "Linear Park - Mass. Ave. at Cameron Ave.",
    "lat": 42.397828000000004,
    "lon": -71.130516,
    "hour": 5,
    "startCounts": 2,
    "endCounts": 3,
    "Diff": -1
  },
  {
    "": 7,
    "station": "Inman Square at Vellucci Plaza / Hampshire St",
    "lat": 42.374035,
    "lon": -71.101427,
    "hour": 5,
    "startCounts": 6,
    "endCounts": 1,
    "Diff": 5
  },
  {
    "": 800,
    "station": "Harvard University / SEAS Cruft-Pierce Halls at 29 Oxford St",
    "lat": 42.377945000000004,
    "lon": -71.116865,
    "hour": 5,
    "startCounts": 1,
    "endCounts": 0,
    "Diff": 1
  },
  {
    "": 365,
    "station": "Rindge Avenue - O'Neill Library",
    "lat": 42.392765999999995,
    "lon": -71.129042,
    "hour": 5,
    "startCounts": 6,
    "endCounts": 0,
    "Diff": 6
  },
  {
    "": 831,
    "station": "MIT Vassar St",
    "lat": 42.35560121327927,
    "lon": -71.10394477844237,
    "hour": 5,
    "startCounts": 2,
    "endCounts": 0,
    "Diff": 2
  },
  {
    "": 733,
    "station": "Cambridge St - at Columbia St / Webster Ave",
    "lat": 42.372969,
    "lon": -71.094445,
    "hour": 5,
    "startCounts": 1,
    "endCounts": 0,
    "Diff": 1
  },
  {
    "": 732,
    "station": "Third at Binney",
    "lat": 42.365444861373994,
    "lon": -71.0827714204788,
    "hour": 5,
    "startCounts": 1,
    "endCounts": 0,
    "Diff": 1
  },
  {
    "": 731,
    "station": "Dana Park",
    "lat": 42.361780439606044,
    "lon": -71.10809952020645,
    "hour": 5,
    "startCounts": 1,
    "endCounts": 1,
    "Diff": 0
  },
  {
    "": 757,
    "station": "Lower Cambridgeport at Magazine St/Riverside Rd",
    "lat": 42.356953999999995,
    "lon": -71.113687,
    "hour": 5,
    "startCounts": 1,
    "endCounts": 0,
    "Diff": 1
  },
  {
    "": 518,
    "station": "Cambridge Main Library at Broadway / Trowbridge St",
    "lat": 42.373379,
    "lon": -71.111075,
    "hour": 5,
    "startCounts": 3,
    "endCounts": 1,
    "Diff": 2
  },
  {
    "": 983,
    "station": "Alewife Station at Russell Field",
    "lat": 42.396105,
    "lon": -71.139459,
    "hour": 5,
    "startCounts": 0,
    "endCounts": 1,
    "Diff": -1
  },
  {
    "": 932,
    "station": "Sidney Research Campus/ Erie Street at Waverly",
    "lat": 42.35775309465199,
    "lon": -71.10393404960631,
    "hour": 5,
    "startCounts": 0,
    "endCounts": 2,
    "Diff": -2
  },
  {
    "": 926,
    "station": "Harvard Square at Mass Ave/ Dunster",
    "lat": 42.373267999999996,
    "lon": -71.118579,
    "hour": 5,
    "startCounts": 0,
    "endCounts": 1,
    "Diff": -1
  },
  {
    "": 947,
    "station": "Lechmere Station at Cambridge St / First St",
    "lat": 42.370677,
    "lon": -71.07652900000001,
    "hour": 5,
    "startCounts": 0,
    "endCounts": 1,
    "Diff": -1
  },
  {
    "": 576,
    "station": "Mt Auburn",
    "lat": 42.37478628706384,
    "lon": -71.13320231437683,
    "hour": 5,
    "startCounts": 3,
    "endCounts": 0,
    "Diff": 3
  },
  {
    "": 634,
    "station": "359 Broadway - Broadway at Fayette Street",
    "lat": 42.370803,
    "lon": -71.104412,
    "hour": 5,
    "startCounts": 1,
    "endCounts": 0,
    "Diff": 1
  },
  {
    "": 662,
    "station": "One Kendall Square at Hampshire St / Portland St",
    "lat": 42.366277000000004,
    "lon": -71.09169,
    "hour": 5,
    "startCounts": 3,
    "endCounts": 1,
    "Diff": 2
  },
  {
    "": 663,
    "station": "Ames St at Main St",
    "lat": 42.3625,
    "lon": -71.08821999999999,
    "hour": 5,
    "startCounts": 1,
    "endCounts": 1,
    "Diff": 0
  },
  {
    "": 366,
    "station": "Harvard University Radcliffe Quadrangle at Shepard St / Garden St",
    "lat": 42.380287,
    "lon": -71.125107,
    "hour": 5,
    "startCounts": 3,
    "endCounts": 0,
    "Diff": 3
  },
  {
    "": 911,
    "station": "MIT Stata Center at Vassar St / Main St",
    "lat": 42.3619622,
    "lon": -71.0920526,
    "hour": 5,
    "startCounts": 0,
    "endCounts": 3,
    "Diff": -3
  },
  {
    "": 904,
    "station": "Harvard Square at Brattle St / Eliot St",
    "lat": 42.373231,
    "lon": -71.120886,
    "hour": 5,
    "startCounts": 0,
    "endCounts": 2,
    "Diff": -2
  },
  {
    "": 944,
    "station": "Central Square at Mass Ave / Essex St",
    "lat": 42.36507,
    "lon": -71.1031,
    "hour": 5,
    "startCounts": 0,
    "endCounts": 2,
    "Diff": -2
  },
  {
    "": 945,
    "station": "Lafayette Square at Mass Ave / Main St / Columbia St",
    "lat": 42.36346469304347,
    "lon": -71.10057324171065,
    "hour": 5,
    "startCounts": 0,
    "endCounts": 1,
    "Diff": -1
  },
  {
    "": 946,
    "station": "CambridgeSide Galleria - CambridgeSide PL at Land Blvd",
    "lat": 42.366981,
    "lon": -71.076472,
    "hour": 5,
    "startCounts": 0,
    "endCounts": 1,
    "Diff": -1
  },
  {
    "": 784,
    "station": "Kendall T",
    "lat": 42.362427842912396,
    "lon": -71.08495473861693,
    "hour": 5,
    "startCounts": 1,
    "endCounts": 1,
    "Diff": 0
  },
  {
    "": 633,
    "station": "MIT at Mass Ave / Amherst St",
    "lat": 42.3581,
    "lon": -71.093198,
    "hour": 5,
    "startCounts": 1,
    "endCounts": 0,
    "Diff": 1
  },
  {
    "": 734,
    "station": "359 Broadway - Broadway at Fayette Street",
    "lat": 42.370803,
    "lon": -71.104412,
    "hour": 6,
    "startCounts": 5,
    "endCounts": 2,
    "Diff": 3
  },
  {
    "": 665,
    "station": "Harvard University Radcliffe Quadrangle at Shepard St / Garden St",
    "lat": 42.380287,
    "lon": -71.125107,
    "hour": 6,
    "startCounts": 6,
    "endCounts": 1,
    "Diff": 5
  },
  {
    "": 699,
    "station": "Kendall T",
    "lat": 42.362427842912396,
    "lon": -71.08495473861693,
    "hour": 6,
    "startCounts": 4,
    "endCounts": 7,
    "Diff": -3
  },
  {
    "": 367,
    "station": "MIT Vassar St",
    "lat": 42.35560121327927,
    "lon": -71.10394477844237,
    "hour": 6,
    "startCounts": 2,
    "endCounts": 3,
    "Diff": -1
  },
  {
    "": 368,
    "station": "Porter Square Station",
    "lat": 42.387995000000004,
    "lon": -71.119084,
    "hour": 6,
    "startCounts": 22,
    "endCounts": 1,
    "Diff": 21
  },
  {
    "": 369,
    "station": "EF - North Point Park",
    "lat": 42.369885,
    "lon": -71.06995699999999,
    "hour": 6,
    "startCounts": 4,
    "endCounts": 0,
    "Diff": 4
  },
  {
    "": 952,
    "station": "Rindge Avenue - O'Neill Library",
    "lat": 42.392765999999995,
    "lon": -71.129042,
    "hour": 6,
    "startCounts": 0,
    "endCounts": 2,
    "Diff": -2
  },
  {
    "": 953,
    "station": "Ames St at Main St",
    "lat": 42.3625,
    "lon": -71.08821999999999,
    "hour": 6,
    "startCounts": 0,
    "endCounts": 2,
    "Diff": -2
  },
  {
    "": 959,
    "station": "Harvard University / SEAS Cruft-Pierce Halls at 29 Oxford St",
    "lat": 42.377945000000004,
    "lon": -71.116865,
    "hour": 6,
    "startCounts": 0,
    "endCounts": 3,
    "Diff": -3
  },
  {
    "": 960,
    "station": "Danehy Park",
    "lat": 42.388965999999996,
    "lon": -71.132788,
    "hour": 6,
    "startCounts": 0,
    "endCounts": 2,
    "Diff": -2
  },
  {
    "": 520,
    "station": "Sidney Research Campus/ Erie Street at Waverly",
    "lat": 42.35775309465199,
    "lon": -71.10393404960631,
    "hour": 6,
    "startCounts": 1,
    "endCounts": 2,
    "Diff": -1
  },
  {
    "": 975,
    "station": "Alewife Station at Russell Field",
    "lat": 42.396105,
    "lon": -71.139459,
    "hour": 6,
    "startCounts": 0,
    "endCounts": 1,
    "Diff": -1
  },
  {
    "": 519,
    "station": "Harvard University Housing - 115 Putnam Ave at Peabody Terrace",
    "lat": 42.366621,
    "lon": -71.114214,
    "hour": 6,
    "startCounts": 9,
    "endCounts": 0,
    "Diff": 9
  },
  {
    "": 897,
    "station": "Harvard Kennedy School at Bennett St / Eliot St",
    "lat": 42.371991654086756,
    "lon": -71.12226963043213,
    "hour": 6,
    "startCounts": 0,
    "endCounts": 12,
    "Diff": -12
  },
  {
    "": 577,
    "station": "MIT Stata Center at Vassar St / Main St",
    "lat": 42.3619622,
    "lon": -71.0920526,
    "hour": 6,
    "startCounts": 1,
    "endCounts": 10,
    "Diff": -9
  },
  {
    "": 735,
    "station": "Third at Binney",
    "lat": 42.365444861373994,
    "lon": -71.0827714204788,
    "hour": 6,
    "startCounts": 2,
    "endCounts": 1,
    "Diff": 1
  },
  {
    "": 635,
    "station": "One Kendall Square at Hampshire St / Portland St",
    "lat": 42.366277000000004,
    "lon": -71.09169,
    "hour": 6,
    "startCounts": 2,
    "endCounts": 18,
    "Diff": -16
  },
  {
    "": 636,
    "station": "Lechmere Station at Cambridge St / First St",
    "lat": 42.370677,
    "lon": -71.07652900000001,
    "hour": 6,
    "startCounts": 7,
    "endCounts": 1,
    "Diff": 6
  },
  {
    "": 637,
    "station": "Cambridge Main Library at Broadway / Trowbridge St",
    "lat": 42.373379,
    "lon": -71.111075,
    "hour": 6,
    "startCounts": 2,
    "endCounts": 0,
    "Diff": 2
  },
  {
    "": 664,
    "station": "Lower Cambridgeport at Magazine St/Riverside Rd",
    "lat": 42.356953999999995,
    "lon": -71.113687,
    "hour": 6,
    "startCounts": 1,
    "endCounts": 1,
    "Diff": 0
  },
  {
    "": 666,
    "station": "University Park",
    "lat": 42.36264779118595,
    "lon": -71.1000609397888,
    "hour": 6,
    "startCounts": 4,
    "endCounts": 12,
    "Diff": -8
  },
  {
    "": 675,
    "station": "Lesley University",
    "lat": 42.38674802045056,
    "lon": -71.11901879310608,
    "hour": 6,
    "startCounts": 2,
    "endCounts": 1,
    "Diff": 1
  },
  {
    "": 948,
    "station": "Harvard Square at Brattle St / Eliot St",
    "lat": 42.373231,
    "lon": -71.120886,
    "hour": 6,
    "startCounts": 0,
    "endCounts": 3,
    "Diff": -3
  },
  {
    "": 697,
    "station": "Binney St / Sixth St",
    "lat": 42.366095,
    "lon": -71.086388,
    "hour": 6,
    "startCounts": 5,
    "endCounts": 10,
    "Diff": -5
  },
  {
    "": 949,
    "station": "Kendall Street",
    "lat": 42.36356015842989,
    "lon": -71.08216792345047,
    "hour": 6,
    "startCounts": 0,
    "endCounts": 2,
    "Diff": -2
  },
  {
    "": 578,
    "station": "Central Sq Post Office / Cambridge City Hall at Mass Ave / Pleasant St",
    "lat": 42.366426000000004,
    "lon": -71.10549499999999,
    "hour": 6,
    "startCounts": 5,
    "endCounts": 1,
    "Diff": 4
  },
  {
    "": 736,
    "station": "CambridgeSide Galleria - CambridgeSide PL at Land Blvd",
    "lat": 42.366981,
    "lon": -71.076472,
    "hour": 6,
    "startCounts": 1,
    "endCounts": 0,
    "Diff": 1
  },
  {
    "": 698,
    "station": "One Broadway / Kendall Sq at Main St / 3rd St",
    "lat": 42.362613,
    "lon": -71.08410500000001,
    "hour": 6,
    "startCounts": 1,
    "endCounts": 2,
    "Diff": -1
  },
  {
    "": 751,
    "station": "MIT at Mass Ave / Amherst St",
    "lat": 42.3581,
    "lon": -71.093198,
    "hour": 6,
    "startCounts": 2,
    "endCounts": 14,
    "Diff": -12
  },
  {
    "": 802,
    "station": "Linear Park - Mass. Ave. at Cameron Ave.",
    "lat": 42.397828000000004,
    "lon": -71.130516,
    "hour": 6,
    "startCounts": 2,
    "endCounts": 2,
    "Diff": 0
  },
  {
    "": 8,
    "station": "MIT Pacific St at Purrington St",
    "lat": 42.359573201090434,
    "lon": -71.10129475593567,
    "hour": 6,
    "startCounts": 7,
    "endCounts": 1,
    "Diff": 6
  },
  {
    "": 9,
    "station": "Central Square at Mass Ave / Essex St",
    "lat": 42.36507,
    "lon": -71.1031,
    "hour": 6,
    "startCounts": 9,
    "endCounts": 13,
    "Diff": -4
  },
  {
    "": 10,
    "station": "Harvard Square at Mass Ave/ Dunster",
    "lat": 42.373267999999996,
    "lon": -71.118579,
    "hour": 6,
    "startCounts": 2,
    "endCounts": 1,
    "Diff": 1
  },
  {
    "": 11,
    "station": "Cambridge St - at Columbia St / Webster Ave",
    "lat": 42.372969,
    "lon": -71.094445,
    "hour": 6,
    "startCounts": 12,
    "endCounts": 3,
    "Diff": 9
  },
  {
    "": 801,
    "station": "Harvard University Gund Hall at Quincy St / Kirkland S",
    "lat": 42.376369,
    "lon": -71.114025,
    "hour": 6,
    "startCounts": 1,
    "endCounts": 3,
    "Diff": -2
  },
  {
    "": 12,
    "station": "Dana Park",
    "lat": 42.361780439606044,
    "lon": -71.10809952020645,
    "hour": 6,
    "startCounts": 10,
    "endCounts": 0,
    "Diff": 10
  },
  {
    "": 13,
    "station": "Harvard Law School at Mass Ave / Jarvis St",
    "lat": 42.379011,
    "lon": -71.119945,
    "hour": 6,
    "startCounts": 12,
    "endCounts": 5,
    "Diff": 7
  },
  {
    "": 14,
    "station": "Inman Square at Vellucci Plaza / Hampshire St",
    "lat": 42.374035,
    "lon": -71.101427,
    "hour": 6,
    "startCounts": 19,
    "endCounts": 6,
    "Diff": 13
  },
  {
    "": 779,
    "station": "Lafayette Square at Mass Ave / Main St / Columbia St",
    "lat": 42.36346469304347,
    "lon": -71.10057324171065,
    "hour": 6,
    "startCounts": 1,
    "endCounts": 5,
    "Diff": -4
  },
  {
    "": 522,
    "station": "Lechmere Station at Cambridge St / First St",
    "lat": 42.370677,
    "lon": -71.07652900000001,
    "hour": 7,
    "startCounts": 8,
    "endCounts": 7,
    "Diff": 1
  },
  {
    "": 521,
    "station": "MIT Stata Center at Vassar St / Main St",
    "lat": 42.3619622,
    "lon": -71.0920526,
    "hour": 7,
    "startCounts": 3,
    "endCounts": 48,
    "Diff": -45
  },
  {
    "": 667,
    "station": "Harvard Law School at Mass Ave / Jarvis St",
    "lat": 42.379011,
    "lon": -71.119945,
    "hour": 7,
    "startCounts": 2,
    "endCounts": 13,
    "Diff": -11
  },
  {
    "": 668,
    "station": "Danehy Park",
    "lat": 42.388965999999996,
    "lon": -71.132788,
    "hour": 7,
    "startCounts": 5,
    "endCounts": 6,
    "Diff": -1
  },
  {
    "": 737,
    "station": "MIT at Mass Ave / Amherst St",
    "lat": 42.3581,
    "lon": -71.093198,
    "hour": 7,
    "startCounts": 5,
    "endCounts": 21,
    "Diff": -16
  },
  {
    "": 27,
    "station": "Lower Cambridgeport at Magazine St/Riverside Rd",
    "lat": 42.356953999999995,
    "lon": -71.113687,
    "hour": 7,
    "startCounts": 17,
    "endCounts": 10,
    "Diff": 7
  },
  {
    "": 26,
    "station": "Cambridge Main Library at Broadway / Trowbridge St",
    "lat": 42.373379,
    "lon": -71.111075,
    "hour": 7,
    "startCounts": 31,
    "endCounts": 6,
    "Diff": 25
  },
  {
    "": 25,
    "station": "One Kendall Square at Hampshire St / Portland St",
    "lat": 42.366277000000004,
    "lon": -71.09169,
    "hour": 7,
    "startCounts": 7,
    "endCounts": 24,
    "Diff": -17
  },
  {
    "": 378,
    "station": "Kendall Street",
    "lat": 42.36356015842989,
    "lon": -71.08216792345047,
    "hour": 7,
    "startCounts": 1,
    "endCounts": 16,
    "Diff": -15
  },
  {
    "": 669,
    "station": "Ames St at Main St",
    "lat": 42.3625,
    "lon": -71.08821999999999,
    "hour": 7,
    "startCounts": 5,
    "endCounts": 39,
    "Diff": -34
  },
  {
    "": 523,
    "station": "University Park",
    "lat": 42.36264779118595,
    "lon": -71.1000609397888,
    "hour": 7,
    "startCounts": 14,
    "endCounts": 10,
    "Diff": 4
  },
  {
    "": 638,
    "station": "One Broadway / Kendall Sq at Main St / 3rd St",
    "lat": 42.362613,
    "lon": -71.08410500000001,
    "hour": 7,
    "startCounts": 5,
    "endCounts": 12,
    "Diff": -7
  },
  {
    "": 610,
    "station": "Lafayette Square at Mass Ave / Main St / Columbia St",
    "lat": 42.36346469304347,
    "lon": -71.10057324171065,
    "hour": 7,
    "startCounts": 8,
    "endCounts": 6,
    "Diff": 2
  },
  {
    "": 370,
    "station": "Porter Square Station",
    "lat": 42.387995000000004,
    "lon": -71.119084,
    "hour": 7,
    "startCounts": 42,
    "endCounts": 3,
    "Diff": 39
  },
  {
    "": 639,
    "station": "Harvard Square at Mass Ave/ Dunster",
    "lat": 42.373267999999996,
    "lon": -71.118579,
    "hour": 7,
    "startCounts": 5,
    "endCounts": 14,
    "Diff": -9
  },
  {
    "": 23,
    "station": "359 Broadway - Broadway at Fayette Street",
    "lat": 42.370803,
    "lon": -71.104412,
    "hour": 7,
    "startCounts": 35,
    "endCounts": 2,
    "Diff": 33
  },
  {
    "": 371,
    "station": "Harvard University Radcliffe Quadrangle at Shepard St / Garden St",
    "lat": 42.380287,
    "lon": -71.125107,
    "hour": 7,
    "startCounts": 21,
    "endCounts": 1,
    "Diff": 20
  },
  {
    "": 372,
    "station": "EF - North Point Park",
    "lat": 42.369885,
    "lon": -71.06995699999999,
    "hour": 7,
    "startCounts": 13,
    "endCounts": 4,
    "Diff": 9
  },
  {
    "": 373,
    "station": "Dana Park",
    "lat": 42.361780439606044,
    "lon": -71.10809952020645,
    "hour": 7,
    "startCounts": 19,
    "endCounts": 1,
    "Diff": 18
  },
  {
    "": 374,
    "station": "Cambridge St - at Columbia St / Webster Ave",
    "lat": 42.372969,
    "lon": -71.094445,
    "hour": 7,
    "startCounts": 31,
    "endCounts": 8,
    "Diff": 23
  },
  {
    "": 375,
    "station": "Inman Square at Vellucci Plaza / Hampshire St",
    "lat": 42.374035,
    "lon": -71.101427,
    "hour": 7,
    "startCounts": 56,
    "endCounts": 4,
    "Diff": 52
  },
  {
    "": 376,
    "station": "Sidney Research Campus/ Erie Street at Waverly",
    "lat": 42.35775309465199,
    "lon": -71.10393404960631,
    "hour": 7,
    "startCounts": 3,
    "endCounts": 19,
    "Diff": -16
  },
  {
    "": 912,
    "station": "Harvard University / SEAS Cruft-Pierce Halls at 29 Oxford St",
    "lat": 42.377945000000004,
    "lon": -71.116865,
    "hour": 7,
    "startCounts": 0,
    "endCounts": 6,
    "Diff": -6
  },
  {
    "": 738,
    "station": "Mt Auburn",
    "lat": 42.37478628706384,
    "lon": -71.13320231437683,
    "hour": 7,
    "startCounts": 3,
    "endCounts": 8,
    "Diff": -5
  },
  {
    "": 22,
    "station": "Lesley University",
    "lat": 42.38674802045056,
    "lon": -71.11901879310608,
    "hour": 7,
    "startCounts": 14,
    "endCounts": 1,
    "Diff": 13
  },
  {
    "": 24,
    "station": "Central Square at Mass Ave / Essex St",
    "lat": 42.36507,
    "lon": -71.1031,
    "hour": 7,
    "startCounts": 22,
    "endCounts": 29,
    "Diff": -7
  },
  {
    "": 377,
    "station": "Harvard University River Houses at DeWolfe St / Cowperthwaite St",
    "lat": 42.36919031768079,
    "lon": -71.11714124679565,
    "hour": 7,
    "startCounts": 1,
    "endCounts": 4,
    "Diff": -3
  },
  {
    "": 16,
    "station": "Harvard University Housing - 115 Putnam Ave at Peabody Terrace",
    "lat": 42.366621,
    "lon": -71.114214,
    "hour": 7,
    "startCounts": 20,
    "endCounts": 0,
    "Diff": 20
  },
  {
    "": 15,
    "station": "CambridgeSide Galleria - CambridgeSide PL at Land Blvd",
    "lat": 42.366981,
    "lon": -71.076472,
    "hour": 7,
    "startCounts": 7,
    "endCounts": 9,
    "Diff": -2
  },
  {
    "": 700,
    "station": "Harvard University Gund Hall at Quincy St / Kirkland S",
    "lat": 42.376369,
    "lon": -71.114025,
    "hour": 7,
    "startCounts": 2,
    "endCounts": 12,
    "Diff": -10
  },
  {
    "": 786,
    "station": "Harvard Square at Brattle St / Eliot St",
    "lat": 42.373231,
    "lon": -71.120886,
    "hour": 7,
    "startCounts": 2,
    "endCounts": 4,
    "Diff": -2
  },
  {
    "": 17,
    "station": "Rindge Avenue - O'Neill Library",
    "lat": 42.392765999999995,
    "lon": -71.129042,
    "hour": 7,
    "startCounts": 18,
    "endCounts": 1,
    "Diff": 17
  },
  {
    "": 18,
    "station": "Central Sq Post Office / Cambridge City Hall at Mass Ave / Pleasant St",
    "lat": 42.366426000000004,
    "lon": -71.10549499999999,
    "hour": 7,
    "startCounts": 24,
    "endCounts": 18,
    "Diff": 6
  },
  {
    "": 19,
    "station": "Kendall T",
    "lat": 42.362427842912396,
    "lon": -71.08495473861693,
    "hour": 7,
    "startCounts": 21,
    "endCounts": 14,
    "Diff": 7
  },
  {
    "": 780,
    "station": "Binney St / Sixth St",
    "lat": 42.366095,
    "lon": -71.086388,
    "hour": 7,
    "startCounts": 1,
    "endCounts": 17,
    "Diff": -16
  },
  {
    "": 20,
    "station": "MIT Vassar St",
    "lat": 42.35560121327927,
    "lon": -71.10394477844237,
    "hour": 7,
    "startCounts": 35,
    "endCounts": 13,
    "Diff": 22
  },
  {
    "": 745,
    "station": "Harvard Kennedy School at Bennett St / Eliot St",
    "lat": 42.371991654086756,
    "lon": -71.12226963043213,
    "hour": 7,
    "startCounts": 2,
    "endCounts": 21,
    "Diff": -19
  },
  {
    "": 744,
    "station": "Third at Binney",
    "lat": 42.365444861373994,
    "lon": -71.0827714204788,
    "hour": 7,
    "startCounts": 5,
    "endCounts": 10,
    "Diff": -5
  },
  {
    "": 984,
    "station": "Chinatown Gate Plaza",
    "lat": 42.351356,
    "lon": -71.05936700000001,
    "hour": 7,
    "startCounts": 0,
    "endCounts": 1,
    "Diff": -1
  },
  {
    "": 841,
    "station": "Brian P. Murphy Staircase at Child Street",
    "lat": 42.3720597013741,
    "lon": -71.07202649116515,
    "hour": 7,
    "startCounts": 2,
    "endCounts": 1,
    "Diff": 1
  },
  {
    "": 859,
    "station": "Copley Square - Dartmouth St at Boylston St",
    "lat": 42.349672999999996,
    "lon": -71.077303,
    "hour": 7,
    "startCounts": 4,
    "endCounts": 0,
    "Diff": 4
  },
  {
    "": 860,
    "station": "Alewife MBTA at Steel Place",
    "lat": 42.395588457167094,
    "lon": -71.14260613918304,
    "hour": 7,
    "startCounts": 1,
    "endCounts": 7,
    "Diff": -6
  },
  {
    "": 861,
    "station": "Congress St at North St",
    "lat": 42.360613,
    "lon": -71.057452,
    "hour": 7,
    "startCounts": 1,
    "endCounts": 0,
    "Diff": 1
  },
  {
    "": 21,
    "station": "MIT Pacific St at Purrington St",
    "lat": 42.359573201090434,
    "lon": -71.10129475593567,
    "hour": 7,
    "startCounts": 30,
    "endCounts": 7,
    "Diff": 23
  },
  {
    "": 746,
    "station": "Alewife Station at Russell Field",
    "lat": 42.396105,
    "lon": -71.139459,
    "hour": 7,
    "startCounts": 1,
    "endCounts": 3,
    "Diff": -2
  },
  {
    "": 701,
    "station": "Linear Park - Mass. Ave. at Cameron Ave.",
    "lat": 42.397828000000004,
    "lon": -71.130516,
    "hour": 7,
    "startCounts": 5,
    "endCounts": 1,
    "Diff": 4
  },
  {
    "": 54,
    "station": "Harvard Square at Brattle St / Eliot St",
    "lat": 42.373231,
    "lon": -71.120886,
    "hour": 8,
    "startCounts": 13,
    "endCounts": 26,
    "Diff": -13
  },
  {
    "": 34,
    "station": "Linear Park - Mass. Ave. at Cameron Ave.",
    "lat": 42.397828000000004,
    "lon": -71.130516,
    "hour": 8,
    "startCounts": 30,
    "endCounts": 9,
    "Diff": 21
  },
  {
    "": 53,
    "station": "Lechmere Station at Cambridge St / First St",
    "lat": 42.370677,
    "lon": -71.07652900000001,
    "hour": 8,
    "startCounts": 25,
    "endCounts": 31,
    "Diff": -6
  },
  {
    "": 52,
    "station": "Harvard University / SEAS Cruft-Pierce Halls at 29 Oxford St",
    "lat": 42.377945000000004,
    "lon": -71.116865,
    "hour": 8,
    "startCounts": 12,
    "endCounts": 45,
    "Diff": -33
  },
  {
    "": 32,
    "station": "EF - North Point Park",
    "lat": 42.369885,
    "lon": -71.06995699999999,
    "hour": 8,
    "startCounts": 32,
    "endCounts": 34,
    "Diff": -2
  },
  {
    "": 33,
    "station": "359 Broadway - Broadway at Fayette Street",
    "lat": 42.370803,
    "lon": -71.104412,
    "hour": 8,
    "startCounts": 62,
    "endCounts": 10,
    "Diff": 52
  },
  {
    "": 50,
    "station": "One Kendall Square at Hampshire St / Portland St",
    "lat": 42.366277000000004,
    "lon": -71.09169,
    "hour": 8,
    "startCounts": 61,
    "endCounts": 40,
    "Diff": 21
  },
  {
    "": 36,
    "station": "MIT Vassar St",
    "lat": 42.35560121327927,
    "lon": -71.10394477844237,
    "hour": 8,
    "startCounts": 118,
    "endCounts": 30,
    "Diff": 88
  },
  {
    "": 37,
    "station": "Lafayette Square at Mass Ave / Main St / Columbia St",
    "lat": 42.36346469304347,
    "lon": -71.10057324171065,
    "hour": 8,
    "startCounts": 32,
    "endCounts": 10,
    "Diff": 22
  },
  {
    "": 38,
    "station": "Harvard Law School at Mass Ave / Jarvis St",
    "lat": 42.379011,
    "lon": -71.119945,
    "hour": 8,
    "startCounts": 16,
    "endCounts": 10,
    "Diff": 6
  },
  {
    "": 49,
    "station": "CambridgeSide Galleria - CambridgeSide PL at Land Blvd",
    "lat": 42.366981,
    "lon": -71.076472,
    "hour": 8,
    "startCounts": 16,
    "endCounts": 31,
    "Diff": -15
  },
  {
    "": 40,
    "station": "MIT Pacific St at Purrington St",
    "lat": 42.359573201090434,
    "lon": -71.10129475593567,
    "hour": 8,
    "startCounts": 88,
    "endCounts": 28,
    "Diff": 60
  },
  {
    "": 41,
    "station": "Kendall T",
    "lat": 42.362427842912396,
    "lon": -71.08495473861693,
    "hour": 8,
    "startCounts": 71,
    "endCounts": 150,
    "Diff": -79
  },
  {
    "": 42,
    "station": "Ames St at Main St",
    "lat": 42.3625,
    "lon": -71.08821999999999,
    "hour": 8,
    "startCounts": 11,
    "endCounts": 109,
    "Diff": -98
  },
  {
    "": 51,
    "station": "One Broadway / Kendall Sq at Main St / 3rd St",
    "lat": 42.362613,
    "lon": -71.08410500000001,
    "hour": 8,
    "startCounts": 10,
    "endCounts": 36,
    "Diff": -26
  },
  {
    "": 43,
    "station": "Lesley University",
    "lat": 42.38674802045056,
    "lon": -71.11901879310608,
    "hour": 8,
    "startCounts": 14,
    "endCounts": 2,
    "Diff": 12
  },
  {
    "": 44,
    "station": "University Park",
    "lat": 42.36264779118595,
    "lon": -71.1000609397888,
    "hour": 8,
    "startCounts": 40,
    "endCounts": 22,
    "Diff": 18
  },
  {
    "": 45,
    "station": "Dana Park",
    "lat": 42.361780439606044,
    "lon": -71.10809952020645,
    "hour": 8,
    "startCounts": 39,
    "endCounts": 5,
    "Diff": 34
  },
  {
    "": 46,
    "station": "Harvard Square at Mass Ave/ Dunster",
    "lat": 42.373267999999996,
    "lon": -71.118579,
    "hour": 8,
    "startCounts": 18,
    "endCounts": 40,
    "Diff": -22
  },
  {
    "": 47,
    "station": "Third at Binney",
    "lat": 42.365444861373994,
    "lon": -71.0827714204788,
    "hour": 8,
    "startCounts": 9,
    "endCounts": 7,
    "Diff": 2
  },
  {
    "": 48,
    "station": "MIT at Mass Ave / Amherst St",
    "lat": 42.3581,
    "lon": -71.093198,
    "hour": 8,
    "startCounts": 49,
    "endCounts": 125,
    "Diff": -76
  },
  {
    "": 35,
    "station": "Porter Square Station",
    "lat": 42.387995000000004,
    "lon": -71.119084,
    "hour": 8,
    "startCounts": 43,
    "endCounts": 15,
    "Diff": 28
  },
  {
    "": 39,
    "station": "Harvard University Housing - 115 Putnam Ave at Peabody Terrace",
    "lat": 42.366621,
    "lon": -71.114214,
    "hour": 8,
    "startCounts": 103,
    "endCounts": 11,
    "Diff": 92
  },
  {
    "": 985,
    "station": "Rowes Wharf at Atlantic Ave",
    "lat": 42.357143,
    "lon": -71.050699,
    "hour": 8,
    "startCounts": 0,
    "endCounts": 1,
    "Diff": -1
  },
  {
    "": 380,
    "station": "Rindge Avenue - O'Neill Library",
    "lat": 42.392765999999995,
    "lon": -71.129042,
    "hour": 8,
    "startCounts": 27,
    "endCounts": 0,
    "Diff": 27
  },
  {
    "": 739,
    "station": "Harvard Kennedy School at Bennett St / Eliot St",
    "lat": 42.371991654086756,
    "lon": -71.12226963043213,
    "hour": 8,
    "startCounts": 1,
    "endCounts": 51,
    "Diff": -50
  },
  {
    "": 747,
    "station": "Danehy Park",
    "lat": 42.388965999999996,
    "lon": -71.132788,
    "hour": 8,
    "startCounts": 3,
    "endCounts": 9,
    "Diff": -6
  },
  {
    "": 787,
    "station": "Mt Auburn",
    "lat": 42.37478628706384,
    "lon": -71.13320231437683,
    "hour": 8,
    "startCounts": 5,
    "endCounts": 3,
    "Diff": 2
  },
  {
    "": 788,
    "station": "Kendall Street",
    "lat": 42.36356015842989,
    "lon": -71.08216792345047,
    "hour": 8,
    "startCounts": 4,
    "endCounts": 13,
    "Diff": -9
  },
  {
    "": 803,
    "station": "Alewife MBTA at Steel Place",
    "lat": 42.395588457167094,
    "lon": -71.14260613918304,
    "hour": 8,
    "startCounts": 2,
    "endCounts": 8,
    "Diff": -6
  },
  {
    "": 862,
    "station": "Copley Square - Dartmouth St at Boylston St",
    "lat": 42.349672999999996,
    "lon": -71.077303,
    "hour": 8,
    "startCounts": 5,
    "endCounts": 3,
    "Diff": 2
  },
  {
    "": 863,
    "station": "Congress St at North St",
    "lat": 42.360613,
    "lon": -71.057452,
    "hour": 8,
    "startCounts": 1,
    "endCounts": 0,
    "Diff": 1
  },
  {
    "": 864,
    "station": "Chinatown Gate Plaza",
    "lat": 42.351356,
    "lon": -71.05936700000001,
    "hour": 8,
    "startCounts": 3,
    "endCounts": 1,
    "Diff": 2
  },
  {
    "": 865,
    "station": "Alewife Station at Russell Field",
    "lat": 42.396105,
    "lon": -71.139459,
    "hour": 8,
    "startCounts": 1,
    "endCounts": 0,
    "Diff": 1
  },
  {
    "": 379,
    "station": "Cambridge Main Library at Broadway / Trowbridge St",
    "lat": 42.373379,
    "lon": -71.111075,
    "hour": 8,
    "startCounts": 35,
    "endCounts": 9,
    "Diff": 26
  },
  {
    "": 29,
    "station": "Lower Cambridgeport at Magazine St/Riverside Rd",
    "lat": 42.356953999999995,
    "lon": -71.113687,
    "hour": 8,
    "startCounts": 36,
    "endCounts": 25,
    "Diff": 11
  },
  {
    "": 30,
    "station": "Cambridge St - at Columbia St / Webster Ave",
    "lat": 42.372969,
    "lon": -71.094445,
    "hour": 8,
    "startCounts": 72,
    "endCounts": 7,
    "Diff": 65
  },
  {
    "": 31,
    "station": "Central Square at Mass Ave / Essex St",
    "lat": 42.36507,
    "lon": -71.1031,
    "hour": 8,
    "startCounts": 53,
    "endCounts": 58,
    "Diff": -5
  },
  {
    "": 524,
    "station": "Binney St / Sixth St",
    "lat": 42.366095,
    "lon": -71.086388,
    "hour": 8,
    "startCounts": 17,
    "endCounts": 20,
    "Diff": -3
  },
  {
    "": 525,
    "station": "Central Sq Post Office / Cambridge City Hall at Mass Ave / Pleasant St",
    "lat": 42.366426000000004,
    "lon": -71.10549499999999,
    "hour": 8,
    "startCounts": 24,
    "endCounts": 40,
    "Diff": -16
  },
  {
    "": 28,
    "station": "Inman Square at Vellucci Plaza / Hampshire St",
    "lat": 42.374035,
    "lon": -71.101427,
    "hour": 8,
    "startCounts": 151,
    "endCounts": 27,
    "Diff": 124
  },
  {
    "": 381,
    "station": "Harvard University Gund Hall at Quincy St / Kirkland S",
    "lat": 42.376369,
    "lon": -71.114025,
    "hour": 8,
    "startCounts": 18,
    "endCounts": 45,
    "Diff": -27
  },
  {
    "": 640,
    "station": "MIT Stata Center at Vassar St / Main St",
    "lat": 42.3619622,
    "lon": -71.0920526,
    "hour": 8,
    "startCounts": 12,
    "endCounts": 150,
    "Diff": -138
  },
  {
    "": 385,
    "station": "Sidney Research Campus/ Erie Street at Waverly",
    "lat": 42.35775309465199,
    "lon": -71.10393404960631,
    "hour": 8,
    "startCounts": 19,
    "endCounts": 28,
    "Diff": -9
  },
  {
    "": 384,
    "station": "Harvard University River Houses at DeWolfe St / Cowperthwaite St",
    "lat": 42.36919031768079,
    "lon": -71.11714124679565,
    "hour": 8,
    "startCounts": 8,
    "endCounts": 23,
    "Diff": -15
  },
  {
    "": 383,
    "station": "Harvard University Radcliffe Quadrangle at Shepard St / Garden St",
    "lat": 42.380287,
    "lon": -71.125107,
    "hour": 8,
    "startCounts": 34,
    "endCounts": 7,
    "Diff": 27
  },
  {
    "": 382,
    "station": "Brian P. Murphy Staircase at Child Street",
    "lat": 42.3720597013741,
    "lon": -71.07202649116515,
    "hour": 8,
    "startCounts": 22,
    "endCounts": 5,
    "Diff": 17
  },
  {
    "": 527,
    "station": "Danehy Park",
    "lat": 42.388965999999996,
    "lon": -71.132788,
    "hour": 9,
    "startCounts": 3,
    "endCounts": 9,
    "Diff": -6
  },
  {
    "": 66,
    "station": "Harvard University Housing - 115 Putnam Ave at Peabody Terrace",
    "lat": 42.366621,
    "lon": -71.114214,
    "hour": 9,
    "startCounts": 91,
    "endCounts": 5,
    "Diff": 86
  },
  {
    "": 65,
    "station": "Inman Square at Vellucci Plaza / Hampshire St",
    "lat": 42.374035,
    "lon": -71.101427,
    "hour": 9,
    "startCounts": 99,
    "endCounts": 8,
    "Diff": 91
  },
  {
    "": 64,
    "station": "Sidney Research Campus/ Erie Street at Waverly",
    "lat": 42.35775309465199,
    "lon": -71.10393404960631,
    "hour": 9,
    "startCounts": 21,
    "endCounts": 14,
    "Diff": 7
  },
  {
    "": 63,
    "station": "Harvard University River Houses at DeWolfe St / Cowperthwaite St",
    "lat": 42.36919031768079,
    "lon": -71.11714124679565,
    "hour": 9,
    "startCounts": 26,
    "endCounts": 23,
    "Diff": 3
  },
  {
    "": 62,
    "station": "MIT at Mass Ave / Amherst St",
    "lat": 42.3581,
    "lon": -71.093198,
    "hour": 9,
    "startCounts": 57,
    "endCounts": 132,
    "Diff": -75
  },
  {
    "": 61,
    "station": "Harvard University Gund Hall at Quincy St / Kirkland S",
    "lat": 42.376369,
    "lon": -71.114025,
    "hour": 9,
    "startCounts": 27,
    "endCounts": 29,
    "Diff": -2
  },
  {
    "": 60,
    "station": "MIT Pacific St at Purrington St",
    "lat": 42.359573201090434,
    "lon": -71.10129475593567,
    "hour": 9,
    "startCounts": 118,
    "endCounts": 20,
    "Diff": 98
  },
  {
    "": 59,
    "station": "Lower Cambridgeport at Magazine St/Riverside Rd",
    "lat": 42.356953999999995,
    "lon": -71.113687,
    "hour": 9,
    "startCounts": 47,
    "endCounts": 25,
    "Diff": 22
  },
  {
    "": 58,
    "station": "MIT Vassar St",
    "lat": 42.35560121327927,
    "lon": -71.10394477844237,
    "hour": 9,
    "startCounts": 160,
    "endCounts": 40,
    "Diff": 120
  },
  {
    "": 55,
    "station": "University Park",
    "lat": 42.36264779118595,
    "lon": -71.1000609397888,
    "hour": 9,
    "startCounts": 46,
    "endCounts": 28,
    "Diff": 18
  },
  {
    "": 56,
    "station": "Brian P. Murphy Staircase at Child Street",
    "lat": 42.3720597013741,
    "lon": -71.07202649116515,
    "hour": 9,
    "startCounts": 21,
    "endCounts": 7,
    "Diff": 14
  },
  {
    "": 526,
    "station": "Linear Park - Mass. Ave. at Cameron Ave.",
    "lat": 42.397828000000004,
    "lon": -71.130516,
    "hour": 9,
    "startCounts": 13,
    "endCounts": 3,
    "Diff": 10
  },
  {
    "": 386,
    "station": "Mt Auburn",
    "lat": 42.37478628706384,
    "lon": -71.13320231437683,
    "hour": 9,
    "startCounts": 8,
    "endCounts": 1,
    "Diff": 7
  },
  {
    "": 387,
    "station": "Rindge Avenue - O'Neill Library",
    "lat": 42.392765999999995,
    "lon": -71.129042,
    "hour": 9,
    "startCounts": 15,
    "endCounts": 6,
    "Diff": 9
  },
  {
    "": 388,
    "station": "Ames St at Main St",
    "lat": 42.3625,
    "lon": -71.08821999999999,
    "hour": 9,
    "startCounts": 17,
    "endCounts": 113,
    "Diff": -96
  },
  {
    "": 389,
    "station": "Lafayette Square at Mass Ave / Main St / Columbia St",
    "lat": 42.36346469304347,
    "lon": -71.10057324171065,
    "hour": 9,
    "startCounts": 32,
    "endCounts": 18,
    "Diff": 14
  },
  {
    "": 391,
    "station": "Harvard University / SEAS Cruft-Pierce Halls at 29 Oxford St",
    "lat": 42.377945000000004,
    "lon": -71.116865,
    "hour": 9,
    "startCounts": 12,
    "endCounts": 75,
    "Diff": -63
  },
  {
    "": 392,
    "station": "Lesley University",
    "lat": 42.38674802045056,
    "lon": -71.11901879310608,
    "hour": 9,
    "startCounts": 21,
    "endCounts": 4,
    "Diff": 17
  },
  {
    "": 393,
    "station": "Harvard Square at Mass Ave/ Dunster",
    "lat": 42.373267999999996,
    "lon": -71.118579,
    "hour": 9,
    "startCounts": 8,
    "endCounts": 75,
    "Diff": -67
  },
  {
    "": 528,
    "station": "Harvard Law School at Mass Ave / Jarvis St",
    "lat": 42.379011,
    "lon": -71.119945,
    "hour": 9,
    "startCounts": 18,
    "endCounts": 13,
    "Diff": 5
  },
  {
    "": 57,
    "station": "Central Sq Post Office / Cambridge City Hall at Mass Ave / Pleasant St",
    "lat": 42.366426000000004,
    "lon": -71.10549499999999,
    "hour": 9,
    "startCounts": 34,
    "endCounts": 24,
    "Diff": 10
  },
  {
    "": 390,
    "station": "One Broadway / Kendall Sq at Main St / 3rd St",
    "lat": 42.362613,
    "lon": -71.08410500000001,
    "hour": 9,
    "startCounts": 13,
    "endCounts": 41,
    "Diff": -28
  },
  {
    "": 986,
    "station": "Congress St at North St",
    "lat": 42.360613,
    "lon": -71.057452,
    "hour": 9,
    "startCounts": 0,
    "endCounts": 1,
    "Diff": -1
  },
  {
    "": 67,
    "station": "Kendall T",
    "lat": 42.362427842912396,
    "lon": -71.08495473861693,
    "hour": 9,
    "startCounts": 58,
    "endCounts": 127,
    "Diff": -69
  },
  {
    "": 866,
    "station": "Surface Rd at India St",
    "lat": 42.358155,
    "lon": -71.05216300000001,
    "hour": 9,
    "startCounts": 2,
    "endCounts": 1,
    "Diff": 1
  },
  {
    "": 867,
    "station": "Copley Square - Dartmouth St at Boylston St",
    "lat": 42.349672999999996,
    "lon": -71.077303,
    "hour": 9,
    "startCounts": 1,
    "endCounts": 1,
    "Diff": 0
  },
  {
    "": 642,
    "station": "CambridgeSide Galleria - CambridgeSide PL at Land Blvd",
    "lat": 42.366981,
    "lon": -71.076472,
    "hour": 9,
    "startCounts": 7,
    "endCounts": 29,
    "Diff": -22
  },
  {
    "": 721,
    "station": "Binney St / Sixth St",
    "lat": 42.366095,
    "lon": -71.086388,
    "hour": 9,
    "startCounts": 12,
    "endCounts": 25,
    "Diff": -13
  },
  {
    "": 579,
    "station": "Kendall Street",
    "lat": 42.36356015842989,
    "lon": -71.08216792345047,
    "hour": 9,
    "startCounts": 2,
    "endCounts": 19,
    "Diff": -17
  },
  {
    "": 81,
    "station": "Harvard Kennedy School at Bennett St / Eliot St",
    "lat": 42.371991654086756,
    "lon": -71.12226963043213,
    "hour": 9,
    "startCounts": 6,
    "endCounts": 38,
    "Diff": -32
  },
  {
    "": 80,
    "station": "Third at Binney",
    "lat": 42.365444861373994,
    "lon": -71.0827714204788,
    "hour": 9,
    "startCounts": 10,
    "endCounts": 4,
    "Diff": 6
  },
  {
    "": 79,
    "station": "Lechmere Station at Cambridge St / First St",
    "lat": 42.370677,
    "lon": -71.07652900000001,
    "hour": 9,
    "startCounts": 21,
    "endCounts": 35,
    "Diff": -14
  },
  {
    "": 78,
    "station": "Dana Park",
    "lat": 42.361780439606044,
    "lon": -71.10809952020645,
    "hour": 9,
    "startCounts": 33,
    "endCounts": 6,
    "Diff": 27
  },
  {
    "": 77,
    "station": "359 Broadway - Broadway at Fayette Street",
    "lat": 42.370803,
    "lon": -71.104412,
    "hour": 9,
    "startCounts": 41,
    "endCounts": 7,
    "Diff": 34
  },
  {
    "": 76,
    "station": "MIT Stata Center at Vassar St / Main St",
    "lat": 42.3619622,
    "lon": -71.0920526,
    "hour": 9,
    "startCounts": 11,
    "endCounts": 179,
    "Diff": -168
  },
  {
    "": 641,
    "station": "EF - North Point Park",
    "lat": 42.369885,
    "lon": -71.06995699999999,
    "hour": 9,
    "startCounts": 16,
    "endCounts": 14,
    "Diff": 2
  },
  {
    "": 927,
    "station": "Alewife Station at Russell Field",
    "lat": 42.396105,
    "lon": -71.139459,
    "hour": 9,
    "startCounts": 0,
    "endCounts": 5,
    "Diff": -5
  },
  {
    "": 70,
    "station": "Central Square at Mass Ave / Essex St",
    "lat": 42.36507,
    "lon": -71.1031,
    "hour": 9,
    "startCounts": 35,
    "endCounts": 43,
    "Diff": -8
  },
  {
    "": 68,
    "station": "Porter Square Station",
    "lat": 42.387995000000004,
    "lon": -71.119084,
    "hour": 9,
    "startCounts": 15,
    "endCounts": 6,
    "Diff": 9
  },
  {
    "": 75,
    "station": "Alewife MBTA at Steel Place",
    "lat": 42.395588457167094,
    "lon": -71.14260613918304,
    "hour": 9,
    "startCounts": 2,
    "endCounts": 6,
    "Diff": -4
  },
  {
    "": 71,
    "station": "Harvard University Radcliffe Quadrangle at Shepard St / Garden St",
    "lat": 42.380287,
    "lon": -71.125107,
    "hour": 9,
    "startCounts": 32,
    "endCounts": 18,
    "Diff": 14
  },
  {
    "": 69,
    "station": "Harvard Square at Brattle St / Eliot St",
    "lat": 42.373231,
    "lon": -71.120886,
    "hour": 9,
    "startCounts": 16,
    "endCounts": 34,
    "Diff": -18
  },
  {
    "": 73,
    "station": "Cambridge Main Library at Broadway / Trowbridge St",
    "lat": 42.373379,
    "lon": -71.111075,
    "hour": 9,
    "startCounts": 39,
    "endCounts": 10,
    "Diff": 29
  },
  {
    "": 74,
    "station": "One Kendall Square at Hampshire St / Portland St",
    "lat": 42.366277000000004,
    "lon": -71.09169,
    "hour": 9,
    "startCounts": 39,
    "endCounts": 55,
    "Diff": -16
  },
  {
    "": 72,
    "station": "Cambridge St - at Columbia St / Webster Ave",
    "lat": 42.372969,
    "lon": -71.094445,
    "hour": 9,
    "startCounts": 54,
    "endCounts": 14,
    "Diff": 40
  },
  {
    "": 987,
    "station": "Chinatown Gate Plaza",
    "lat": 42.351356,
    "lon": -71.05936700000001,
    "hour": 10,
    "startCounts": 0,
    "endCounts": 1,
    "Diff": -1
  },
  {
    "": 644,
    "station": "Harvard Kennedy School at Bennett St / Eliot St",
    "lat": 42.371991654086756,
    "lon": -71.12226963043213,
    "hour": 10,
    "startCounts": 11,
    "endCounts": 39,
    "Diff": -28
  },
  {
    "": 401,
    "station": "Mt Auburn",
    "lat": 42.37478628706384,
    "lon": -71.13320231437683,
    "hour": 10,
    "startCounts": 3,
    "endCounts": 2,
    "Diff": 1
  },
  {
    "": 394,
    "station": "Cambridge Main Library at Broadway / Trowbridge St",
    "lat": 42.373379,
    "lon": -71.111075,
    "hour": 10,
    "startCounts": 26,
    "endCounts": 14,
    "Diff": 12
  },
  {
    "": 395,
    "station": "MIT Stata Center at Vassar St / Main St",
    "lat": 42.3619622,
    "lon": -71.0920526,
    "hour": 10,
    "startCounts": 22,
    "endCounts": 168,
    "Diff": -146
  },
  {
    "": 396,
    "station": "Harvard University Radcliffe Quadrangle at Shepard St / Garden St",
    "lat": 42.380287,
    "lon": -71.125107,
    "hour": 10,
    "startCounts": 21,
    "endCounts": 6,
    "Diff": 15
  },
  {
    "": 397,
    "station": "Lafayette Square at Mass Ave / Main St / Columbia St",
    "lat": 42.36346469304347,
    "lon": -71.10057324171065,
    "hour": 10,
    "startCounts": 16,
    "endCounts": 21,
    "Diff": -5
  },
  {
    "": 398,
    "station": "Harvard Square at Brattle St / Eliot St",
    "lat": 42.373231,
    "lon": -71.120886,
    "hour": 10,
    "startCounts": 19,
    "endCounts": 28,
    "Diff": -9
  },
  {
    "": 399,
    "station": "Third at Binney",
    "lat": 42.365444861373994,
    "lon": -71.0827714204788,
    "hour": 10,
    "startCounts": 11,
    "endCounts": 1,
    "Diff": 10
  },
  {
    "": 400,
    "station": "Ames St at Main St",
    "lat": 42.3625,
    "lon": -71.08821999999999,
    "hour": 10,
    "startCounts": 20,
    "endCounts": 70,
    "Diff": -50
  },
  {
    "": 402,
    "station": "University Park",
    "lat": 42.36264779118595,
    "lon": -71.1000609397888,
    "hour": 10,
    "startCounts": 22,
    "endCounts": 28,
    "Diff": -6
  },
  {
    "": 722,
    "station": "Alewife MBTA at Steel Place",
    "lat": 42.395588457167094,
    "lon": -71.14260613918304,
    "hour": 10,
    "startCounts": 1,
    "endCounts": 2,
    "Diff": -1
  },
  {
    "": 404,
    "station": "Central Sq Post Office / Cambridge City Hall at Mass Ave / Pleasant St",
    "lat": 42.366426000000004,
    "lon": -71.10549499999999,
    "hour": 10,
    "startCounts": 18,
    "endCounts": 21,
    "Diff": -3
  },
  {
    "": 405,
    "station": "One Kendall Square at Hampshire St / Portland St",
    "lat": 42.366277000000004,
    "lon": -71.09169,
    "hour": 10,
    "startCounts": 18,
    "endCounts": 18,
    "Diff": 0
  },
  {
    "": 643,
    "station": "Linear Park - Mass. Ave. at Cameron Ave.",
    "lat": 42.397828000000004,
    "lon": -71.130516,
    "hour": 10,
    "startCounts": 8,
    "endCounts": 3,
    "Diff": 5
  },
  {
    "": 407,
    "station": "Rindge Avenue - O'Neill Library",
    "lat": 42.392765999999995,
    "lon": -71.129042,
    "hour": 10,
    "startCounts": 3,
    "endCounts": 3,
    "Diff": 0
  },
  {
    "": 530,
    "station": "Binney St / Sixth St",
    "lat": 42.366095,
    "lon": -71.086388,
    "hour": 10,
    "startCounts": 24,
    "endCounts": 5,
    "Diff": 19
  },
  {
    "": 529,
    "station": "CambridgeSide Galleria - CambridgeSide PL at Land Blvd",
    "lat": 42.366981,
    "lon": -71.076472,
    "hour": 10,
    "startCounts": 10,
    "endCounts": 26,
    "Diff": -16
  },
  {
    "": 869,
    "station": "Copley Square - Dartmouth St at Boylston St",
    "lat": 42.349672999999996,
    "lon": -71.077303,
    "hour": 10,
    "startCounts": 1,
    "endCounts": 1,
    "Diff": 0
  },
  {
    "": 868,
    "station": "South Station - 700 Atlantic Ave",
    "lat": 42.352175,
    "lon": -71.055547,
    "hour": 10,
    "startCounts": 1,
    "endCounts": 0,
    "Diff": 1
  },
  {
    "": 676,
    "station": "Harvard University / SEAS Cruft-Pierce Halls at 29 Oxford St",
    "lat": 42.377945000000004,
    "lon": -71.116865,
    "hour": 10,
    "startCounts": 10,
    "endCounts": 42,
    "Diff": -32
  },
  {
    "": 677,
    "station": "Brian P. Murphy Staircase at Child Street",
    "lat": 42.3720597013741,
    "lon": -71.07202649116515,
    "hour": 10,
    "startCounts": 2,
    "endCounts": 3,
    "Diff": -1
  },
  {
    "": 819,
    "station": "Alewife Station at Russell Field",
    "lat": 42.396105,
    "lon": -71.139459,
    "hour": 10,
    "startCounts": 3,
    "endCounts": 3,
    "Diff": 0
  },
  {
    "": 403,
    "station": "Lechmere Station at Cambridge St / First St",
    "lat": 42.370677,
    "lon": -71.07652900000001,
    "hour": 10,
    "startCounts": 13,
    "endCounts": 10,
    "Diff": 3
  },
  {
    "": 406,
    "station": "Lesley University",
    "lat": 42.38674802045056,
    "lon": -71.11901879310608,
    "hour": 10,
    "startCounts": 9,
    "endCounts": 6,
    "Diff": 3
  },
  {
    "": 702,
    "station": "Porter Square Station",
    "lat": 42.387995000000004,
    "lon": -71.119084,
    "hour": 10,
    "startCounts": 9,
    "endCounts": 9,
    "Diff": 0
  },
  {
    "": 95,
    "station": "MIT at Mass Ave / Amherst St",
    "lat": 42.3581,
    "lon": -71.093198,
    "hour": 10,
    "startCounts": 38,
    "endCounts": 116,
    "Diff": -78
  },
  {
    "": 91,
    "station": "Central Square at Mass Ave / Essex St",
    "lat": 42.36507,
    "lon": -71.1031,
    "hour": 10,
    "startCounts": 42,
    "endCounts": 34,
    "Diff": 8
  },
  {
    "": 92,
    "station": "Dana Park",
    "lat": 42.361780439606044,
    "lon": -71.10809952020645,
    "hour": 10,
    "startCounts": 28,
    "endCounts": 7,
    "Diff": 21
  },
  {
    "": 93,
    "station": "Sidney Research Campus/ Erie Street at Waverly",
    "lat": 42.35775309465199,
    "lon": -71.10393404960631,
    "hour": 10,
    "startCounts": 16,
    "endCounts": 4,
    "Diff": 12
  },
  {
    "": 94,
    "station": "Harvard University River Houses at DeWolfe St / Cowperthwaite St",
    "lat": 42.36919031768079,
    "lon": -71.11714124679565,
    "hour": 10,
    "startCounts": 28,
    "endCounts": 5,
    "Diff": 23
  },
  {
    "": 84,
    "station": "Inman Square at Vellucci Plaza / Hampshire St",
    "lat": 42.374035,
    "lon": -71.101427,
    "hour": 10,
    "startCounts": 53,
    "endCounts": 12,
    "Diff": 41
  },
  {
    "": 96,
    "station": "Kendall Street",
    "lat": 42.36356015842989,
    "lon": -71.08216792345047,
    "hour": 10,
    "startCounts": 8,
    "endCounts": 8,
    "Diff": 0
  },
  {
    "": 611,
    "station": "Danehy Park",
    "lat": 42.388965999999996,
    "lon": -71.132788,
    "hour": 10,
    "startCounts": 4,
    "endCounts": 2,
    "Diff": 2
  },
  {
    "": 612,
    "station": "Lower Cambridgeport at Magazine St/Riverside Rd",
    "lat": 42.356953999999995,
    "lon": -71.113687,
    "hour": 10,
    "startCounts": 21,
    "endCounts": 16,
    "Diff": 5
  },
  {
    "": 88,
    "station": "Cambridge St - at Columbia St / Webster Ave",
    "lat": 42.372969,
    "lon": -71.094445,
    "hour": 10,
    "startCounts": 31,
    "endCounts": 6,
    "Diff": 25
  },
  {
    "": 87,
    "station": "MIT Vassar St",
    "lat": 42.35560121327927,
    "lon": -71.10394477844237,
    "hour": 10,
    "startCounts": 111,
    "endCounts": 19,
    "Diff": 92
  },
  {
    "": 97,
    "station": "EF - North Point Park",
    "lat": 42.369885,
    "lon": -71.06995699999999,
    "hour": 10,
    "startCounts": 12,
    "endCounts": 7,
    "Diff": 5
  },
  {
    "": 580,
    "station": "Harvard University Gund Hall at Quincy St / Kirkland S",
    "lat": 42.376369,
    "lon": -71.114025,
    "hour": 10,
    "startCounts": 26,
    "endCounts": 30,
    "Diff": -4
  },
  {
    "": 740,
    "station": "One Broadway / Kendall Sq at Main St / 3rd St",
    "lat": 42.362613,
    "lon": -71.08410500000001,
    "hour": 10,
    "startCounts": 8,
    "endCounts": 21,
    "Diff": -13
  },
  {
    "": 82,
    "station": "MIT Pacific St at Purrington St",
    "lat": 42.359573201090434,
    "lon": -71.10129475593567,
    "hour": 10,
    "startCounts": 76,
    "endCounts": 35,
    "Diff": 41
  },
  {
    "": 86,
    "station": "Harvard University Housing - 115 Putnam Ave at Peabody Terrace",
    "lat": 42.366621,
    "lon": -71.114214,
    "hour": 10,
    "startCounts": 32,
    "endCounts": 9,
    "Diff": 23
  },
  {
    "": 85,
    "station": "Kendall T",
    "lat": 42.362427842912396,
    "lon": -71.08495473861693,
    "hour": 10,
    "startCounts": 40,
    "endCounts": 71,
    "Diff": -31
  },
  {
    "": 83,
    "station": "359 Broadway - Broadway at Fayette Street",
    "lat": 42.370803,
    "lon": -71.104412,
    "hour": 10,
    "startCounts": 23,
    "endCounts": 5,
    "Diff": 18
  },
  {
    "": 90,
    "station": "Harvard Square at Mass Ave/ Dunster",
    "lat": 42.373267999999996,
    "lon": -71.118579,
    "hour": 10,
    "startCounts": 23,
    "endCounts": 45,
    "Diff": -22
  },
  {
    "": 89,
    "station": "Harvard Law School at Mass Ave / Jarvis St",
    "lat": 42.379011,
    "lon": -71.119945,
    "hour": 10,
    "startCounts": 17,
    "endCounts": 11,
    "Diff": 6
  },
  {
    "": 769,
    "station": "Alewife MBTA at Steel Place",
    "lat": 42.395588457167094,
    "lon": -71.14260613918304,
    "hour": 11,
    "startCounts": 3,
    "endCounts": 2,
    "Diff": 1
  },
  {
    "": 116,
    "station": "Kendall T",
    "lat": 42.362427842912396,
    "lon": -71.08495473861693,
    "hour": 11,
    "startCounts": 52,
    "endCounts": 79,
    "Diff": -27
  },
  {
    "": 115,
    "station": "Harvard University Gund Hall at Quincy St / Kirkland S",
    "lat": 42.376369,
    "lon": -71.114025,
    "hour": 11,
    "startCounts": 18,
    "endCounts": 34,
    "Diff": -16
  },
  {
    "": 114,
    "station": "Central Sq Post Office / Cambridge City Hall at Mass Ave / Pleasant St",
    "lat": 42.366426000000004,
    "lon": -71.10549499999999,
    "hour": 11,
    "startCounts": 38,
    "endCounts": 32,
    "Diff": 6
  },
  {
    "": 113,
    "station": "Harvard Square at Mass Ave/ Dunster",
    "lat": 42.373267999999996,
    "lon": -71.118579,
    "hour": 11,
    "startCounts": 22,
    "endCounts": 49,
    "Diff": -27
  },
  {
    "": 112,
    "station": "Lafayette Square at Mass Ave / Main St / Columbia St",
    "lat": 42.36346469304347,
    "lon": -71.10057324171065,
    "hour": 11,
    "startCounts": 15,
    "endCounts": 15,
    "Diff": 0
  },
  {
    "": 102,
    "station": "University Park",
    "lat": 42.36264779118595,
    "lon": -71.1000609397888,
    "hour": 11,
    "startCounts": 35,
    "endCounts": 26,
    "Diff": 9
  },
  {
    "": 768,
    "station": "Mt Auburn",
    "lat": 42.37478628706384,
    "lon": -71.13320231437683,
    "hour": 11,
    "startCounts": 1,
    "endCounts": 3,
    "Diff": -2
  },
  {
    "": 741,
    "station": "Kendall Street",
    "lat": 42.36356015842989,
    "lon": -71.08216792345047,
    "hour": 11,
    "startCounts": 6,
    "endCounts": 10,
    "Diff": -4
  },
  {
    "": 531,
    "station": "Rindge Avenue - O'Neill Library",
    "lat": 42.392765999999995,
    "lon": -71.129042,
    "hour": 11,
    "startCounts": 3,
    "endCounts": 2,
    "Diff": 1
  },
  {
    "": 678,
    "station": "Lechmere Station at Cambridge St / First St",
    "lat": 42.370677,
    "lon": -71.07652900000001,
    "hour": 11,
    "startCounts": 14,
    "endCounts": 5,
    "Diff": 9
  },
  {
    "": 679,
    "station": "Harvard Law School at Mass Ave / Jarvis St",
    "lat": 42.379011,
    "lon": -71.119945,
    "hour": 11,
    "startCounts": 8,
    "endCounts": 13,
    "Diff": -5
  },
  {
    "": 680,
    "station": "EF - North Point Park",
    "lat": 42.369885,
    "lon": -71.06995699999999,
    "hour": 11,
    "startCounts": 7,
    "endCounts": 3,
    "Diff": 4
  },
  {
    "": 681,
    "station": "CambridgeSide Galleria - CambridgeSide PL at Land Blvd",
    "lat": 42.366981,
    "lon": -71.076472,
    "hour": 11,
    "startCounts": 15,
    "endCounts": 6,
    "Diff": 9
  },
  {
    "": 905,
    "station": "Alewife Station at Russell Field",
    "lat": 42.396105,
    "lon": -71.139459,
    "hour": 11,
    "startCounts": 0,
    "endCounts": 2,
    "Diff": -2
  },
  {
    "": 820,
    "station": "Brian P. Murphy Staircase at Child Street",
    "lat": 42.3720597013741,
    "lon": -71.07202649116515,
    "hour": 11,
    "startCounts": 2,
    "endCounts": 1,
    "Diff": 1
  },
  {
    "": 532,
    "station": "Third at Binney",
    "lat": 42.365444861373994,
    "lon": -71.0827714204788,
    "hour": 11,
    "startCounts": 11,
    "endCounts": 5,
    "Diff": 6
  },
  {
    "": 870,
    "station": "South Station - 700 Atlantic Ave",
    "lat": 42.352175,
    "lon": -71.055547,
    "hour": 11,
    "startCounts": 1,
    "endCounts": 2,
    "Diff": -1
  },
  {
    "": 417,
    "station": "Harvard Kennedy School at Bennett St / Eliot St",
    "lat": 42.371991654086756,
    "lon": -71.12226963043213,
    "hour": 11,
    "startCounts": 18,
    "endCounts": 13,
    "Diff": 5
  },
  {
    "": 410,
    "station": "359 Broadway - Broadway at Fayette Street",
    "lat": 42.370803,
    "lon": -71.104412,
    "hour": 11,
    "startCounts": 22,
    "endCounts": 10,
    "Diff": 12
  },
  {
    "": 415,
    "station": "Sidney Research Campus/ Erie Street at Waverly",
    "lat": 42.35775309465199,
    "lon": -71.10393404960631,
    "hour": 11,
    "startCounts": 15,
    "endCounts": 6,
    "Diff": 9
  },
  {
    "": 103,
    "station": "Harvard University Radcliffe Quadrangle at Shepard St / Garden St",
    "lat": 42.380287,
    "lon": -71.125107,
    "hour": 11,
    "startCounts": 19,
    "endCounts": 3,
    "Diff": 16
  },
  {
    "": 104,
    "station": "MIT Vassar St",
    "lat": 42.35560121327927,
    "lon": -71.10394477844237,
    "hour": 11,
    "startCounts": 84,
    "endCounts": 20,
    "Diff": 64
  },
  {
    "": 105,
    "station": "Inman Square at Vellucci Plaza / Hampshire St",
    "lat": 42.374035,
    "lon": -71.101427,
    "hour": 11,
    "startCounts": 50,
    "endCounts": 12,
    "Diff": 38
  },
  {
    "": 106,
    "station": "MIT Pacific St at Purrington St",
    "lat": 42.359573201090434,
    "lon": -71.10129475593567,
    "hour": 11,
    "startCounts": 79,
    "endCounts": 43,
    "Diff": 36
  },
  {
    "": 107,
    "station": "Cambridge Main Library at Broadway / Trowbridge St",
    "lat": 42.373379,
    "lon": -71.111075,
    "hour": 11,
    "startCounts": 26,
    "endCounts": 16,
    "Diff": 10
  },
  {
    "": 108,
    "station": "Lower Cambridgeport at Magazine St/Riverside Rd",
    "lat": 42.356953999999995,
    "lon": -71.113687,
    "hour": 11,
    "startCounts": 19,
    "endCounts": 19,
    "Diff": 0
  },
  {
    "": 109,
    "station": "Harvard University Housing - 115 Putnam Ave at Peabody Terrace",
    "lat": 42.366621,
    "lon": -71.114214,
    "hour": 11,
    "startCounts": 32,
    "endCounts": 17,
    "Diff": 15
  },
  {
    "": 804,
    "station": "Danehy Park",
    "lat": 42.388965999999996,
    "lon": -71.132788,
    "hour": 11,
    "startCounts": 1,
    "endCounts": 1,
    "Diff": 0
  },
  {
    "": 100,
    "station": "Harvard University / SEAS Cruft-Pierce Halls at 29 Oxford St",
    "lat": 42.377945000000004,
    "lon": -71.116865,
    "hour": 11,
    "startCounts": 27,
    "endCounts": 34,
    "Diff": -7
  },
  {
    "": 99,
    "station": "Ames St at Main St",
    "lat": 42.3625,
    "lon": -71.08821999999999,
    "hour": 11,
    "startCounts": 24,
    "endCounts": 48,
    "Diff": -24
  },
  {
    "": 416,
    "station": "Dana Park",
    "lat": 42.361780439606044,
    "lon": -71.10809952020645,
    "hour": 11,
    "startCounts": 12,
    "endCounts": 7,
    "Diff": 5
  },
  {
    "": 98,
    "station": "One Kendall Square at Hampshire St / Portland St",
    "lat": 42.366277000000004,
    "lon": -71.09169,
    "hour": 11,
    "startCounts": 24,
    "endCounts": 22,
    "Diff": 2
  },
  {
    "": 110,
    "station": "MIT at Mass Ave / Amherst St",
    "lat": 42.3581,
    "lon": -71.093198,
    "hour": 11,
    "startCounts": 67,
    "endCounts": 112,
    "Diff": -45
  },
  {
    "": 613,
    "station": "Lesley University",
    "lat": 42.38674802045056,
    "lon": -71.11901879310608,
    "hour": 11,
    "startCounts": 5,
    "endCounts": 1,
    "Diff": 4
  },
  {
    "": 408,
    "station": "Harvard University River Houses at DeWolfe St / Cowperthwaite St",
    "lat": 42.36919031768079,
    "lon": -71.11714124679565,
    "hour": 11,
    "startCounts": 17,
    "endCounts": 15,
    "Diff": 2
  },
  {
    "": 409,
    "station": "Porter Square Station",
    "lat": 42.387995000000004,
    "lon": -71.119084,
    "hour": 11,
    "startCounts": 12,
    "endCounts": 12,
    "Diff": 0
  },
  {
    "": 101,
    "station": "MIT Stata Center at Vassar St / Main St",
    "lat": 42.3619622,
    "lon": -71.0920526,
    "hour": 11,
    "startCounts": 37,
    "endCounts": 99,
    "Diff": -62
  },
  {
    "": 411,
    "station": "Cambridge St - at Columbia St / Webster Ave",
    "lat": 42.372969,
    "lon": -71.094445,
    "hour": 11,
    "startCounts": 33,
    "endCounts": 12,
    "Diff": 21
  },
  {
    "": 412,
    "station": "Central Square at Mass Ave / Essex St",
    "lat": 42.36507,
    "lon": -71.1031,
    "hour": 11,
    "startCounts": 38,
    "endCounts": 50,
    "Diff": -12
  },
  {
    "": 413,
    "station": "Binney St / Sixth St",
    "lat": 42.366095,
    "lon": -71.086388,
    "hour": 11,
    "startCounts": 12,
    "endCounts": 10,
    "Diff": 2
  },
  {
    "": 414,
    "station": "One Broadway / Kendall Sq at Main St / 3rd St",
    "lat": 42.362613,
    "lon": -71.08410500000001,
    "hour": 11,
    "startCounts": 10,
    "endCounts": 12,
    "Diff": -2
  },
  {
    "": 645,
    "station": "Linear Park - Mass. Ave. at Cameron Ave.",
    "lat": 42.397828000000004,
    "lon": -71.130516,
    "hour": 11,
    "startCounts": 10,
    "endCounts": 7,
    "Diff": 3
  },
  {
    "": 111,
    "station": "Harvard Square at Brattle St / Eliot St",
    "lat": 42.373231,
    "lon": -71.120886,
    "hour": 11,
    "startCounts": 14,
    "endCounts": 31,
    "Diff": -17
  },
  {
    "": 770,
    "station": "Harvard Law School at Mass Ave / Jarvis St",
    "lat": 42.379011,
    "lon": -71.119945,
    "hour": 12,
    "startCounts": 8,
    "endCounts": 14,
    "Diff": -6
  },
  {
    "": 703,
    "station": "Rindge Avenue - O'Neill Library",
    "lat": 42.392765999999995,
    "lon": -71.129042,
    "hour": 12,
    "startCounts": 4,
    "endCounts": 0,
    "Diff": 4
  },
  {
    "": 646,
    "station": "Mt Auburn",
    "lat": 42.37478628706384,
    "lon": -71.13320231437683,
    "hour": 12,
    "startCounts": 11,
    "endCounts": 9,
    "Diff": 2
  },
  {
    "": 871,
    "station": "South Station - 700 Atlantic Ave",
    "lat": 42.352175,
    "lon": -71.055547,
    "hour": 12,
    "startCounts": 3,
    "endCounts": 1,
    "Diff": 2
  },
  {
    "": 872,
    "station": "Copley Square - Dartmouth St at Boylston St",
    "lat": 42.349672999999996,
    "lon": -71.077303,
    "hour": 12,
    "startCounts": 4,
    "endCounts": 1,
    "Diff": 3
  },
  {
    "": 582,
    "station": "Lesley University",
    "lat": 42.38674802045056,
    "lon": -71.11901879310608,
    "hour": 12,
    "startCounts": 10,
    "endCounts": 3,
    "Diff": 7
  },
  {
    "": 581,
    "station": "Sidney Research Campus/ Erie Street at Waverly",
    "lat": 42.35775309465199,
    "lon": -71.10393404960631,
    "hour": 12,
    "startCounts": 23,
    "endCounts": 10,
    "Diff": 13
  },
  {
    "": 533,
    "station": "EF - North Point Park",
    "lat": 42.369885,
    "lon": -71.06995699999999,
    "hour": 12,
    "startCounts": 11,
    "endCounts": 13,
    "Diff": -2
  },
  {
    "": 534,
    "station": "Brian P. Murphy Staircase at Child Street",
    "lat": 42.3720597013741,
    "lon": -71.07202649116515,
    "hour": 12,
    "startCounts": 3,
    "endCounts": 2,
    "Diff": 1
  },
  {
    "": 535,
    "station": "University Park",
    "lat": 42.36264779118595,
    "lon": -71.1000609397888,
    "hour": 12,
    "startCounts": 43,
    "endCounts": 29,
    "Diff": 14
  },
  {
    "": 832,
    "station": "Alewife Station at Russell Field",
    "lat": 42.396105,
    "lon": -71.139459,
    "hour": 12,
    "startCounts": 3,
    "endCounts": 2,
    "Diff": 1
  },
  {
    "": 950,
    "station": "Danehy Park",
    "lat": 42.388965999999996,
    "lon": -71.132788,
    "hour": 12,
    "startCounts": 0,
    "endCounts": 2,
    "Diff": -2
  },
  {
    "": 874,
    "station": "Chinatown Gate Plaza",
    "lat": 42.351356,
    "lon": -71.05936700000001,
    "hour": 12,
    "startCounts": 1,
    "endCounts": 0,
    "Diff": 1
  },
  {
    "": 873,
    "station": "Surface Rd at India St",
    "lat": 42.358155,
    "lon": -71.05216300000001,
    "hour": 12,
    "startCounts": 1,
    "endCounts": 1,
    "Diff": 0
  },
  {
    "": 430,
    "station": "Harvard Square at Mass Ave/ Dunster",
    "lat": 42.373267999999996,
    "lon": -71.118579,
    "hour": 12,
    "startCounts": 33,
    "endCounts": 63,
    "Diff": -30
  },
  {
    "": 134,
    "station": "Kendall Street",
    "lat": 42.36356015842989,
    "lon": -71.08216792345047,
    "hour": 12,
    "startCounts": 10,
    "endCounts": 5,
    "Diff": 5
  },
  {
    "": 135,
    "station": "Dana Park",
    "lat": 42.361780439606044,
    "lon": -71.10809952020645,
    "hour": 12,
    "startCounts": 21,
    "endCounts": 6,
    "Diff": 15
  },
  {
    "": 136,
    "station": "Inman Square at Vellucci Plaza / Hampshire St",
    "lat": 42.374035,
    "lon": -71.101427,
    "hour": 12,
    "startCounts": 39,
    "endCounts": 31,
    "Diff": 8
  },
  {
    "": 429,
    "station": "Alewife MBTA at Steel Place",
    "lat": 42.395588457167094,
    "lon": -71.14260613918304,
    "hour": 12,
    "startCounts": 2,
    "endCounts": 2,
    "Diff": 0
  },
  {
    "": 428,
    "station": "CambridgeSide Galleria - CambridgeSide PL at Land Blvd",
    "lat": 42.366981,
    "lon": -71.076472,
    "hour": 12,
    "startCounts": 9,
    "endCounts": 11,
    "Diff": -2
  },
  {
    "": 419,
    "station": "Harvard University Radcliffe Quadrangle at Shepard St / Garden St",
    "lat": 42.380287,
    "lon": -71.125107,
    "hour": 12,
    "startCounts": 21,
    "endCounts": 9,
    "Diff": 12
  },
  {
    "": 427,
    "station": "Lower Cambridgeport at Magazine St/Riverside Rd",
    "lat": 42.356953999999995,
    "lon": -71.113687,
    "hour": 12,
    "startCounts": 33,
    "endCounts": 28,
    "Diff": 5
  },
  {
    "": 425,
    "station": "Central Sq Post Office / Cambridge City Hall at Mass Ave / Pleasant St",
    "lat": 42.366426000000004,
    "lon": -71.10549499999999,
    "hour": 12,
    "startCounts": 24,
    "endCounts": 28,
    "Diff": -4
  },
  {
    "": 424,
    "station": "Harvard Kennedy School at Bennett St / Eliot St",
    "lat": 42.371991654086756,
    "lon": -71.12226963043213,
    "hour": 12,
    "startCounts": 7,
    "endCounts": 16,
    "Diff": -9
  },
  {
    "": 423,
    "station": "Third at Binney",
    "lat": 42.365444861373994,
    "lon": -71.0827714204788,
    "hour": 12,
    "startCounts": 14,
    "endCounts": 10,
    "Diff": 4
  },
  {
    "": 422,
    "station": "Ames St at Main St",
    "lat": 42.3625,
    "lon": -71.08821999999999,
    "hour": 12,
    "startCounts": 29,
    "endCounts": 47,
    "Diff": -18
  },
  {
    "": 421,
    "station": "Linear Park - Mass. Ave. at Cameron Ave.",
    "lat": 42.397828000000004,
    "lon": -71.130516,
    "hour": 12,
    "startCounts": 8,
    "endCounts": 5,
    "Diff": 3
  },
  {
    "": 420,
    "station": "Harvard University Gund Hall at Quincy St / Kirkland S",
    "lat": 42.376369,
    "lon": -71.114025,
    "hour": 12,
    "startCounts": 16,
    "endCounts": 23,
    "Diff": -7
  },
  {
    "": 426,
    "station": "Porter Square Station",
    "lat": 42.387995000000004,
    "lon": -71.119084,
    "hour": 12,
    "startCounts": 15,
    "endCounts": 11,
    "Diff": 4
  },
  {
    "": 133,
    "station": "Harvard University / SEAS Cruft-Pierce Halls at 29 Oxford St",
    "lat": 42.377945000000004,
    "lon": -71.116865,
    "hour": 12,
    "startCounts": 36,
    "endCounts": 37,
    "Diff": -1
  },
  {
    "": 418,
    "station": "Lafayette Square at Mass Ave / Main St / Columbia St",
    "lat": 42.36346469304347,
    "lon": -71.10057324171065,
    "hour": 12,
    "startCounts": 25,
    "endCounts": 22,
    "Diff": 3
  },
  {
    "": 131,
    "station": "MIT at Mass Ave / Amherst St",
    "lat": 42.3581,
    "lon": -71.093198,
    "hour": 12,
    "startCounts": 121,
    "endCounts": 106,
    "Diff": 15
  },
  {
    "": 117,
    "station": "Harvard University Housing - 115 Putnam Ave at Peabody Terrace",
    "lat": 42.366621,
    "lon": -71.114214,
    "hour": 12,
    "startCounts": 28,
    "endCounts": 26,
    "Diff": 2
  },
  {
    "": 118,
    "station": "Lechmere Station at Cambridge St / First St",
    "lat": 42.370677,
    "lon": -71.07652900000001,
    "hour": 12,
    "startCounts": 15,
    "endCounts": 10,
    "Diff": 5
  },
  {
    "": 119,
    "station": "359 Broadway - Broadway at Fayette Street",
    "lat": 42.370803,
    "lon": -71.104412,
    "hour": 12,
    "startCounts": 33,
    "endCounts": 15,
    "Diff": 18
  },
  {
    "": 120,
    "station": "MIT Stata Center at Vassar St / Main St",
    "lat": 42.3619622,
    "lon": -71.0920526,
    "hour": 12,
    "startCounts": 54,
    "endCounts": 98,
    "Diff": -44
  },
  {
    "": 121,
    "station": "Central Square at Mass Ave / Essex St",
    "lat": 42.36507,
    "lon": -71.1031,
    "hour": 12,
    "startCounts": 45,
    "endCounts": 49,
    "Diff": -4
  },
  {
    "": 122,
    "station": "MIT Pacific St at Purrington St",
    "lat": 42.359573201090434,
    "lon": -71.10129475593567,
    "hour": 12,
    "startCounts": 47,
    "endCounts": 39,
    "Diff": 8
  },
  {
    "": 123,
    "station": "One Broadway / Kendall Sq at Main St / 3rd St",
    "lat": 42.362613,
    "lon": -71.08410500000001,
    "hour": 12,
    "startCounts": 14,
    "endCounts": 16,
    "Diff": -2
  },
  {
    "": 124,
    "station": "Cambridge St - at Columbia St / Webster Ave",
    "lat": 42.372969,
    "lon": -71.094445,
    "hour": 12,
    "startCounts": 30,
    "endCounts": 21,
    "Diff": 9
  },
  {
    "": 125,
    "station": "One Kendall Square at Hampshire St / Portland St",
    "lat": 42.366277000000004,
    "lon": -71.09169,
    "hour": 12,
    "startCounts": 51,
    "endCounts": 23,
    "Diff": 28
  },
  {
    "": 126,
    "station": "Harvard Square at Brattle St / Eliot St",
    "lat": 42.373231,
    "lon": -71.120886,
    "hour": 12,
    "startCounts": 20,
    "endCounts": 32,
    "Diff": -12
  },
  {
    "": 127,
    "station": "Cambridge Main Library at Broadway / Trowbridge St",
    "lat": 42.373379,
    "lon": -71.111075,
    "hour": 12,
    "startCounts": 26,
    "endCounts": 30,
    "Diff": -4
  },
  {
    "": 128,
    "station": "Harvard University River Houses at DeWolfe St / Cowperthwaite St",
    "lat": 42.36919031768079,
    "lon": -71.11714124679565,
    "hour": 12,
    "startCounts": 28,
    "endCounts": 16,
    "Diff": 12
  },
  {
    "": 129,
    "station": "Binney St / Sixth St",
    "lat": 42.366095,
    "lon": -71.086388,
    "hour": 12,
    "startCounts": 13,
    "endCounts": 6,
    "Diff": 7
  },
  {
    "": 130,
    "station": "MIT Vassar St",
    "lat": 42.35560121327927,
    "lon": -71.10394477844237,
    "hour": 12,
    "startCounts": 64,
    "endCounts": 51,
    "Diff": 13
  },
  {
    "": 132,
    "station": "Kendall T",
    "lat": 42.362427842912396,
    "lon": -71.08495473861693,
    "hour": 12,
    "startCounts": 58,
    "endCounts": 69,
    "Diff": -11
  },
  {
    "": 431,
    "station": "Binney St / Sixth St",
    "lat": 42.366095,
    "lon": -71.086388,
    "hour": 13,
    "startCounts": 12,
    "endCounts": 7,
    "Diff": 5
  },
  {
    "": 432,
    "station": "Sidney Research Campus/ Erie Street at Waverly",
    "lat": 42.35775309465199,
    "lon": -71.10393404960631,
    "hour": 13,
    "startCounts": 11,
    "endCounts": 15,
    "Diff": -4
  },
  {
    "": 433,
    "station": "CambridgeSide Galleria - CambridgeSide PL at Land Blvd",
    "lat": 42.366981,
    "lon": -71.076472,
    "hour": 13,
    "startCounts": 16,
    "endCounts": 14,
    "Diff": 2
  },