var diffnov = [
    {
      "": 0,
      "station": "Tremont St at E Berkeley St",
      "lat": 42.345392,
      "lon": -71.069616,
      "hour": 0,
      "startCounts": 9,
      "endCounts": 4,
      "Diff": 5
    },
    {
      "": 2512,
      "station": "Park Dr at Buswell St",
      "lat": 42.347241,
      "lon": -71.105301,
      "hour": 0,
      "startCounts": 10,
      "endCounts": 14,
      "Diff": -4
    },
    {
      "": 2513,
      "station": "Third at Binney",
      "lat": 42.365444861373994,
      "lon": -71.0827714204788,
      "hour": 0,
      "startCounts": 4,
      "endCounts": 7,
      "Diff": -3
    },
    {
      "": 2775,
      "station": "W Broadway at Dorchester St",
      "lat": 42.335693,
      "lon": -71.045859,
      "hour": 0,
      "startCounts": 2,
      "endCounts": 5,
      "Diff": -3
    },
    {
      "": 2776,
      "station": "Aquarium T Stop - 200 Atlantic Ave",
      "lat": 42.35991176110118,
      "lon": -71.0514298081398,
      "hour": 0,
      "startCounts": 14,
      "endCounts": 8,
      "Diff": 6
    },
    {
      "": 2777,
      "station": "State Street at Channel Center",
      "lat": 42.344136999999996,
      "lon": -71.05260799999999,
      "hour": 0,
      "startCounts": 4,
      "endCounts": 0,
      "Diff": 4
    },
    {
      "": 2778,
      "station": "Washington St at Rutland St",
      "lat": 42.338514601785995,
      "lon": -71.07404083013535,
      "hour": 0,
      "startCounts": 4,
      "endCounts": 3,
      "Diff": 1
    },
    {
      "": 2779,
      "station": "New Balance - 20 Guest St",
      "lat": 42.357329218677066,
      "lon": -71.14673539996147,
      "hour": 0,
      "startCounts": 4,
      "endCounts": 2,
      "Diff": 2
    },
    {
      "": 2780,
      "station": "Porter Square Station",
      "lat": 42.387995000000004,
      "lon": -71.119084,
      "hour": 0,
      "startCounts": 5,
      "endCounts": 8,
      "Diff": -3
    },
    {
      "": 2781,
      "station": "Columbus Ave at Massachusetts Ave",
      "lat": 42.340542615516355,
      "lon": -71.08138847914233,
      "hour": 0,
      "startCounts": 6,
      "endCounts": 11,
      "Diff": -5
    },
    {
      "": 2782,
      "station": "Boston City Hall - 28 State St",
      "lat": 42.35892,
      "lon": -71.057629,
      "hour": 0,
      "startCounts": 14,
      "endCounts": 12,
      "Diff": 2
    },
    {
      "": 2783,
      "station": "Tremont St at West St",
      "lat": 42.354979,
      "lon": -71.063348,
      "hour": 0,
      "startCounts": 7,
      "endCounts": 2,
      "Diff": 5
    },
    {
      "": 2784,
      "station": "Harvard University River Houses at DeWolfe St / Cowperthwaite St",
      "lat": 42.36919031768079,
      "lon": -71.11714124679565,
      "hour": 0,
      "startCounts": 5,
      "endCounts": 8,
      "Diff": -3
    },
    {
      "": 2785,
      "station": "One Kendall Square at Hampshire St / Portland St",
      "lat": 42.366277000000004,
      "lon": -71.09169,
      "hour": 0,
      "startCounts": 15,
      "endCounts": 18,
      "Diff": -3
    },
    {
      "": 2786,
      "station": "Packard's Corner - Commonwealth Ave at Brighton Ave",
      "lat": 42.352261,
      "lon": -71.12383100000001,
      "hour": 0,
      "startCounts": 4,
      "endCounts": 10,
      "Diff": -6
    },
    {
      "": 2511,
      "station": "One Broadway / Kendall Sq at Main St / 3rd St",
      "lat": 42.362613,
      "lon": -71.08410500000001,
      "hour": 0,
      "startCounts": 2,
      "endCounts": 0,
      "Diff": 2
    },
    {
      "": 2787,
      "station": "Rowes Wharf at Atlantic Ave",
      "lat": 42.357143,
      "lon": -71.050699,
      "hour": 0,
      "startCounts": 1,
      "endCounts": 2,
      "Diff": -1
    },
    {
      "": 2789,
      "station": "Cambridge St - at Columbia St / Webster Ave",
      "lat": 42.372969,
      "lon": -71.094445,
      "hour": 0,
      "startCounts": 9,
      "endCounts": 11,
      "Diff": -2
    },
    {
      "": 3023,
      "station": "Innovation Lab - 125 Western Ave at Batten Way",
      "lat": 42.363732,
      "lon": -71.124565,
      "hour": 0,
      "startCounts": 5,
      "endCounts": 1,
      "Diff": 4
    },
    {
      "": 3024,
      "station": "Coolidge Corner - Beacon St @ Centre St",
      "lat": 42.341598,
      "lon": -71.123338,
      "hour": 0,
      "startCounts": 2,
      "endCounts": 3,
      "Diff": -1
    },
    {
      "": 3025,
      "station": "Post Office Square - Pearl St at Milk St",
      "lat": 42.356755,
      "lon": -71.05540699999999,
      "hour": 0,
      "startCounts": 2,
      "endCounts": 1,
      "Diff": 1
    },
    {
      "": 3026,
      "station": "Kenmore Square",
      "lat": 42.348706,
      "lon": -71.097009,
      "hour": 0,
      "startCounts": 16,
      "endCounts": 13,
      "Diff": 3
    },
    {
      "": 3027,
      "station": "Kendall Street",
      "lat": 42.36356015842989,
      "lon": -71.08216792345047,
      "hour": 0,
      "startCounts": 4,
      "endCounts": 2,
      "Diff": 2
    },
    {
      "": 3028,
      "station": "Boylston St at Arlington St",
      "lat": 42.352583438376996,
      "lon": -71.06766249993595,
      "hour": 0,
      "startCounts": 7,
      "endCounts": 2,
      "Diff": 5
    },
    {
      "": 3029,
      "station": "Ink Block - Harrison Ave at Herald St",
      "lat": 42.345901,
      "lon": -71.063187,
      "hour": 0,
      "startCounts": 2,
      "endCounts": 2,
      "Diff": 0
    },
    {
      "": 3030,
      "station": "CambridgeSide Galleria - CambridgeSide PL at Land Blvd",
      "lat": 42.366981,
      "lon": -71.076472,
      "hour": 0,
      "startCounts": 7,
      "endCounts": 4,
      "Diff": 3
    },
    {
      "": 3031,
      "station": "Stuart St at Charles St",
      "lat": 42.351146,
      "lon": -71.066289,
      "hour": 0,
      "startCounts": 4,
      "endCounts": 9,
      "Diff": -5
    },
    {
      "": 3032,
      "station": "Back Bay T Stop - Dartmouth St at Stuart St",
      "lat": 42.34807412317439,
      "lon": -71.07657015323639,
      "hour": 0,
      "startCounts": 11,
      "endCounts": 2,
      "Diff": 9
    },
    {
      "": 3033,
      "station": "Dorchester Ave at Gillette Park",
      "lat": 42.34404051001636,
      "lon": -71.0573762655258,
      "hour": 0,
      "startCounts": 2,
      "endCounts": 1,
      "Diff": 1
    },
    {
      "": 3034,
      "station": "Conway Park - Somerville Avenue",
      "lat": 42.383404999999996,
      "lon": -71.10759300000001,
      "hour": 0,
      "startCounts": 6,
      "endCounts": 3,
      "Diff": 3
    },
    {
      "": 3155,
      "station": "Christian Science Plaza - Massachusetts Ave at Westland Ave",
      "lat": 42.3436658245146,
      "lon": -71.08582377433777,
      "hour": 0,
      "startCounts": 6,
      "endCounts": 8,
      "Diff": -2
    },
    {
      "": 2788,
      "station": "Somerville City Hall",
      "lat": 42.386844,
      "lon": -71.09812,
      "hour": 0,
      "startCounts": 1,
      "endCounts": 7,
      "Diff": -6
    },
    {
      "": 3156,
      "station": "Harvard University Radcliffe Quadrangle at Shepard St / Garden St",
      "lat": 42.380287,
      "lon": -71.125107,
      "hour": 0,
      "startCounts": 1,
      "endCounts": 3,
      "Diff": -2
    },
    {
      "": 2510,
      "station": "Harvard Square at Brattle St / Eliot St",
      "lat": 42.373231,
      "lon": -71.120886,
      "hour": 0,
      "startCounts": 9,
      "endCounts": 3,
      "Diff": 6
    },
    {
      "": 2508,
      "station": "Commonwealth Ave at Buick St",
      "lat": 42.35062177153799,
      "lon": -71.11288218766276,
      "hour": 0,
      "startCounts": 11,
      "endCounts": 7,
      "Diff": 4
    },
    {
      "": 1913,
      "station": "Harvard Square at Mass Ave/ Dunster",
      "lat": 42.373267999999996,
      "lon": -71.118579,
      "hour": 0,
      "startCounts": 17,
      "endCounts": 5,
      "Diff": 12
    },
    {
      "": 1914,
      "station": "Harvard University / SEAS Cruft-Pierce Halls at 29 Oxford St",
      "lat": 42.377945000000004,
      "lon": -71.116865,
      "hour": 0,
      "startCounts": 2,
      "endCounts": 2,
      "Diff": 0
    },
    {
      "": 1915,
      "station": "Magoun Square at Trum Field",
      "lat": 42.398365000000005,
      "lon": -71.10781800000001,
      "hour": 0,
      "startCounts": 1,
      "endCounts": 1,
      "Diff": 0
    },
    {
      "": 1916,
      "station": "Brookline Village - Station Street @ MBTA",
      "lat": 42.33289074055233,
      "lon": -71.11658334732057,
      "hour": 0,
      "startCounts": 3,
      "endCounts": 3,
      "Diff": 0
    },
    {
      "": 1917,
      "station": "Harvard Kennedy School at Bennett St / Eliot St",
      "lat": 42.371991654086756,
      "lon": -71.12226963043213,
      "hour": 0,
      "startCounts": 14,
      "endCounts": 6,
      "Diff": 8
    },
    {
      "": 1918,
      "station": "Union Square - Brighton Ave at Cambridge St",
      "lat": 42.353334000000004,
      "lon": -71.137313,
      "hour": 0,
      "startCounts": 3,
      "endCounts": 0,
      "Diff": 3
    },
    {
      "": 1919,
      "station": "South End Library - Tremont St at W Newton St",
      "lat": 42.341332,
      "lon": -71.076847,
      "hour": 0,
      "startCounts": 3,
      "endCounts": 2,
      "Diff": 1
    },
    {
      "": 1920,
      "station": "Cross St at Hanover St",
      "lat": 42.362811,
      "lon": -71.056067,
      "hour": 0,
      "startCounts": 18,
      "endCounts": 11,
      "Diff": 7
    },
    {
      "": 1921,
      "station": "Harvard Law School at Mass Ave / Jarvis St",
      "lat": 42.379011,
      "lon": -71.119945,
      "hour": 0,
      "startCounts": 6,
      "endCounts": 4,
      "Diff": 2
    },
    {
      "": 1922,
      "station": "Longwood Ave at Binney St",
      "lat": 42.338629,
      "lon": -71.1065,
      "hour": 0,
      "startCounts": 6,
      "endCounts": 0,
      "Diff": 6
    },
    {
      "": 1923,
      "station": "Harvard University Housing - 115 Putnam Ave at Peabody Terrace",
      "lat": 42.366621,
      "lon": -71.114214,
      "hour": 0,
      "startCounts": 5,
      "endCounts": 11,
      "Diff": -6
    },
    {
      "": 1924,
      "station": "MIT Stata Center at Vassar St / Main St",
      "lat": 42.3621312344991,
      "lon": -71.09115600585936,
      "hour": 0,
      "startCounts": 13,
      "endCounts": 5,
      "Diff": 8
    },
    {
      "": 1925,
      "station": "B.U. Central - 725 Comm. Ave.",
      "lat": 42.350406,
      "lon": -71.10827900000001,
      "hour": 0,
      "startCounts": 7,
      "endCounts": 2,
      "Diff": 5
    },
    {
      "": 1926,
      "station": "Verizon Innovation Hub 10 Ware Street",
      "lat": 42.37250864997261,
      "lon": -71.11305356025694,
      "hour": 0,
      "startCounts": 6,
      "endCounts": 1,
      "Diff": 5
    },
    {
      "": 2509,
      "station": "Purchase St at Pearl St",
      "lat": 42.354659000000005,
      "lon": -71.05318100000001,
      "hour": 0,
      "startCounts": 1,
      "endCounts": 2,
      "Diff": -1
    },
    {
      "": 1930,
      "station": "Charles Circle - Charles St at Cambridge St",
      "lat": 42.36075761041193,
      "lon": -71.07132909824031,
      "hour": 0,
      "startCounts": 7,
      "endCounts": 7,
      "Diff": 0
    },
    {
      "": 2494,
      "station": "Beacon St at Arlington St",
      "lat": 42.355549323361345,
      "lon": -71.07284188270569,
      "hour": 0,
      "startCounts": 13,
      "endCounts": 11,
      "Diff": 2
    },
    {
      "": 2495,
      "station": "Boylston St at Massachusetts Ave",
      "lat": 42.347265,
      "lon": -71.088088,
      "hour": 0,
      "startCounts": 11,
      "endCounts": 13,
      "Diff": -2
    },
    {
      "": 2496,
      "station": "Boylston St at Washington St",
      "lat": 42.352409,
      "lon": -71.062679,
      "hour": 0,
      "startCounts": 9,
      "endCounts": 6,
      "Diff": 3
    },
    {
      "": 2497,
      "station": "Brighton Center - Washington St at Cambridge St",
      "lat": 42.34894857235593,
      "lon": -71.15027189254761,
      "hour": 0,
      "startCounts": 2,
      "endCounts": 8,
      "Diff": -6
    },
    {
      "": 2498,
      "station": "MIT Vassar St",
      "lat": 42.35560121327927,
      "lon": -71.10394477844237,
      "hour": 0,
      "startCounts": 13,
      "endCounts": 44,
      "Diff": -31
    },
    {
      "": 2499,
      "station": "Congress St at Sleeper St",
      "lat": 42.351004495946704,
      "lon": -71.04930013418199,
      "hour": 0,
      "startCounts": 2,
      "endCounts": 0,
      "Diff": 2
    },
    {
      "": 2500,
      "station": "Ruggles T Stop - Columbus Ave at Melnea Cass Blvd",
      "lat": 42.33624444796878,
      "lon": -71.08798563480376,
      "hour": 0,
      "startCounts": 14,
      "endCounts": 15,
      "Diff": -1
    },
    {
      "": 2501,
      "station": "Congress St at North St",
      "lat": 42.360613,
      "lon": -71.057452,
      "hour": 0,
      "startCounts": 3,
      "endCounts": 0,
      "Diff": 3
    },
    {
      "": 2502,
      "station": "Boston Convention and Exhibition Center - Summer St at West Side Dr",
      "lat": 42.347763454147454,
      "lon": -71.04535996913908,
      "hour": 0,
      "startCounts": 3,
      "endCounts": 1,
      "Diff": 2
    },
    {
      "": 2503,
      "station": "Silber Way",
      "lat": 42.349495995140025,
      "lon": -71.10057592391969,
      "hour": 0,
      "startCounts": 10,
      "endCounts": 12,
      "Diff": -2
    },
    {
      "": 2504,
      "station": "Central Sq Post Office / Cambridge City Hall at Mass Ave / Pleasant St",
      "lat": 42.366426000000004,
      "lon": -71.10549499999999,
      "hour": 0,
      "startCounts": 9,
      "endCounts": 7,
      "Diff": 2
    },
    {
      "": 2505,
      "station": "HMS/HSPH - Avenue Louis Pasteur at Longwood Ave",
      "lat": 42.337417484597296,
      "lon": -71.10286116600038,
      "hour": 0,
      "startCounts": 3,
      "endCounts": 1,
      "Diff": 2
    },
    {
      "": 2506,
      "station": "Copley Square - Dartmouth St at Boylston St",
      "lat": 42.34976701008725,
      "lon": -71.0773265361786,
      "hour": 0,
      "startCounts": 6,
      "endCounts": 11,
      "Diff": -5
    },
    {
      "": 2507,
      "station": "Allston Green District - Griggs St at Commonwealth Ave",
      "lat": 42.34922469338298,
      "lon": -71.13275302578586,
      "hour": 0,
      "startCounts": 8,
      "endCounts": 5,
      "Diff": 3
    },
    {
      "": 2493,
      "station": "Cambridge Main Library at Broadway / Trowbridge St",
      "lat": 42.373379,
      "lon": -71.111075,
      "hour": 0,
      "startCounts": 6,
      "endCounts": 4,
      "Diff": 2
    },
    {
      "": 3245,
      "station": "Boylston St at Fairfield St",
      "lat": 42.348762,
      "lon": -71.082383,
      "hour": 0,
      "startCounts": 4,
      "endCounts": 4,
      "Diff": 0
    },
    {
      "": 3246,
      "station": "Lower Cambridgeport at Magazine St / Riverside Rd",
      "lat": 42.35721850317653,
      "lon": -71.1138716340065,
      "hour": 0,
      "startCounts": 1,
      "endCounts": 6,
      "Diff": -5
    },
    {
      "": 3247,
      "station": "Wilson Square",
      "lat": 42.385582,
      "lon": -71.113341,
      "hour": 0,
      "startCounts": 2,
      "endCounts": 5,
      "Diff": -3
    },
    {
      "": 3890,
      "station": "W Broadway at D St",
      "lat": 42.3391085,
      "lon": -71.05144320000001,
      "hour": 0,
      "startCounts": 0,
      "endCounts": 3,
      "Diff": -3
    },
    {
      "": 3891,
      "station": "Sidney Research Campus/ Erie Street at Waverly",
      "lat": 42.35775309465199,
      "lon": -71.10393404960631,
      "hour": 0,
      "startCounts": 0,
      "endCounts": 12,
      "Diff": -12
    },
    {
      "": 3892,
      "station": "Ryan Playground - Dorchester Ave at Harbor View St",
      "lat": 42.317642,
      "lon": -71.056664,
      "hour": 0,
      "startCounts": 0,
      "endCounts": 2,
      "Diff": -2
    },
    {
      "": 3893,
      "station": "Dudley Square - Dudley St at Warren St",
      "lat": 42.32854046293402,
      "lon": -71.08416482806204,
      "hour": 0,
      "startCounts": 0,
      "endCounts": 4,
      "Diff": -4
    },
    {
      "": 3894,
      "station": "Washington St at Melnea Cass Blvd",
      "lat": 42.332817,
      "lon": -71.081198,
      "hour": 0,
      "startCounts": 0,
      "endCounts": 1,
      "Diff": -1
    },
    {
      "": 3895,
      "station": "Seaport Square - Seaport Blvd at Northern Ave",
      "lat": 42.35148193460858,
      "lon": -71.04436084628105,
      "hour": 0,
      "startCounts": 0,
      "endCounts": 1,
      "Diff": -1
    },
    {
      "": 3896,
      "station": "Danehy Park",
      "lat": 42.388965999999996,
      "lon": -71.132788,
      "hour": 0,
      "startCounts": 0,
      "endCounts": 5,
      "Diff": -5
    },
    {
      "": 3912,
      "station": "Murphy Skating Rink - 1880 Day Blvd",
      "lat": 42.336448,
      "lon": -71.023739,
      "hour": 0,
      "startCounts": 0,
      "endCounts": 3,
      "Diff": -3
    },
    {
      "": 3913,
      "station": "Mt Auburn",
      "lat": 42.37478628706384,
      "lon": -71.13320231437683,
      "hour": 0,
      "startCounts": 0,
      "endCounts": 4,
      "Diff": -4
    },
    {
      "": 3914,
      "station": "Powder House Circle - Nathan Tufts Park",
      "lat": 42.400877,
      "lon": -71.116772,
      "hour": 0,
      "startCounts": 0,
      "endCounts": 6,
      "Diff": -6
    },
    {
      "": 3915,
      "station": "Troy Boston",
      "lat": 42.343749,
      "lon": -71.062256,
      "hour": 0,
      "startCounts": 0,
      "endCounts": 2,
      "Diff": -2
    },
    {
      "": 3916,
      "station": "EF - North Point Park",
      "lat": 42.369885,
      "lon": -71.06995699999999,
      "hour": 0,
      "startCounts": 0,
      "endCounts": 3,
      "Diff": -3
    },
    {
      "": 3949,
      "station": "Bunker Hill Community College",
      "lat": 42.37408991426522,
      "lon": -71.06905996799469,
      "hour": 0,
      "startCounts": 0,
      "endCounts": 4,
      "Diff": -4
    },
    {
      "": 3964,
      "station": "Surface Rd at India St",
      "lat": 42.358155,
      "lon": -71.05216300000001,
      "hour": 0,
      "startCounts": 0,
      "endCounts": 2,
      "Diff": -2
    },
    {
      "": 3889,
      "station": "Washington Square at Washington St. / Beacon St.",
      "lat": 42.339335,
      "lon": -71.13493000000001,
      "hour": 0,
      "startCounts": 0,
      "endCounts": 4,
      "Diff": -4
    },
    {
      "": 3978,
      "station": "Clarendon Hill at Broadway",
      "lat": 42.406302000000004,
      "lon": -71.132446,
      "hour": 0,
      "startCounts": 0,
      "endCounts": 3,
      "Diff": -3
    },
    {
      "": 4006,
      "station": "Brian P. Murphy Staircase at Child Street",
      "lat": 42.3720597013741,
      "lon": -71.07202649116515,
      "hour": 0,
      "startCounts": 0,
      "endCounts": 7,
      "Diff": -7
    },
    {
      "": 4029,
      "station": "One Memorial Drive",
      "lat": 42.36161932076685,
      "lon": -71.08043550520959,
      "hour": 0,
      "startCounts": 0,
      "endCounts": 1,
      "Diff": -1
    },
    {
      "": 4038,
      "station": "Burlington Ave at Brookline Ave",
      "lat": 42.345733,
      "lon": -71.10069399999999,
      "hour": 0,
      "startCounts": 0,
      "endCounts": 3,
      "Diff": -3
    },
    {
      "": 4045,
      "station": "Andrew T Stop - Dorchester Ave at Dexter St",
      "lat": 42.33047365041517,
      "lon": -71.05701684951781,
      "hour": 0,
      "startCounts": 0,
      "endCounts": 2,
      "Diff": -2
    },
    {
      "": 4053,
      "station": "Spaulding Rehabilitation Hospital - Charlestown Navy Yard",
      "lat": 42.378338,
      "lon": -71.048927,
      "hour": 0,
      "startCounts": 0,
      "endCounts": 1,
      "Diff": -1
    },
    {
      "": 4061,
      "station": "Upham's Corner",
      "lat": 42.31750891943043,
      "lon": -71.06416625906604,
      "hour": 0,
      "startCounts": 0,
      "endCounts": 2,
      "Diff": -2
    },
    {
      "": 4072,
      "station": "Museum of Science",
      "lat": 42.36769018024484,
      "lon": -71.07116281986238,
      "hour": 0,
      "startCounts": 0,
      "endCounts": 1,
      "Diff": -1
    },
    {
      "": 4073,
      "station": "Hayes Square - Vine St at Moulton St",
      "lat": 42.377022,
      "lon": -71.056605,
      "hour": 0,
      "startCounts": 0,
      "endCounts": 1,
      "Diff": -1
    },
    {
      "": 4080,
      "station": "Rindge Avenue - O'Neill Library",
      "lat": 42.392765999999995,
      "lon": -71.129042,
      "hour": 0,
      "startCounts": 0,
      "endCounts": 1,
      "Diff": -1
    },
    {
      "": 4081,
      "station": "Savin Hill T Stop - S Sydney St at Bay St",
      "lat": 42.3106,
      "lon": -71.0539,
      "hour": 0,
      "startCounts": 0,
      "endCounts": 1,
      "Diff": -1
    },
    {
      "": 4082,
      "station": "NCAAA - Walnut Ave at Crawford St",
      "lat": 42.316902,
      "lon": -71.091946,
      "hour": 0,
      "startCounts": 0,
      "endCounts": 1,
      "Diff": -1
    },
    {
      "": 4092,
      "station": "Huron Ave. At Vassal Lane",
      "lat": 42.381650612901176,
      "lon": -71.13426981498378,
      "hour": 0,
      "startCounts": 0,
      "endCounts": 1,
      "Diff": -1
    },
    {
      "": 4133,
      "station": "Boylston St at Berkeley St",
      "lat": 42.351141982547496,
      "lon": -71.07329249382019,
      "hour": 0,
      "startCounts": 0,
      "endCounts": 1,
      "Diff": -1
    },
    {
      "": 4149,
      "station": "Packard Ave / Powderhouse Blvd",
      "lat": 42.40449,
      "lon": -71.123413,
      "hour": 0,
      "startCounts": 0,
      "endCounts": 2,
      "Diff": -2
    },
    {
      "": 4005,
      "station": "Soldiers Field Park - 111 Western Ave",
      "lat": 42.365064000000004,
      "lon": -71.119233,
      "hour": 0,
      "startCounts": 0,
      "endCounts": 9,
      "Diff": -9
    },
    {
      "": 3857,
      "station": "Green Street T Stop - Green St at Amory St",
      "lat": 42.310579,
      "lon": -71.107341,
      "hour": 0,
      "startCounts": 0,
      "endCounts": 2,
      "Diff": -2
    },
    {
      "": 3856,
      "station": "Washington St at Lenox St",
      "lat": 42.3350989929096,
      "lon": -71.07903778553009,
      "hour": 0,
      "startCounts": 0,
      "endCounts": 3,
      "Diff": -3
    },
    {
      "": 3855,
      "station": "Jackson Square T Stop",
      "lat": 42.32293117195949,
      "lon": -71.10014140605927,
      "hour": 0,
      "startCounts": 0,
      "endCounts": 3,
      "Diff": -3
    },
    {
      "": 3248,
      "station": "Commonwealth Ave At Babcock St",
      "lat": 42.35154734791375,
      "lon": -71.12126246094705,
      "hour": 0,
      "startCounts": 6,
      "endCounts": 10,
      "Diff": -4
    },
    {
      "": 3249,
      "station": "South Boston Library - 646 E Broadway",
      "lat": 42.335741,
      "lon": -71.03877,
      "hour": 0,
      "startCounts": 4,
      "endCounts": 2,
      "Diff": 2
    },
    {
      "": 3250,
      "station": "Brigham Circle - Francis St at Huntington Ave",
      "lat": 42.33462893055976,
      "lon": -71.10407917767589,
      "hour": 0,
      "startCounts": 5,
      "endCounts": 5,
      "Diff": 0
    },
    {
      "": 3384,
      "station": "Chinatown Gate Plaza",
      "lat": 42.351356,
      "lon": -71.05936700000001,
      "hour": 0,
      "startCounts": 3,
      "endCounts": 2,
      "Diff": 1
    },
    {
      "": 3414,
      "station": "359 Broadway - Broadway at Fayette Street",
      "lat": 42.370803,
      "lon": -71.104412,
      "hour": 0,
      "startCounts": 5,
      "endCounts": 12,
      "Diff": -7
    },
    {
      "": 3429,
      "station": "Dana Park",
      "lat": 42.361780439606044,
      "lon": -71.10809952020645,
      "hour": 0,
      "startCounts": 1,
      "endCounts": 13,
      "Diff": -12
    },
    {
      "": 3444,
      "station": "Boston Medical Center - E Concord St at Harrison Ave",
      "lat": 42.336437,
      "lon": -71.073089,
      "hour": 0,
      "startCounts": 1,
      "endCounts": 2,
      "Diff": -1
    },
    {
      "": 3445,
      "station": "JFK Crossing at Harvard St. / Thorndike St.",
      "lat": 42.346563,
      "lon": -71.128374,
      "hour": 0,
      "startCounts": 1,
      "endCounts": 5,
      "Diff": -4
    },
    {
      "": 3446,
      "station": "Watermark Seaport - Boston Wharf Rd at Seaport Blvd",
      "lat": 42.351586001198456,
      "lon": -71.04569256305693,
      "hour": 0,
      "startCounts": 2,
      "endCounts": 1,
      "Diff": 1
    },
    {
      "": 3479,
      "station": "Colleges of the Fenway - Fenway at Avenue Louis Pasteur",
      "lat": 42.340115122492364,
      "lon": -71.10061883926393,
      "hour": 0,
      "startCounts": 1,
      "endCounts": 8,
      "Diff": -7
    },
    {
      "": 3480,
      "station": "Binney St / Sixth St",
      "lat": 42.366095,
      "lon": -71.086388,
      "hour": 0,
      "startCounts": 2,
      "endCounts": 3,
      "Diff": -1
    },
    {
      "": 3502,
      "station": "Lechmere Station at Cambridge St / First St",
      "lat": 42.370677,
      "lon": -71.07652900000001,
      "hour": 0,
      "startCounts": 3,
      "endCounts": 5,
      "Diff": -2
    },
    {
      "": 3530,
      "station": "Wentworth Institute of Technology - Huntington Ave at Vancouver St",
      "lat": 42.33758601097239,
      "lon": -71.09627097845076,
      "hour": 0,
      "startCounts": 5,
      "endCounts": 4,
      "Diff": 1
    },
    {
      "": 3550,
      "station": "University of Massachusetts Boston - Integrated Sciences Complex",
      "lat": 42.314507,
      "lon": -71.041269,
      "hour": 0,
      "startCounts": 1,
      "endCounts": 0,
      "Diff": 1
    },
    {
      "": 3582,
      "station": "MLK Blvd at Washington St",
      "lat": 42.32143814183195,
      "lon": -71.09126061201096,
      "hour": 0,
      "startCounts": 1,
      "endCounts": 0,
      "Diff": 1
    },
    {
      "": 3583,
      "station": "Lewis Wharf at Atlantic Ave",
      "lat": 42.363871,
      "lon": -71.050877,
      "hour": 0,
      "startCounts": 6,
      "endCounts": 4,
      "Diff": 2
    },
    {
      "": 3584,
      "station": "Roxbury YMCA - Warren St at MLK Blvd",
      "lat": 42.317873293456024,
      "lon": -71.08243077993394,
      "hour": 0,
      "startCounts": 1,
      "endCounts": 2,
      "Diff": -1
    },
    {
      "": 3795,
      "station": "Teele Square at 239 Holland St",
      "lat": 42.402763,
      "lon": -71.126908,
      "hour": 0,
      "startCounts": 0,
      "endCounts": 13,
      "Diff": -13
    },
    {
      "": 3760,
      "station": "Congress St at Northern Ave",
      "lat": 42.3481,
      "lon": -71.03764,
      "hour": 0,
      "startCounts": 2,
      "endCounts": 3,
      "Diff": -1
    },
    {
      "": 3749,
      "station": "Broadway St at Mt Pleasant St",
      "lat": 42.38614141163957,
      "lon": -71.07828140258789,
      "hour": 0,
      "startCounts": 1,
      "endCounts": 2,
      "Diff": -1
    },
    {
      "": 3748,
      "station": "Hyde Square - Barbara St at Centre St",
      "lat": 42.32176525723952,
      "lon": -71.10984160567114,
      "hour": 0,
      "startCounts": 1,
      "endCounts": 1,
      "Diff": 0
    },
    {
      "": 3735,
      "station": "Arch St at Franklin St",
      "lat": 42.35581929709065,
      "lon": -71.05887290099417,
      "hour": 0,
      "startCounts": 1,
      "endCounts": 2,
      "Diff": -1
    },
    {
      "": 3734,
      "station": "Boylston St at Dartmouth St",
      "lat": 42.350413,
      "lon": -71.07655,
      "hour": 0,
      "startCounts": 1,
      "endCounts": 2,
      "Diff": -1
    },
    {
      "": 1912,
      "station": "Union Square - Somerville",
      "lat": 42.379637,
      "lon": -71.09531899999999,
      "hour": 0,
      "startCounts": 6,
      "endCounts": 8,
      "Diff": -2
    },
    {
      "": 3717,
      "station": "Lesley University",
      "lat": 42.38674802045056,
      "lon": -71.11901879310608,
      "hour": 0,
      "startCounts": 2,
      "endCounts": 2,
      "Diff": 0
    },
    {
      "": 3679,
      "station": "Linear Park - Mass. Ave. at Cameron Ave.",
      "lat": 42.397828000000004,
      "lon": -71.130516,
      "hour": 0,
      "startCounts": 2,
      "endCounts": 2,
      "Diff": 0
    },
    {
      "": 3678,
      "station": "Alewife Station at Russell Field",
      "lat": 42.396105,
      "lon": -71.139459,
      "hour": 0,
      "startCounts": 1,
      "endCounts": 2,
      "Diff": -1
    },
    {
      "": 3638,
      "station": "Seaport Blvd at Sleeper St",
      "lat": 42.353178091862524,
      "lon": -71.04817356923377,
      "hour": 0,
      "startCounts": 8,
      "endCounts": 3,
      "Diff": 5
    },
    {
      "": 3615,
      "station": "Harvard University Gund Hall at Quincy St / Kirkland S",
      "lat": 42.376369,
      "lon": -71.114025,
      "hour": 0,
      "startCounts": 3,
      "endCounts": 3,
      "Diff": 0
    },
    {
      "": 3614,
      "station": "Warren St at Chelsea St",
      "lat": 42.371848,
      "lon": -71.060292,
      "hour": 0,
      "startCounts": 1,
      "endCounts": 11,
      "Diff": -10
    },
    {
      "": 3613,
      "station": "Roxbury Crossing T Stop - Columbus Ave at Tremont St",
      "lat": 42.331184,
      "lon": -71.095171,
      "hour": 0,
      "startCounts": 3,
      "endCounts": 5,
      "Diff": -2
    },
    {
      "": 3708,
      "station": "Washington St at Waltham St",
      "lat": 42.341522,
      "lon": -71.068922,
      "hour": 0,
      "startCounts": 1,
      "endCounts": 2,
      "Diff": -1
    },
    {
      "": 1911,
      "station": "Ames St at Main St",
      "lat": 42.3625,
      "lon": -71.08821999999999,
      "hour": 0,
      "startCounts": 12,
      "endCounts": 8,
      "Diff": 4
    },
    {
      "": 4153,
      "station": "Nashua Street at Red Auerbach Way",
      "lat": 42.365673,
      "lon": -71.064263,
      "hour": 0,
      "startCounts": 0,
      "endCounts": 2,
      "Diff": -2
    },
    {
      "": 13,
      "station": "Charles St and Beacon St",
      "lat": 42.356052000000005,
      "lon": -71.069849,
      "hour": 0,
      "startCounts": 3,
      "endCounts": 8,
      "Diff": -5
    },
    {
      "": 3,
      "station": "Beacon St at Massachusetts Ave",
      "lat": 42.350826806690954,
      "lon": -71.0898108780384,
      "hour": 0,
      "startCounts": 45,
      "endCounts": 16,
      "Diff": 29
    },
    {
      "": 4,
      "station": "MIT at Mass Ave / Amherst St",
      "lat": 42.3581,
      "lon": -71.093198,
      "hour": 0,
      "startCounts": 46,
      "endCounts": 50,
      "Diff": -4
    },
    {
      "": 5,
      "station": "Cambridge Dept. of Public Works -147 Hampshire St.",
      "lat": 42.37119727759414,
      "lon": -71.09759867191316,
      "hour": 0,
      "startCounts": 6,
      "endCounts": 6,
      "Diff": 0
    },
    {
      "": 6,
      "station": "Newbury St at Hereford St",
      "lat": 42.348717,
      "lon": -71.085954,
      "hour": 0,
      "startCounts": 16,
      "endCounts": 9,
      "Diff": 7
    },
    {
      "": 7,
      "station": "175 N Harvard St",
      "lat": 42.363796,
      "lon": -71.129164,
      "hour": 0,
      "startCounts": 5,
      "endCounts": 7,
      "Diff": -2
    },
    {
      "": 8,
      "station": "Northeastern University - North Parking Lot",
      "lat": 42.341814,
      "lon": -71.090179,
      "hour": 0,
      "startCounts": 10,
      "endCounts": 12,
      "Diff": -2
    },
    {
      "": 9,
      "station": "Central Square at Mass Ave / Essex St",
      "lat": 42.36507,
      "lon": -71.1031,
      "hour": 0,
      "startCounts": 23,
      "endCounts": 10,
      "Diff": 13
    },
    {
      "": 10,
      "station": "Lafayette Square at Mass Ave / Main St / Columbia St",
      "lat": 42.36346469304347,
      "lon": -71.10057324171065,
      "hour": 0,
      "startCounts": 14,
      "endCounts": 11,
      "Diff": 3
    },
    {
      "": 11,
      "station": "Beacon St at Washington / Kirkland",
      "lat": 42.37842,
      "lon": -71.10566800000001,
      "hour": 0,
      "startCounts": 6,
      "endCounts": 13,
      "Diff": -7
    },
    {
      "": 21,
      "station": "South Station - 700 Atlantic Ave",
      "lat": 42.352175,
      "lon": -71.055547,
      "hour": 0,
      "startCounts": 7,
      "endCounts": 4,
      "Diff": 3
    },
    {
      "": 20,
      "station": "Cambridge St at Joy St",
      "lat": 42.361199417496216,
      "lon": -71.06519486764228,
      "hour": 0,
      "startCounts": 5,
      "endCounts": 8,
      "Diff": -3
    },
    {
      "": 19,
      "station": "Kendall T",
      "lat": 42.362427842912396,
      "lon": -71.08495473861693,
      "hour": 0,
      "startCounts": 16,
      "endCounts": 3,
      "Diff": 13
    },
    {
      "": 12,
      "station": "Inman Square at Vellucci Plaza / Hampshire St",
      "lat": 42.374035,
      "lon": -71.101427,
      "hour": 0,
      "startCounts": 6,
      "endCounts": 18,
      "Diff": -12
    },
    {
      "": 14,
      "station": "Davis Square",
      "lat": 42.396969,
      "lon": -71.123024,
      "hour": 0,
      "startCounts": 7,
      "endCounts": 6,
      "Diff": 1
    },
    {
      "": 15,
      "station": "Yawkey Way at Boylston St.",
      "lat": 42.3446808403874,
      "lon": -71.09785348176956,
      "hour": 0,
      "startCounts": 11,
      "endCounts": 13,
      "Diff": -2
    },
    {
      "": 16,
      "station": "MIT Pacific St at Purrington St",
      "lat": 42.359573201090434,
      "lon": -71.10129475593567,
      "hour": 0,
      "startCounts": 24,
      "endCounts": 38,
      "Diff": -14
    },
    {
      "": 17,
      "station": "Brighton Mills - 370 Western Ave",
      "lat": 42.3615457081725,
      "lon": -71.13776206970216,
      "hour": 0,
      "startCounts": 1,
      "endCounts": 0,
      "Diff": 1
    },
    {
      "": 2,
      "station": "Prudential Center - Belvedere St",
      "lat": 42.345959,
      "lon": -71.082578,
      "hour": 0,
      "startCounts": 10,
      "endCounts": 6,
      "Diff": 4
    },
    {
      "": 1,
      "station": "University Park",
      "lat": 42.36264779118595,
      "lon": -71.1000609397888,
      "hour": 0,
      "startCounts": 17,
      "endCounts": 18,
      "Diff": -1
    },
    {
      "": 18,
      "station": "Landmark Center - Brookline Ave at Park Dr",
      "lat": 42.345194289440954,
      "lon": -71.1016970872879,
      "hour": 0,
      "startCounts": 11,
      "endCounts": 7,
      "Diff": 4
    },
    {
      "": 3251,
      "station": "HMS/HSPH - Avenue Louis Pasteur at Longwood Ave",
      "lat": 42.337417484597296,
      "lon": -71.10286116600038,
      "hour": 1,
      "startCounts": 1,
      "endCounts": 3,
      "Diff": -2
    },
    {
      "": 3044,
      "station": "Magoun Square at Trum Field",
      "lat": 42.398365000000005,
      "lon": -71.10781800000001,
      "hour": 1,
      "startCounts": 2,
      "endCounts": 2,
      "Diff": 0
    },
    {
      "": 3551,
      "station": "Boston Medical Center - E Concord St at Harrison Ave",
      "lat": 42.336437,
      "lon": -71.073089,
      "hour": 1,
      "startCounts": 3,
      "endCounts": 3,
      "Diff": 0
    },
    {
      "": 3043,
      "station": "South End Library - Tremont St at W Newton St",
      "lat": 42.341332,
      "lon": -71.076847,
      "hour": 1,
      "startCounts": 5,
      "endCounts": 4,
      "Diff": 1
    },
    {
      "": 3042,
      "station": "Harvard University Radcliffe Quadrangle at Shepard St / Garden St",
      "lat": 42.380287,
      "lon": -71.125107,
      "hour": 1,
      "startCounts": 5,
      "endCounts": 3,
      "Diff": 2
    },
    {
      "": 3041,
      "station": "Charles Circle - Charles St at Cambridge St",
      "lat": 42.36075761041193,
      "lon": -71.07132909824031,
      "hour": 1,
      "startCounts": 3,
      "endCounts": 3,
      "Diff": 0
    },
    {
      "": 3040,
      "station": "175 N Harvard St",
      "lat": 42.363796,
      "lon": -71.129164,
      "hour": 1,
      "startCounts": 2,
      "endCounts": 4,
      "Diff": -2
    },
    {
      "": 3039,
      "station": "Tremont St at E Berkeley St",
      "lat": 42.345392,
      "lon": -71.069616,
      "hour": 1,
      "startCounts": 10,
      "endCounts": 4,
      "Diff": 6
    },
    {
      "": 4083,
      "station": "Mt Auburn",
      "lat": 42.37478628706384,
      "lon": -71.13320231437683,
      "hour": 1,
      "startCounts": 0,
      "endCounts": 1,
      "Diff": -1
    },
    {
      "": 3038,
      "station": "Cambridge St - at Columbia St / Webster Ave",
      "lat": 42.372969,
      "lon": -71.094445,
      "hour": 1,
      "startCounts": 12,
      "endCounts": 8,
      "Diff": 4
    },
    {
      "": 4093,
      "station": "Roxbury YMCA - Warren St at MLK Blvd",
      "lat": 42.317873293456024,
      "lon": -71.08243077993394,
      "hour": 1,
      "startCounts": 0,
      "endCounts": 1,
      "Diff": -1
    },
    {
      "": 4095,
      "station": "Rowes Wharf at Atlantic Ave",
      "lat": 42.357143,
      "lon": -71.050699,
      "hour": 1,
      "startCounts": 0,
      "endCounts": 2,
      "Diff": -2
    },
    {
      "": 2790,
      "station": "Roxbury Crossing T Stop - Columbus Ave at Tremont St",
      "lat": 42.331184,
      "lon": -71.095171,
      "hour": 1,
      "startCounts": 2,
      "endCounts": 3,
      "Diff": -1
    },
    {
      "": 2791,
      "station": "Central Sq Post Office / Cambridge City Hall at Mass Ave / Pleasant St",
      "lat": 42.366426000000004,
      "lon": -71.10549499999999,
      "hour": 1,
      "startCounts": 8,
      "endCounts": 7,
      "Diff": 1
    },
    {
      "": 2792,
      "station": "Harvard Kennedy School at Bennett St / Eliot St",
      "lat": 42.371991654086756,
      "lon": -71.12226963043213,
      "hour": 1,
      "startCounts": 7,
      "endCounts": 0,
      "Diff": 7
    },
    {
      "": 2793,
      "station": "W Broadway at D St",
      "lat": 42.3391085,
      "lon": -71.05144320000001,
      "hour": 1,
      "startCounts": 1,
      "endCounts": 2,
      "Diff": -1
    },
    {
      "": 2794,
      "station": "Northeastern University - North Parking Lot",
      "lat": 42.341814,
      "lon": -71.090179,
      "hour": 1,
      "startCounts": 5,
      "endCounts": 8,
      "Diff": -3
    },
    {
      "": 2795,
      "station": "Copley Square - Dartmouth St at Boylston St",
      "lat": 42.34976701008725,
      "lon": -71.0773265361786,
      "hour": 1,
      "startCounts": 8,
      "endCounts": 5,
      "Diff": 3
    },
    {
      "": 3552,
      "station": "Purchase St at Pearl St",
      "lat": 42.354659000000005,
      "lon": -71.05318100000001,
      "hour": 1,
      "startCounts": 1,
      "endCounts": 0,
      "Diff": 1
    },
    {
      "": 3045,
      "station": "Post Office Square - Pearl St at Milk St",
      "lat": 42.356755,
      "lon": -71.05540699999999,
      "hour": 1,
      "startCounts": 1,
      "endCounts": 2,
      "Diff": -1
    },
    {
      "": 3046,
      "station": "Lechmere Station at Cambridge St / First St",
      "lat": 42.370677,
      "lon": -71.07652900000001,
      "hour": 1,
      "startCounts": 2,
      "endCounts": 3,
      "Diff": -1
    },
    {
      "": 3047,
      "station": "Beacon St at Washington / Kirkland",
      "lat": 42.37842,
      "lon": -71.10566800000001,
      "hour": 1,
      "startCounts": 2,
      "endCounts": 7,
      "Diff": -5
    },
    {
      "": 3054,
      "station": "MIT Stata Center at Vassar St / Main St",
      "lat": 42.3621312344991,
      "lon": -71.09115600585936,
      "hour": 1,
      "startCounts": 4,
      "endCounts": 4,
      "Diff": 0
    },
    {
      "": 3053,
      "station": "Watermark Seaport - Boston Wharf Rd at Seaport Blvd",
      "lat": 42.351586001198456,
      "lon": -71.04569256305693,
      "hour": 1,
      "startCounts": 2,
      "endCounts": 1,
      "Diff": 1
    },
    {
      "": 3979,
      "station": "Hyde Square - Barbara St at Centre St",
      "lat": 42.32176525723952,
      "lon": -71.10984160567114,
      "hour": 1,
      "startCounts": 0,
      "endCounts": 1,
      "Diff": -1
    },
    {
      "": 3052,
      "station": "Inman Square at Vellucci Plaza / Hampshire St",
      "lat": 42.374035,
      "lon": -71.101427,
      "hour": 1,
      "startCounts": 6,
      "endCounts": 10,
      "Diff": -4
    },
    {
      "": 3051,
      "station": "Porter Square Station",
      "lat": 42.387995000000004,
      "lon": -71.119084,
      "hour": 1,
      "startCounts": 6,
      "endCounts": 6,
      "Diff": 0
    },
    {
      "": 4007,
      "station": "Allston Green District - Griggs St at Commonwealth Ave",
      "lat": 42.34922469338298,
      "lon": -71.13275302578586,
      "hour": 1,
      "startCounts": 0,
      "endCounts": 3,
      "Diff": -3
    },
    {
      "": 4012,
      "station": "Kendall Street",
      "lat": 42.36356015842989,
      "lon": -71.08216792345047,
      "hour": 1,
      "startCounts": 0,
      "endCounts": 2,
      "Diff": -2
    },
    {
      "": 4013,
      "station": "Ryan Playground - Dorchester Ave at Harbor View St",
      "lat": 42.317642,
      "lon": -71.056664,
      "hour": 1,
      "startCounts": 0,
      "endCounts": 1,
      "Diff": -1
    },
    {
      "": 2796,
      "station": "Boylston St at Washington St",
      "lat": 42.352409,
      "lon": -71.062679,
      "hour": 1,
      "startCounts": 10,
      "endCounts": 9,
      "Diff": 1
    },
    {
      "": 4014,
      "station": "S Huntington Ave at Heath St",
      "lat": 42.327972700000004,
      "lon": -71.11089709999999,
      "hour": 1,
      "startCounts": 0,
      "endCounts": 1,
      "Diff": -1
    },
    {
      "": 4023,
      "station": "Congress St at Northern Ave",
      "lat": 42.3481,
      "lon": -71.03764,
      "hour": 1,
      "startCounts": 0,
      "endCounts": 2,
      "Diff": -2
    },
    {
      "": 4024,
      "station": "Lesley University",
      "lat": 42.38674802045056,
      "lon": -71.11901879310608,
      "hour": 1,
      "startCounts": 0,
      "endCounts": 3,
      "Diff": -3
    },
    {
      "": 3055,
      "station": "Verizon Innovation Hub 10 Ware Street",
      "lat": 42.37250864997261,
      "lon": -71.11305356025694,
      "hour": 1,
      "startCounts": 6,
      "endCounts": 2,
      "Diff": 4
    },
    {
      "": 4030,
      "station": "Savin Hill T Stop - S Sydney St at Bay St",
      "lat": 42.3106,
      "lon": -71.0539,
      "hour": 1,
      "startCounts": 0,
      "endCounts": 1,
      "Diff": -1
    },
    {
      "": 4031,
      "station": "Murphy Skating Rink - 1880 Day Blvd",
      "lat": 42.336448,
      "lon": -71.023739,
      "hour": 1,
      "startCounts": 0,
      "endCounts": 1,
      "Diff": -1
    },
    {
      "": 3050,
      "station": "Landmark Center - Brookline Ave at Park Dr",
      "lat": 42.345194289440954,
      "lon": -71.1016970872879,
      "hour": 1,
      "startCounts": 3,
      "endCounts": 2,
      "Diff": 1
    },
    {
      "": 3049,
      "station": "Edwards Playground - Main St at Eden St",
      "lat": 42.378965,
      "lon": -71.068607,
      "hour": 1,
      "startCounts": 1,
      "endCounts": 3,
      "Diff": -2
    },
    {
      "": 3048,
      "station": "Seaport Blvd at Sleeper St",
      "lat": 42.353178091862524,
      "lon": -71.04817356923377,
      "hour": 1,
      "startCounts": 4,
      "endCounts": 2,
      "Diff": 2
    },
    {
      "": 4022,
      "station": "JFK/UMass T Stop",
      "lat": 42.320339735157226,
      "lon": -71.05118036270143,
      "hour": 1,
      "startCounts": 0,
      "endCounts": 2,
      "Diff": -2
    },
    {
      "": 2797,
      "station": "Boylston St at Fairfield St",
      "lat": 42.348762,
      "lon": -71.082383,
      "hour": 1,
      "startCounts": 9,
      "endCounts": 4,
      "Diff": 5
    },
    {
      "": 2798,
      "station": "South Boston Library - 646 E Broadway",
      "lat": 42.335741,
      "lon": -71.03877,
      "hour": 1,
      "startCounts": 1,
      "endCounts": 5,
      "Diff": -4
    },
    {
      "": 2799,
      "station": "Linear Park - Mass. Ave. at Cameron Ave.",
      "lat": 42.397828000000004,
      "lon": -71.130516,
      "hour": 1,
      "startCounts": 2,
      "endCounts": 2,
      "Diff": 0
    },
    {
      "": 3481,
      "station": "Back Bay T Stop - Dartmouth St at Stuart St",
      "lat": 42.34807412317439,
      "lon": -71.07657015323639,
      "hour": 1,
      "startCounts": 2,
      "endCounts": 0,
      "Diff": 2
    },
    {
      "": 3455,
      "station": "Nashua Street at Red Auerbach Way",
      "lat": 42.365673,
      "lon": -71.064263,
      "hour": 1,
      "startCounts": 1,
      "endCounts": 6,
      "Diff": -5
    },
    {
      "": 3454,
      "station": "Lower Cambridgeport at Magazine St / Riverside Rd",
      "lat": 42.35721850317653,
      "lon": -71.1138716340065,
      "hour": 1,
      "startCounts": 1,
      "endCounts": 5,
      "Diff": -4
    },
    {
      "": 3453,
      "station": "Arch St at Franklin St",
      "lat": 42.35581929709065,
      "lon": -71.05887290099417,
      "hour": 1,
      "startCounts": 1,
      "endCounts": 0,
      "Diff": 1
    },
    {
      "": 3452,
      "station": "MLK Blvd at Washington St",
      "lat": 42.32143814183195,
      "lon": -71.09126061201096,
      "hour": 1,
      "startCounts": 1,
      "endCounts": 0,
      "Diff": 1
    },
    {
      "": 3451,
      "station": "Lewis Wharf at Atlantic Ave",
      "lat": 42.363871,
      "lon": -71.050877,
      "hour": 1,
      "startCounts": 2,
      "endCounts": 2,
      "Diff": 0
    },
    {
      "": 3450,
      "station": "Seaport Hotel - Congress St at Seaport Ln",
      "lat": 42.34881026188269,
      "lon": -71.04167744055303,
      "hour": 1,
      "startCounts": 2,
      "endCounts": 0,
      "Diff": 2
    },
    {
      "": 3449,
      "station": "Washington Square at Washington St. / Beacon St.",
      "lat": 42.339335,
      "lon": -71.13493000000001,
      "hour": 1,
      "startCounts": 2,
      "endCounts": 0,
      "Diff": 2
    },
    {
      "": 3036,
      "station": "One Broadway / Kendall Sq at Main St / 3rd St",
      "lat": 42.362613,
      "lon": -71.08410500000001,
      "hour": 1,
      "startCounts": 3,
      "endCounts": 2,
      "Diff": 1
    },
    {
      "": 3448,
      "station": "Congress St at Sleeper St",
      "lat": 42.351004495946704,
      "lon": -71.04930013418199,
      "hour": 1,
      "startCounts": 2,
      "endCounts": 3,
      "Diff": -1
    },
    {
      "": 3418,
      "station": "Surface Rd at India St",
      "lat": 42.358155,
      "lon": -71.05216300000001,
      "hour": 1,
      "startCounts": 1,
      "endCounts": 0,
      "Diff": 1
    },
    {
      "": 3417,
      "station": "Cambridge Dept. of Public Works -147 Hampshire St.",
      "lat": 42.37119727759414,
      "lon": -71.09759867191316,
      "hour": 1,
      "startCounts": 5,
      "endCounts": 5,
      "Diff": 0
    },
    {
      "": 3416,
      "station": "Seaport Square - Seaport Blvd at Northern Ave",
      "lat": 42.35148193460858,
      "lon": -71.04436084628105,
      "hour": 1,
      "startCounts": 1,
      "endCounts": 1,
      "Diff": 0
    },
    {
      "": 3415,
      "station": "JFK Crossing at Harvard St. / Thorndike St.",
      "lat": 42.346563,
      "lon": -71.128374,
      "hour": 1,
      "startCounts": 1,
      "endCounts": 1,
      "Diff": 0
    },
    {
      "": 3385,
      "station": "Brighton Mills - 370 Western Ave",
      "lat": 42.3615457081725,
      "lon": -71.13776206970216,
      "hour": 1,
      "startCounts": 2,
      "endCounts": 0,
      "Diff": 2
    },
    {
      "": 3254,
      "station": "Brigham Circle - Francis St at Huntington Ave",
      "lat": 42.33462893055976,
      "lon": -71.10407917767589,
      "hour": 1,
      "startCounts": 1,
      "endCounts": 3,
      "Diff": -2
    },
    {
      "": 3253,
      "station": "Main St at Austin St",
      "lat": 42.375603000000005,
      "lon": -71.06460799999999,
      "hour": 1,
      "startCounts": 2,
      "endCounts": 1,
      "Diff": 1
    },
    {
      "": 3252,
      "station": "Harvard University River Houses at DeWolfe St / Cowperthwaite St",
      "lat": 42.36919031768079,
      "lon": -71.11714124679565,
      "hour": 1,
      "startCounts": 1,
      "endCounts": 4,
      "Diff": -3
    },
    {
      "": 3447,
      "station": "Wilson Square",
      "lat": 42.385582,
      "lon": -71.113341,
      "hour": 1,
      "startCounts": 1,
      "endCounts": 0,
      "Diff": 1
    },
    {
      "": 3035,
      "station": "359 Broadway - Broadway at Fayette Street",
      "lat": 42.370803,
      "lon": -71.104412,
      "hour": 1,
      "startCounts": 2,
      "endCounts": 14,
      "Diff": -12
    },
    {
      "": 4141,
      "station": "Packard Ave / Powderhouse Blvd",
      "lat": 42.40449,
      "lon": -71.123413,
      "hour": 1,
      "startCounts": 0,
      "endCounts": 2,
      "Diff": -2
    },
    {
      "": 3037,
      "station": "MIT Vassar St",
      "lat": 42.35560121327927,
      "lon": -71.10394477844237,
      "hour": 1,
      "startCounts": 6,
      "endCounts": 16,
      "Diff": -10
    },
    {
      "": 2800,
      "station": "Lafayette Square at Mass Ave / Main St / Columbia St",
      "lat": 42.36346469304347,
      "lon": -71.10057324171065,
      "hour": 1,
      "startCounts": 17,
      "endCounts": 9,
      "Diff": 8
    },
    {
      "": 2801,
      "station": "Boston City Hall - 28 State St",
      "lat": 42.35892,
      "lon": -71.057629,
      "hour": 1,
      "startCounts": 3,
      "endCounts": 1,
      "Diff": 2
    },
    {
      "": 2802,
      "station": "Columbus Ave at Massachusetts Ave",
      "lat": 42.340542615516355,
      "lon": -71.08138847914233,
      "hour": 1,
      "startCounts": 4,
      "endCounts": 6,
      "Diff": -2
    },
    {
      "": 2803,
      "station": "Union Square - Somerville",
      "lat": 42.379637,
      "lon": -71.09531899999999,
      "hour": 1,
      "startCounts": 4,
      "endCounts": 4,
      "Diff": 0
    },
    {
      "": 2804,
      "station": "W Broadway at Dorchester St",
      "lat": 42.335693,
      "lon": -71.045859,
      "hour": 1,
      "startCounts": 1,
      "endCounts": 4,
      "Diff": -3
    },
    {
      "": 2805,
      "station": "Alewife Station at Russell Field",
      "lat": 42.396105,
      "lon": -71.139459,
      "hour": 1,
      "startCounts": 1,
      "endCounts": 1,
      "Diff": 0
    },
    {
      "": 2806,
      "station": "Tremont St at West St",
      "lat": 42.354979,
      "lon": -71.063348,
      "hour": 1,
      "startCounts": 7,
      "endCounts": 3,
      "Diff": 4
    },
    {
      "": 2807,
      "station": "Boston Convention and Exhibition Center - Summer St at West Side Dr",
      "lat": 42.347763454147454,
      "lon": -71.04535996913908,
      "hour": 1,
      "startCounts": 3,
      "endCounts": 0,
      "Diff": 3
    },
    {
      "": 4140,
      "station": "Washington St at Melnea Cass Blvd",
      "lat": 42.332817,
      "lon": -71.081198,
      "hour": 1,
      "startCounts": 0,
      "endCounts": 2,
      "Diff": -2
    },
    {
      "": 3950,
      "station": "Charles St and Beacon St",
      "lat": 42.356052000000005,
      "lon": -71.069849,
      "hour": 1,
      "startCounts": 0,
      "endCounts": 7,
      "Diff": -7
    },
    {
      "": 2810,
      "station": "Commonwealth Ave at Buick St",
      "lat": 42.35062177153799,
      "lon": -71.11288218766276,
      "hour": 1,
      "startCounts": 3,
      "endCounts": 1,
      "Diff": 2
    },
    {
      "": 2811,
      "station": "Cross St at Hanover St",
      "lat": 42.362811,
      "lon": -71.056067,
      "hour": 1,
      "startCounts": 7,
      "endCounts": 6,
      "Diff": 1
    },
    {
      "": 2812,
      "station": "Harvard University / SEAS Cruft-Pierce Halls at 29 Oxford St",
      "lat": 42.377945000000004,
      "lon": -71.116865,
      "hour": 1,
      "startCounts": 5,
      "endCounts": 5,
      "Diff": 0
    },
    {
      "": 2813,
      "station": "Aquarium T Stop - 200 Atlantic Ave",
      "lat": 42.35991176110118,
      "lon": -71.0514298081398,
      "hour": 1,
      "startCounts": 3,
      "endCounts": 2,
      "Diff": 1
    },
    {
      "": 2814,
      "station": "Curtis Hall - South St at Centre St",
      "lat": 42.309053999999996,
      "lon": -71.11543,
      "hour": 1,
      "startCounts": 1,
      "endCounts": 3,
      "Diff": -2
    },
    {
      "": 2815,
      "station": "Davis Square",
      "lat": 42.396969,
      "lon": -71.123024,
      "hour": 1,
      "startCounts": 5,
      "endCounts": 3,
      "Diff": 2
    },
    {
      "": 4102,
      "station": "Clarendon Hill at Broadway",
      "lat": 42.406302000000004,
      "lon": -71.132446,
      "hour": 1,
      "startCounts": 0,
      "endCounts": 1,
      "Diff": -1
    },
    {
      "": 4122,
      "station": "Colleges of the Fenway - Fenway at Avenue Louis Pasteur",
      "lat": 42.340115122492364,
      "lon": -71.10061883926393,
      "hour": 1,
      "startCounts": 0,
      "endCounts": 1,
      "Diff": -1
    },
    {
      "": 2809,
      "station": "MIT Pacific St at Purrington St",
      "lat": 42.359573201090434,
      "lon": -71.10129475593567,
      "hour": 1,
      "startCounts": 14,
      "endCounts": 26,
      "Diff": -12
    },
    {
      "": 2808,
      "station": "Harvard University Gund Hall at Quincy St / Kirkland S",
      "lat": 42.376369,
      "lon": -71.114025,
      "hour": 1,
      "startCounts": 4,
      "endCounts": 0,
      "Diff": 4
    },
    {
      "": 3056,
      "station": "Washington St at Rutland St",
      "lat": 42.338514601785995,
      "lon": -71.07404083013535,
      "hour": 1,
      "startCounts": 2,
      "endCounts": 5,
      "Diff": -3
    },
    {
      "": 3617,
      "station": "Cambridge Main Library at Broadway / Trowbridge St",
      "lat": 42.373379,
      "lon": -71.111075,
      "hour": 1,
      "startCounts": 7,
      "endCounts": 7,
      "Diff": 0
    },
    {
      "": 3588,
      "station": "Prudential Center - Belvedere St",
      "lat": 42.345959,
      "lon": -71.082578,
      "hour": 1,
      "startCounts": 4,
      "endCounts": 2,
      "Diff": 2
    },
    {
      "": 3587,
      "station": "One Memorial Drive",
      "lat": 42.36161932076685,
      "lon": -71.08043550520959,
      "hour": 1,
      "startCounts": 1,
      "endCounts": 1,
      "Diff": 0
    },
    {
      "": 3586,
      "station": "Newbury St at Hereford St",
      "lat": 42.348717,
      "lon": -71.085954,
      "hour": 1,
      "startCounts": 4,
      "endCounts": 10,
      "Diff": -6
    },
    {
      "": 3585,
      "station": "Fresh Pond Reservation",
      "lat": 42.38267827521855,
      "lon": -71.143478951426,
      "hour": 1,
      "startCounts": 1,
      "endCounts": 1,
      "Diff": 0
    },
    {
      "": 3873,
      "station": "Upham's Corner",
      "lat": 42.31750891943043,
      "lon": -71.06416625906604,
      "hour": 1,
      "startCounts": 0,
      "endCounts": 3,
      "Diff": -3
    },
    {
      "": 1939,
      "station": "B.U. Central - 725 Comm. Ave.",
      "lat": 42.350406,
      "lon": -71.10827900000001,
      "hour": 1,
      "startCounts": 11,
      "endCounts": 1,
      "Diff": 10
    },
    {
      "": 31,
      "station": "MIT at Mass Ave / Amherst St",
      "lat": 42.3581,
      "lon": -71.093198,
      "hour": 1,
      "startCounts": 31,
      "endCounts": 37,
      "Diff": -6
    },
    {
      "": 30,
      "station": "One Kendall Square at Hampshire St / Portland St",
      "lat": 42.366277000000004,
      "lon": -71.09169,
      "hour": 1,
      "startCounts": 12,
      "endCounts": 9,
      "Diff": 3
    },
    {
      "": 1937,
      "station": "Christian Science Plaza - Massachusetts Ave at Westland Ave",
      "lat": 42.3436658245146,
      "lon": -71.08582377433777,
      "hour": 1,
      "startCounts": 7,
      "endCounts": 7,
      "Diff": 0
    },
    {
      "": 29,
      "station": "Brian P. Murphy Staircase at Child Street",
      "lat": 42.3720597013741,
      "lon": -71.07202649116515,
      "hour": 1,
      "startCounts": 2,
      "endCounts": 1,
      "Diff": 1
    },
    {
      "": 28,
      "station": "Commonwealth Ave At Babcock St",
      "lat": 42.35154734791375,
      "lon": -71.12126246094705,
      "hour": 1,
      "startCounts": 3,
      "endCounts": 4,
      "Diff": -1
    },
    {
      "": 27,
      "station": "Packard's Corner - Commonwealth Ave at Brighton Ave",
      "lat": 42.352261,
      "lon": -71.12383100000001,
      "hour": 1,
      "startCounts": 3,
      "endCounts": 7,
      "Diff": -4
    },
    {
      "": 26,
      "station": "Harvard Square at Brattle St / Eliot St",
      "lat": 42.373231,
      "lon": -71.120886,
      "hour": 1,
      "startCounts": 4,
      "endCounts": 3,
      "Diff": 1
    },
    {
      "": 1936,
      "station": "Yawkey Way at Boylston St.",
      "lat": 42.3446808403874,
      "lon": -71.09785348176956,
      "hour": 1,
      "startCounts": 6,
      "endCounts": 4,
      "Diff": 2
    },
    {
      "": 25,
      "station": "Danehy Park",
      "lat": 42.388965999999996,
      "lon": -71.132788,
      "hour": 1,
      "startCounts": 1,
      "endCounts": 1,
      "Diff": 0
    },
    {
      "": 32,
      "station": "Ames St at Main St",
      "lat": 42.3625,
      "lon": -71.08821999999999,
      "hour": 1,
      "startCounts": 8,
      "endCounts": 7,
      "Diff": 1
    },
    {
      "": 33,
      "station": "Dana Park",
      "lat": 42.361780439606044,
      "lon": -71.10809952020645,
      "hour": 1,
      "startCounts": 3,
      "endCounts": 7,
      "Diff": -4
    },
    {
      "": 34,
      "station": "University Park",
      "lat": 42.36264779118595,
      "lon": -71.1000609397888,
      "hour": 1,
      "startCounts": 7,
      "endCounts": 5,
      "Diff": 2
    },
    {
      "": 3843,
      "station": "Alewife MBTA at Steel Place",
      "lat": 42.395588457167094,
      "lon": -71.14260613918304,
      "hour": 1,
      "startCounts": 0,
      "endCounts": 1,
      "Diff": -1
    },
    {
      "": 36,
      "station": "Union Square - Brighton Ave at Cambridge St",
      "lat": 42.353334000000004,
      "lon": -71.137313,
      "hour": 1,
      "startCounts": 4,
      "endCounts": 0,
      "Diff": 4
    },
    {
      "": 3751,
      "station": "Washington St at Waltham St",
      "lat": 42.341522,
      "lon": -71.068922,
      "hour": 1,
      "startCounts": 1,
      "endCounts": 3,
      "Diff": -2
    },
    {
      "": 3761,
      "station": "Broadway St at Mt Pleasant St",
      "lat": 42.38614141163957,
      "lon": -71.07828140258789,
      "hour": 1,
      "startCounts": 2,
      "endCounts": 3,
      "Diff": -1
    },
    {
      "": 3750,
      "station": "Wentworth Institute of Technology - Huntington Ave at Vancouver St",
      "lat": 42.33758601097239,
      "lon": -71.09627097845076,
      "hour": 1,
      "startCounts": 2,
      "endCounts": 2,
      "Diff": 0
    },
    {
      "": 3736,
      "station": "Park Dr at Buswell St",
      "lat": 42.347241,
      "lon": -71.105301,
      "hour": 1,
      "startCounts": 3,
      "endCounts": 8,
      "Diff": -5
    },
    {
      "": 3767,
      "station": "EF - North Point Park",
      "lat": 42.369885,
      "lon": -71.06995699999999,
      "hour": 1,
      "startCounts": 1,
      "endCounts": 0,
      "Diff": 1
    },
    {
      "": 3719,
      "station": "Sidney Research Campus/ Erie Street at Waverly",
      "lat": 42.35775309465199,
      "lon": -71.10393404960631,
      "hour": 1,
      "startCounts": 2,
      "endCounts": 2,
      "Diff": 0
    },
    {
      "": 24,
      "station": "Beacon St at Massachusetts Ave",
      "lat": 42.350826806690954,
      "lon": -71.0898108780384,
      "hour": 1,
      "startCounts": 31,
      "endCounts": 31,
      "Diff": 0
    },
    {
      "": 3718,
      "station": "CambridgeSide Galleria - CambridgeSide PL at Land Blvd",
      "lat": 42.366981,
      "lon": -71.076472,
      "hour": 1,
      "startCounts": 2,
      "endCounts": 7,
      "Diff": -5
    },
    {
      "": 3616,
      "station": "Boylston St at Arlington St",
      "lat": 42.352583438376996,
      "lon": -71.06766249993595,
      "hour": 1,
      "startCounts": 4,
      "endCounts": 1,
      "Diff": 3
    },
    {
      "": 35,
      "station": "Washington St at Lenox St",
      "lat": 42.3350989929096,
      "lon": -71.07903778553009,
      "hour": 1,
      "startCounts": 1,
      "endCounts": 2,
      "Diff": -1
    },
    {
      "": 3796,
      "station": "Boylston St at Dartmouth St",
      "lat": 42.350413,
      "lon": -71.07655,
      "hour": 1,
      "startCounts": 0,
      "endCounts": 2,
      "Diff": -2
    },
    {
      "": 3797,
      "station": "Rindge Avenue - O'Neill Library",
      "lat": 42.392765999999995,
      "lon": -71.129042,
      "hour": 1,
      "startCounts": 0,
      "endCounts": 10,
      "Diff": -10
    },
    {
      "": 3798,
      "station": "Powder House Circle - Nathan Tufts Park",
      "lat": 42.400877,
      "lon": -71.116772,
      "hour": 1,
      "startCounts": 0,
      "endCounts": 3,
      "Diff": -3
    },
    {
      "": 3799,
      "station": "Brighton Center - Washington St at Cambridge St",
      "lat": 42.34894857235593,
      "lon": -71.15027189254761,
      "hour": 1,
      "startCounts": 0,
      "endCounts": 1,
      "Diff": -1
    },
    {
      "": 3800,
      "station": "Conway Park - Somerville Avenue",
      "lat": 42.383404999999996,
      "lon": -71.10759300000001,
      "hour": 1,
      "startCounts": 0,
      "endCounts": 6,
      "Diff": -6
    },
    {
      "": 3773,
      "station": "Chinatown Gate Plaza",
      "lat": 42.351356,
      "lon": -71.05936700000001,
      "hour": 1,
      "startCounts": 1,
      "endCounts": 0,
      "Diff": 1
    },
    {
      "": 23,
      "station": "Harvard Law School at Mass Ave / Jarvis St",
      "lat": 42.379011,
      "lon": -71.119945,
      "hour": 1,
      "startCounts": 3,
      "endCounts": 5,
      "Diff": -2
    },
    {
      "": 1938,
      "station": "Silber Way",
      "lat": 42.349495995140025,
      "lon": -71.10057592391969,
      "hour": 1,
      "startCounts": 4,
      "endCounts": 13,
      "Diff": -9
    },
    {
      "": 2516,
      "station": "Longwood Ave at Binney St",
      "lat": 42.338629,
      "lon": -71.1065,
      "hour": 1,
      "startCounts": 4,
      "endCounts": 0,
      "Diff": 4
    },
    {
      "": 2515,
      "station": "Burlington Ave at Brookline Ave",
      "lat": 42.345733,
      "lon": -71.10069399999999,
      "hour": 1,
      "startCounts": 2,
      "endCounts": 1,
      "Diff": 1
    },
    {
      "": 2514,
      "station": "Boylston St at Massachusetts Ave",
      "lat": 42.347265,
      "lon": -71.088088,
      "hour": 1,
      "startCounts": 14,
      "endCounts": 11,
      "Diff": 3
    },
    {
      "": 3924,
      "station": "Teele Square at 239 Holland St",
      "lat": 42.402763,
      "lon": -71.126908,
      "hour": 1,
      "startCounts": 0,
      "endCounts": 1,
      "Diff": -1
    },
    {
      "": 2517,
      "station": "Harvard Square at Mass Ave/ Dunster",
      "lat": 42.373267999999996,
      "lon": -71.118579,
      "hour": 1,
      "startCounts": 11,
      "endCounts": 3,
      "Diff": 8
    },
    {
      "": 3641,
      "station": "Boylston St at Berkeley St",
      "lat": 42.351141982547496,
      "lon": -71.07329249382019,
      "hour": 1,
      "startCounts": 4,
      "endCounts": 0,
      "Diff": 4
    },
    {
      "": 2518,
      "station": "Harvard University Housing - 115 Putnam Ave at Peabody Terrace",
      "lat": 42.366621,
      "lon": -71.114214,
      "hour": 1,
      "startCounts": 7,
      "endCounts": 4,
      "Diff": 3
    },
    {
      "": 2521,
      "station": "South Station - 700 Atlantic Ave",
      "lat": 42.352175,
      "lon": -71.055547,
      "hour": 1,
      "startCounts": 11,
      "endCounts": 1,
      "Diff": 10
    },
    {
      "": 3639,
      "station": "Warren St at Chelsea St",
      "lat": 42.371848,
      "lon": -71.060292,
      "hour": 1,
      "startCounts": 2,
      "endCounts": 4,
      "Diff": -2
    },
    {
      "": 3640,
      "station": "NCAAA - Walnut Ave at Crawford St",
      "lat": 42.316902,
      "lon": -71.091946,
      "hour": 1,
      "startCounts": 1,
      "endCounts": 1,
      "Diff": 0
    },
    {
      "": 3922,
      "station": "Andrew T Stop - Dorchester Ave at Dexter St",
      "lat": 42.33047365041517,
      "lon": -71.05701684951781,
      "hour": 1,
      "startCounts": 0,
      "endCounts": 1,
      "Diff": -1
    },
    {
      "": 3921,
      "station": "Somerville City Hall",
      "lat": 42.386844,
      "lon": -71.09812,
      "hour": 1,
      "startCounts": 0,
      "endCounts": 6,
      "Diff": -6
    },
    {
      "": 3709,
      "station": "Beacon St at Arlington St",
      "lat": 42.355549323361345,
      "lon": -71.07284188270569,
      "hour": 1,
      "startCounts": 1,
      "endCounts": 3,
      "Diff": -2
    },
    {
      "": 3642,
      "station": "Jackson Square T Stop",
      "lat": 42.32293117195949,
      "lon": -71.10014140605927,
      "hour": 1,
      "startCounts": 2,
      "endCounts": 6,
      "Diff": -4
    },
    {
      "": 3920,
      "station": "Binney St / Sixth St",
      "lat": 42.366095,
      "lon": -71.086388,
      "hour": 1,
      "startCounts": 0,
      "endCounts": 4,
      "Diff": -4
    },
    {
      "": 3919,
      "station": "Soldiers Field Park - 111 Western Ave",
      "lat": 42.365064000000004,
      "lon": -71.119233,
      "hour": 1,
      "startCounts": 0,
      "endCounts": 5,
      "Diff": -5
    },
    {
      "": 2519,
      "station": "Kenmore Square",
      "lat": 42.348706,
      "lon": -71.097009,
      "hour": 1,
      "startCounts": 10,
      "endCounts": 2,
      "Diff": 8
    },
    {
      "": 3918,
      "station": "Washington St at Brock St",
      "lat": 42.348952846695106,
      "lon": -71.16031676530837,
      "hour": 1,
      "startCounts": 0,
      "endCounts": 1,
      "Diff": -1
    },
    {
      "": 3660,
      "station": "Coolidge Corner - Beacon St @ Centre St",
      "lat": 42.341598,
      "lon": -71.123338,
      "hour": 1,
      "startCounts": 1,
      "endCounts": 3,
      "Diff": -2
    },
    {
      "": 1931,
      "station": "Ruggles T Stop - Columbus Ave at Melnea Cass Blvd",
      "lat": 42.33624444796878,
      "lon": -71.08798563480376,
      "hour": 1,
      "startCounts": 9,
      "endCounts": 11,
      "Diff": -2
    },
    {
      "": 1932,
      "station": "Third at Binney",
      "lat": 42.365444861373994,
      "lon": -71.0827714204788,
      "hour": 1,
      "startCounts": 3,
      "endCounts": 3,
      "Diff": 0
    },
    {
      "": 1933,
      "station": "Kendall T",
      "lat": 42.362427842912396,
      "lon": -71.08495473861693,
      "hour": 1,
      "startCounts": 3,
      "endCounts": 5,
      "Diff": -2
    },
    {
      "": 3917,
      "station": "Huron Ave. At Vassal Lane",
      "lat": 42.381650612901176,
      "lon": -71.13426981498378,
      "hour": 1,
      "startCounts": 0,
      "endCounts": 1,
      "Diff": -1
    },
    {
      "": 1934,
      "station": "Central Square at Mass Ave / Essex St",
      "lat": 42.36507,
      "lon": -71.1031,
      "hour": 1,
      "startCounts": 15,
      "endCounts": 9,
      "Diff": 6
    },
    {
      "": 22,
      "station": "Stuart St at Charles St",
      "lat": 42.351146,
      "lon": -71.066289,
      "hour": 1,
      "startCounts": 17,
      "endCounts": 3,
      "Diff": 14
    },
    {
      "": 2520,
      "station": "Congress St at North St",
      "lat": 42.360613,
      "lon": -71.057452,
      "hour": 1,
      "startCounts": 7,
      "endCounts": 0,
      "Diff": 7
    },
    {
      "": 2522,
      "station": "Cambridge St at Joy St",
      "lat": 42.361199417496216,
      "lon": -71.06519486764228,
      "hour": 1,
      "startCounts": 6,
      "endCounts": 5,
      "Diff": 1
    },
    {
      "": 1935,
      "station": "New Balance - 20 Guest St",
      "lat": 42.357329218677066,
      "lon": -71.14673539996147,
      "hour": 1,
      "startCounts": 13,
      "endCounts": 1,
      "Diff": 12
    },
    {
      "": 40,
      "station": "Stuart St at Charles St",
      "lat": 42.351146,
      "lon": -71.066289,
      "hour": 2,
      "startCounts": 6,
      "endCounts": 0,
      "Diff": 6
    },
    {
      "": 39,
      "station": "Kendall T",
      "lat": 42.362427842912396,
      "lon": -71.08495473861693,
      "hour": 2,
      "startCounts": 6,
      "endCounts": 3,
      "Diff": 3
    },
    {
      "": 3738,
      "station": "Boston Medical Center - E Concord St at Harrison Ave",
      "lat": 42.336437,
      "lon": -71.073089,
      "hour": 2,
      "startCounts": 1,
      "endCounts": 1,
      "Diff": 0
    },
    {
      "": 3421,
      "station": "Kenmore Square",
      "lat": 42.348706,
      "lon": -71.097009,
      "hour": 2,
      "startCounts": 12,
      "endCounts": 6,
      "Diff": 6
    },
    {
      "": 3422,
      "station": "Washington St at Rutland St",
      "lat": 42.338514601785995,
      "lon": -71.07404083013535,
      "hour": 2,
      "startCounts": 1,
      "endCounts": 6,
      "Diff": -5
    },
    {
      "": 3423,
      "station": "Silber Way",
      "lat": 42.349495995140025,
      "lon": -71.10057592391969,
      "hour": 2,
      "startCounts": 4,
      "endCounts": 8,
      "Diff": -4
    },
    {
      "": 3737,
      "station": "Brian P. Murphy Staircase at Child Street",
      "lat": 42.3720597013741,
      "lon": -71.07202649116515,
      "hour": 2,
      "startCounts": 1,
      "endCounts": 1,
      "Diff": 0
    },
    {
      "": 38,
      "station": "Tremont St at E Berkeley St",
      "lat": 42.345392,
      "lon": -71.069616,
      "hour": 2,
      "startCounts": 2,
      "endCounts": 1,
      "Diff": 1
    },
    {
      "": 37,
      "station": "MIT Pacific St at Purrington St",
      "lat": 42.359573201090434,
      "lon": -71.10129475593567,
      "hour": 2,
      "startCounts": 12,
      "endCounts": 24,
      "Diff": -12
    },
    {
      "": 3643,
      "station": "Cambridge St at Joy St",
      "lat": 42.361199417496216,
      "lon": -71.06519486764228,
      "hour": 2,
      "startCounts": 1,
      "endCounts": 2,
      "Diff": -1
    },
    {
      "": 3644,
      "station": "Watermark Seaport - Boston Wharf Rd at Seaport Blvd",
      "lat": 42.351586001198456,
      "lon": -71.04569256305693,
      "hour": 2,
      "startCounts": 2,
      "endCounts": 1,
      "Diff": 1
    },
    {
      "": 3752,
      "station": "Lechmere Station at Cambridge St / First St",
      "lat": 42.370677,
      "lon": -71.07652900000001,
      "hour": 2,
      "startCounts": 1,
      "endCounts": 2,
      "Diff": -1
    },
    {
      "": 3753,
      "station": "Inman Square at Vellucci Plaza / Hampshire St",
      "lat": 42.374035,
      "lon": -71.101427,
      "hour": 2,
      "startCounts": 1,
      "endCounts": 4,
      "Diff": -3
    },
    {
      "": 3420,
      "station": "Coolidge Corner - Beacon St @ Centre St",
      "lat": 42.341598,
      "lon": -71.123338,
      "hour": 2,
      "startCounts": 1,
      "endCounts": 2,
      "Diff": -1
    },
    {
      "": 3680,
      "station": "Seaport Square - Seaport Blvd at Northern Ave",
      "lat": 42.35148193460858,
      "lon": -71.04436084628105,
      "hour": 2,
      "startCounts": 2,
      "endCounts": 0,
      "Diff": 2
    },
    {
      "": 3057,
      "station": "MIT Stata Center at Vassar St / Main St",
      "lat": 42.3621312344991,
      "lon": -71.09115600585936,
      "hour": 2,
      "startCounts": 4,
      "endCounts": 3,
      "Diff": 1
    },
    {
      "": 3389,
      "station": "Ames St at Main St",
      "lat": 42.3625,
      "lon": -71.08821999999999,
      "hour": 2,
      "startCounts": 10,
      "endCounts": 3,
      "Diff": 7
    },
    {
      "": 3157,
      "station": "Ink Block - Harrison Ave at Herald St",
      "lat": 42.345901,
      "lon": -71.063187,
      "hour": 2,
      "startCounts": 2,
      "endCounts": 0,
      "Diff": 2
    },
    {
      "": 3158,
      "station": "Verizon Innovation Hub 10 Ware Street",
      "lat": 42.37250864997261,
      "lon": -71.11305356025694,
      "hour": 2,
      "startCounts": 1,
      "endCounts": 1,
      "Diff": 0
    },
    {
      "": 3159,
      "station": "Harvard Square at Brattle St / Eliot St",
      "lat": 42.373231,
      "lon": -71.120886,
      "hour": 2,
      "startCounts": 2,
      "endCounts": 1,
      "Diff": 1
    },
    {
      "": 3711,
      "station": "South End Library - Tremont St at W Newton St",
      "lat": 42.341332,
      "lon": -71.076847,
      "hour": 2,
      "startCounts": 1,
      "endCounts": 2,
      "Diff": -1
    },
    {
      "": 3456,
      "station": "Purchase St at Pearl St",
      "lat": 42.354659000000005,
      "lon": -71.05318100000001,
      "hour": 2,
      "startCounts": 1,
      "endCounts": 0,
      "Diff": 1
    },
    {
      "": 3710,
      "station": "Boylston St at Berkeley St",
      "lat": 42.351141982547496,
      "lon": -71.07329249382019,
      "hour": 2,
      "startCounts": 1,
      "endCounts": 2,
      "Diff": -1
    },
    {
      "": 3698,
      "station": "Boston City Hall - 28 State St",
      "lat": 42.35892,
      "lon": -71.057629,
      "hour": 2,
      "startCounts": 4,
      "endCounts": 0,
      "Diff": 4
    },
    {
      "": 3697,
      "station": "Wilson Square",
      "lat": 42.385582,
      "lon": -71.113341,
      "hour": 2,
      "startCounts": 1,
      "endCounts": 2,
      "Diff": -1
    },
    {
      "": 3681,
      "station": "Chinatown Gate Plaza",
      "lat": 42.351356,
      "lon": -71.05936700000001,
      "hour": 2,
      "startCounts": 1,
      "endCounts": 3,
      "Diff": -2
    },
    {
      "": 3255,
      "station": "175 N Harvard St",
      "lat": 42.363796,
      "lon": -71.129164,
      "hour": 2,
      "startCounts": 2,
      "endCounts": 0,
      "Diff": 2
    },
    {
      "": 3301,
      "station": "Back Bay T Stop - Dartmouth St at Stuart St",
      "lat": 42.34807412317439,
      "lon": -71.07657015323639,
      "hour": 2,
      "startCounts": 3,
      "endCounts": 2,
      "Diff": 1
    },
    {
      "": 3696,
      "station": "Beacon St at Washington / Kirkland",
      "lat": 42.37842,
      "lon": -71.10566800000001,
      "hour": 2,
      "startCounts": 1,
      "endCounts": 0,
      "Diff": 1
    },
    {
      "": 3302,
      "station": "Dorchester Ave at Gillette Park",
      "lat": 42.34404051001636,
      "lon": -71.0573762655258,
      "hour": 2,
      "startCounts": 1,
      "endCounts": 0,
      "Diff": 1
    },
    {
      "": 3339,
      "station": "Washington St at Waltham St",
      "lat": 42.341522,
      "lon": -71.068922,
      "hour": 2,
      "startCounts": 1,
      "endCounts": 1,
      "Diff": 0
    },
    {
      "": 41,
      "station": "Christian Science Plaza - Massachusetts Ave at Westland Ave",
      "lat": 42.3436658245146,
      "lon": -71.08582377433777,
      "hour": 2,
      "startCounts": 16,
      "endCounts": 3,
      "Diff": 13
    },
    {
      "": 3386,
      "station": "Lafayette Square at Mass Ave / Main St / Columbia St",
      "lat": 42.36346469304347,
      "lon": -71.10057324171065,
      "hour": 2,
      "startCounts": 6,
      "endCounts": 6,
      "Diff": 0
    },
    {
      "": 3387,
      "station": "University Park",
      "lat": 42.36264779118595,
      "lon": -71.1000609397888,
      "hour": 2,
      "startCounts": 1,
      "endCounts": 4,
      "Diff": -3
    },
    {
      "": 3388,
      "station": "CambridgeSide Galleria - CambridgeSide PL at Land Blvd",
      "lat": 42.366981,
      "lon": -71.076472,
      "hour": 2,
      "startCounts": 5,
      "endCounts": 3,
      "Diff": 2
    },
    {
      "": 3256,
      "station": "Prudential Center - Belvedere St",
      "lat": 42.345959,
      "lon": -71.082578,
      "hour": 2,
      "startCounts": 2,
      "endCounts": 1,
      "Diff": 1
    },
    {
      "": 3457,
      "station": "Charles St and Beacon St",
      "lat": 42.356052000000005,
      "lon": -71.069849,
      "hour": 2,
      "startCounts": 7,
      "endCounts": 3,
      "Diff": 4
    },
    {
      "": 3927,
      "station": "Ryan Playground - Dorchester Ave at Harbor View St",
      "lat": 42.317642,
      "lon": -71.056664,
      "hour": 2,
      "startCounts": 0,
      "endCounts": 1,
      "Diff": -1
    },
    {
      "": 3754,
      "station": "W Broadway at Dorchester St",
      "lat": 42.335693,
      "lon": -71.045859,
      "hour": 2,
      "startCounts": 1,
      "endCounts": 0,
      "Diff": 1
    },
    {
      "": 4074,
      "station": "Davis Square",
      "lat": 42.396969,
      "lon": -71.123024,
      "hour": 2,
      "startCounts": 0,
      "endCounts": 2,
      "Diff": -2
    },
    {
      "": 3897,
      "station": "JFK Crossing at Harvard St. / Thorndike St.",
      "lat": 42.346563,
      "lon": -71.128374,
      "hour": 2,
      "startCounts": 0,
      "endCounts": 3,
      "Diff": -3
    },
    {
      "": 4062,
      "station": "Lesley University",
      "lat": 42.38674802045056,
      "lon": -71.11901879310608,
      "hour": 2,
      "startCounts": 0,
      "endCounts": 1,
      "Diff": -1
    },
    {
      "": 3898,
      "station": "Green Street T Stop - Green St at Amory St",
      "lat": 42.310579,
      "lon": -71.107341,
      "hour": 2,
      "startCounts": 0,
      "endCounts": 2,
      "Diff": -2
    },
    {
      "": 3899,
      "station": "Broadway St at Mt Pleasant St",
      "lat": 42.38614141163957,
      "lon": -71.07828140258789,
      "hour": 2,
      "startCounts": 0,
      "endCounts": 4,
      "Diff": -4
    },
    {
      "": 4046,
      "station": "Rindge Avenue - O'Neill Library",
      "lat": 42.392765999999995,
      "lon": -71.129042,
      "hour": 2,
      "startCounts": 0,
      "endCounts": 9,
      "Diff": -9
    },
    {
      "": 3553,
      "station": "Tremont St at West St",
      "lat": 42.354979,
      "lon": -71.063348,
      "hour": 2,
      "startCounts": 4,
      "endCounts": 1,
      "Diff": 3
    },
    {
      "": 4035,
      "station": "S Huntington Ave at Heath St",
      "lat": 42.327972700000004,
      "lon": -71.11089709999999,
      "hour": 2,
      "startCounts": 0,
      "endCounts": 1,
      "Diff": -1
    },
    {
      "": 4034,
      "station": "W Broadway at D St",
      "lat": 42.3391085,
      "lon": -71.05144320000001,
      "hour": 2,
      "startCounts": 0,
      "endCounts": 1,
      "Diff": -1
    },
    {
      "": 4033,
      "station": "Arch St at Franklin St",
      "lat": 42.35581929709065,
      "lon": -71.05887290099417,
      "hour": 2,
      "startCounts": 0,
      "endCounts": 1,
      "Diff": -1
    },
    {
      "": 4032,
      "station": "Cambridge Main Library at Broadway / Trowbridge St",
      "lat": 42.373379,
      "lon": -71.111075,
      "hour": 2,
      "startCounts": 0,
      "endCounts": 2,
      "Diff": -2
    },
    {
      "": 4027,
      "station": "Lewis Wharf at Atlantic Ave",
      "lat": 42.363871,
      "lon": -71.050877,
      "hour": 2,
      "startCounts": 0,
      "endCounts": 2,
      "Diff": -2
    },
    {
      "": 4026,
      "station": "Washington St at Lenox St",
      "lat": 42.3350989929096,
      "lon": -71.07903778553009,
      "hour": 2,
      "startCounts": 0,
      "endCounts": 1,
      "Diff": -1
    },
    {
      "": 3923,
      "station": "JFK/UMass T Stop",
      "lat": 42.320339735157226,
      "lon": -71.05118036270143,
      "hour": 2,
      "startCounts": 0,
      "endCounts": 5,
      "Diff": -5
    },
    {
      "": 3554,
      "station": "Surface Rd at India St",
      "lat": 42.358155,
      "lon": -71.05216300000001,
      "hour": 2,
      "startCounts": 1,
      "endCounts": 0,
      "Diff": 1
    },
    {
      "": 3555,
      "station": "Newbury St at Hereford St",
      "lat": 42.348717,
      "lon": -71.085954,
      "hour": 2,
      "startCounts": 1,
      "endCounts": 4,
      "Diff": -3
    },
    {
      "": 3991,
      "station": "Congress St at Northern Ave",
      "lat": 42.3481,
      "lon": -71.03764,
      "hour": 2,
      "startCounts": 0,
      "endCounts": 2,
      "Diff": -2
    },
    {
      "": 3980,
      "station": "Soldiers Field Park - 111 Western Ave",
      "lat": 42.365064000000004,
      "lon": -71.119233,
      "hour": 2,
      "startCounts": 0,
      "endCounts": 5,
      "Diff": -5
    },
    {
      "": 3952,
      "station": "Washington St at Brock St",
      "lat": 42.348952846695106,
      "lon": -71.16031676530837,
      "hour": 2,
      "startCounts": 0,
      "endCounts": 1,
      "Diff": -1
    },
    {
      "": 3951,
      "station": "Park Dr at Buswell St",
      "lat": 42.347241,
      "lon": -71.105301,
      "hour": 2,
      "startCounts": 0,
      "endCounts": 3,
      "Diff": -3
    },
    {
      "": 3925,
      "station": "Andrew T Stop - Dorchester Ave at Dexter St",
      "lat": 42.33047365041517,
      "lon": -71.05701684951781,
      "hour": 2,
      "startCounts": 0,
      "endCounts": 2,
      "Diff": -2
    },
    {
      "": 3932,
      "station": "Porter Square Station",
      "lat": 42.387995000000004,
      "lon": -71.119084,
      "hour": 2,
      "startCounts": 0,
      "endCounts": 4,
      "Diff": -4
    },
    {
      "": 3931,
      "station": "Cambridge Dept. of Public Works -147 Hampshire St.",
      "lat": 42.37119727759414,
      "lon": -71.09759867191316,
      "hour": 2,
      "startCounts": 0,
      "endCounts": 4,
      "Diff": -4
    },
    {
      "": 3930,
      "station": "359 Broadway - Broadway at Fayette Street",
      "lat": 42.370803,
      "lon": -71.104412,
      "hour": 2,
      "startCounts": 0,
      "endCounts": 3,
      "Diff": -3
    },
    {
      "": 3928,
      "station": "Harvard University / SEAS Cruft-Pierce Halls at 29 Oxford St",
      "lat": 42.377945000000004,
      "lon": -71.116865,
      "hour": 2,
      "startCounts": 0,
      "endCounts": 2,
      "Diff": -2
    },
    {
      "": 4084,
      "station": "Congress St at Sleeper St",
      "lat": 42.351004495946704,
      "lon": -71.04930013418199,
      "hour": 2,
      "startCounts": 0,
      "endCounts": 1,
      "Diff": -1
    },
    {
      "": 4085,
      "station": "Nashua Street at Red Auerbach Way",
      "lat": 42.365673,
      "lon": -71.064263,
      "hour": 2,
      "startCounts": 0,
      "endCounts": 2,
      "Diff": -2
    },
    {
      "": 4094,
      "station": "Teele Square at 239 Holland St",
      "lat": 42.402763,
      "lon": -71.126908,
      "hour": 2,
      "startCounts": 0,
      "endCounts": 1,
      "Diff": -1
    },
    {
      "": 3589,
      "station": "Union Square - Somerville",
      "lat": 42.379637,
      "lon": -71.09531899999999,
      "hour": 2,
      "startCounts": 3,
      "endCounts": 3,
      "Diff": 0
    },
    {
      "": 3503,
      "station": "New Balance - 20 Guest St",
      "lat": 42.357329218677066,
      "lon": -71.14673539996147,
      "hour": 2,
      "startCounts": 4,
      "endCounts": 0,
      "Diff": 4
    },
    {
      "": 3531,
      "station": "Harvard Kennedy School at Bennett St / Eliot St",
      "lat": 42.371991654086756,
      "lon": -71.12226963043213,
      "hour": 2,
      "startCounts": 3,
      "endCounts": 2,
      "Diff": 1
    },
    {
      "": 4142,
      "station": "The Lawn on D",
      "lat": 42.344792,
      "lon": -71.044024,
      "hour": 2,
      "startCounts": 0,
      "endCounts": 1,
      "Diff": -1
    },
    {
      "": 3620,
      "station": "Somerville City Hall",
      "lat": 42.386844,
      "lon": -71.09812,
      "hour": 2,
      "startCounts": 1,
      "endCounts": 1,
      "Diff": 0
    },
    {
      "": 4136,
      "station": "South Boston Library - 646 E Broadway",
      "lat": 42.335741,
      "lon": -71.03877,
      "hour": 2,
      "startCounts": 0,
      "endCounts": 1,
      "Diff": -1
    },
    {
      "": 4135,
      "station": "Magoun Square at Trum Field",
      "lat": 42.398365000000005,
      "lon": -71.10781800000001,
      "hour": 2,
      "startCounts": 0,
      "endCounts": 1,
      "Diff": -1
    },
    {
      "": 4134,
      "station": "Boylston St at Dartmouth St",
      "lat": 42.350413,
      "lon": -71.07655,
      "hour": 2,
      "startCounts": 0,
      "endCounts": 1,
      "Diff": -1
    },
    {
      "": 3619,
      "station": "One Memorial Drive",
      "lat": 42.36161932076685,
      "lon": -71.08043550520959,
      "hour": 2,
      "startCounts": 1,
      "endCounts": 1,
      "Diff": 0
    },
    {
      "": 4131,
      "station": "Copley Square - Dartmouth St at Boylston St",
      "lat": 42.34976701008725,
      "lon": -71.0773265361786,
      "hour": 2,
      "startCounts": 0,
      "endCounts": 2,
      "Diff": -2
    },
    {
      "": 4123,
      "station": "Powder House Circle - Nathan Tufts Park",
      "lat": 42.400877,
      "lon": -71.116772,
      "hour": 2,
      "startCounts": 0,
      "endCounts": 1,
      "Diff": -1
    },
    {
      "": 3618,
      "station": "Harvard University Gund Hall at Quincy St / Kirkland S",
      "lat": 42.376369,
      "lon": -71.114025,
      "hour": 2,
      "startCounts": 1,
      "endCounts": 0,
      "Diff": 1
    },
    {
      "": 4119,
      "station": "Edwards Playground - Main St at Eden St",
      "lat": 42.378965,
      "lon": -71.068607,
      "hour": 2,
      "startCounts": 0,
      "endCounts": 1,
      "Diff": -1
    },
    {
      "": 3458,
      "station": "Commonwealth Ave at Buick St",
      "lat": 42.35062177153799,
      "lon": -71.11288218766276,
      "hour": 2,
      "startCounts": 4,
      "endCounts": 2,
      "Diff": 2
    },
    {
      "": 4116,
      "station": "Sidney Research Campus/ Erie Street at Waverly",
      "lat": 42.35775309465199,
      "lon": -71.10393404960631,
      "hour": 2,
      "startCounts": 0,
      "endCounts": 2,
      "Diff": -2
    },
    {
      "": 4103,
      "station": "Allston Green District - Griggs St at Commonwealth Ave",
      "lat": 42.34922469338298,
      "lon": -71.13275302578586,
      "hour": 2,
      "startCounts": 0,
      "endCounts": 1,
      "Diff": -1
    },
    {
      "": 4097,
      "station": "Harvard University Housing - 115 Putnam Ave at Peabody Terrace",
      "lat": 42.366621,
      "lon": -71.114214,
      "hour": 2,
      "startCounts": 0,
      "endCounts": 1,
      "Diff": -1
    },
    {
      "": 4096,
      "station": "Kendall Street",
      "lat": 42.36356015842989,
      "lon": -71.08216792345047,
      "hour": 2,
      "startCounts": 0,
      "endCounts": 3,
      "Diff": -3
    },
    {
      "": 3926,
      "station": "Roxbury YMCA - Warren St at MLK Blvd",
      "lat": 42.317873293456024,
      "lon": -71.08243077993394,
      "hour": 2,
      "startCounts": 0,
      "endCounts": 2,
      "Diff": -2
    },
    {
      "": 3774,
      "station": "Washington Square at Washington St. / Beacon St.",
      "lat": 42.339335,
      "lon": -71.13493000000001,
      "hour": 2,
      "startCounts": 1,
      "endCounts": 0,
      "Diff": 1
    },
    {
      "": 3784,
      "station": "B.U. Central - 725 Comm. Ave.",
      "lat": 42.350406,
      "lon": -71.10827900000001,
      "hour": 2,
      "startCounts": 1,
      "endCounts": 2,
      "Diff": -1
    },
    {
      "": 3801,
      "station": "Hyde Square - Barbara St at Centre St",
      "lat": 42.32176525723952,
      "lon": -71.10984160567114,
      "hour": 2,
      "startCounts": 0,
      "endCounts": 1,
      "Diff": -1
    },
    {
      "": 3802,
      "station": "Dana Park",
      "lat": 42.361780439606044,
      "lon": -71.10809952020645,
      "hour": 2,
      "startCounts": 0,
      "endCounts": 9,
      "Diff": -9
    },
    {
      "": 3803,
      "station": "Upham's Corner",
      "lat": 42.31750891943043,
      "lon": -71.06416625906604,
      "hour": 2,
      "startCounts": 0,
      "endCounts": 3,
      "Diff": -3
    },
    {
      "": 3804,
      "station": "HMS/HSPH - Avenue Louis Pasteur at Longwood Ave",
      "lat": 42.337417484597296,
      "lon": -71.10286116600038,
      "hour": 2,
      "startCounts": 0,
      "endCounts": 16,
      "Diff": -16
    },
    {
      "": 3858,
      "station": "Columbus Ave at Massachusetts Ave",
      "lat": 42.340542615516355,
      "lon": -71.08138847914233,
      "hour": 2,
      "startCounts": 0,
      "endCounts": 6,
      "Diff": -6
    },
    {
      "": 3859,
      "station": "Brighton Center - Washington St at Cambridge St",
      "lat": 42.34894857235593,
      "lon": -71.15027189254761,
      "hour": 2,
      "startCounts": 0,
      "endCounts": 7,
      "Diff": -7
    },
    {
      "": 4115,
      "station": "Lower Cambridgeport at Magazine St / Riverside Rd",
      "lat": 42.35721850317653,
      "lon": -71.1138716340065,
      "hour": 2,
      "startCounts": 0,
      "endCounts": 2,
      "Diff": -2
    },
    {
      "": 3419,
      "station": "Beacon St at Arlington St",
      "lat": 42.355549323361345,
      "lon": -71.07284188270569,
      "hour": 2,
      "startCounts": 3,
      "endCounts": 1,
      "Diff": 2
    },
    {
      "": 3645,
      "station": "Boylston St at Fairfield St",
      "lat": 42.348762,
      "lon": -71.082383,
      "hour": 2,
      "startCounts": 2,
      "endCounts": 2,
      "Diff": 0
    },
    {
      "": 2526,
      "station": "EF - North Point Park",
      "lat": 42.369885,
      "lon": -71.06995699999999,
      "hour": 2,
      "startCounts": 2,
      "endCounts": 0,
      "Diff": 2
    },
    {
      "": 2525,
      "station": "Roxbury Crossing T Stop - Columbus Ave at Tremont St",
      "lat": 42.331184,
      "lon": -71.095171,
      "hour": 2,
      "startCounts": 4,
      "endCounts": 2,
      "Diff": 2
    },
    {
      "": 2817,
      "station": "Boylston St at Massachusetts Ave",
      "lat": 42.347265,
      "lon": -71.088088,
      "hour": 2,
      "startCounts": 9,
      "endCounts": 1,
      "Diff": 8
    },
    {
      "": 2832,
      "station": "Landmark Center - Brookline Ave at Park Dr",
      "lat": 42.345194289440954,
      "lon": -71.1016970872879,
      "hour": 2,
      "startCounts": 2,
      "endCounts": 6,
      "Diff": -4
    },
    {
      "": 2527,
      "station": "Central Square at Mass Ave / Essex St",
      "lat": 42.36507,
      "lon": -71.1031,
      "hour": 2,
      "startCounts": 8,
      "endCounts": 6,
      "Diff": 2
    },
    {
      "": 2528,
      "station": "Beacon St at Massachusetts Ave",
      "lat": 42.350826806690954,
      "lon": -71.0898108780384,
      "hour": 2,
      "startCounts": 27,
      "endCounts": 6,
      "Diff": 21
    },
    {
      "": 2529,
      "station": "South Station - 700 Atlantic Ave",
      "lat": 42.352175,
      "lon": -71.055547,
      "hour": 2,
      "startCounts": 4,
      "endCounts": 2,
      "Diff": 2
    },
    {
      "": 2831,
      "station": "Rowes Wharf at Atlantic Ave",
      "lat": 42.357143,
      "lon": -71.050699,
      "hour": 2,
      "startCounts": 3,
      "endCounts": 0,
      "Diff": 3
    },
    {
      "": 2830,
      "station": "Wentworth Institute of Technology - Huntington Ave at Vancouver St",
      "lat": 42.33758601097239,
      "lon": -71.09627097845076,
      "hour": 2,
      "startCounts": 5,
      "endCounts": 0,
      "Diff": 5
    },
    {
      "": 2530,
      "station": "Commonwealth Ave At Babcock St",
      "lat": 42.35154734791375,
      "lon": -71.12126246094705,
      "hour": 2,
      "startCounts": 2,
      "endCounts": 2,
      "Diff": 0
    },
    {
      "": 2531,
      "station": "Longwood Ave at Binney St",
      "lat": 42.338629,
      "lon": -71.1065,
      "hour": 2,
      "startCounts": 2,
      "endCounts": 2,
      "Diff": 0
    },
    {
      "": 2532,
      "station": "Harvard Square at Mass Ave/ Dunster",
      "lat": 42.373267999999996,
      "lon": -71.118579,
      "hour": 2,
      "startCounts": 4,
      "endCounts": 2,
      "Diff": 2
    },
    {
      "": 2829,
      "station": "MIT Vassar St",
      "lat": 42.35560121327927,
      "lon": -71.10394477844237,
      "hour": 2,
      "startCounts": 8,
      "endCounts": 8,
      "Diff": 0
    },
    {
      "": 2828,
      "station": "Harvard Law School at Mass Ave / Jarvis St",
      "lat": 42.379011,
      "lon": -71.119945,
      "hour": 2,
      "startCounts": 4,
      "endCounts": 0,
      "Diff": 4
    },
    {
      "": 2827,
      "station": "Boylston St at Washington St",
      "lat": 42.352409,
      "lon": -71.062679,
      "hour": 2,
      "startCounts": 3,
      "endCounts": 1,
      "Diff": 2
    },
    {
      "": 2826,
      "station": "Congress St at North St",
      "lat": 42.360613,
      "lon": -71.057452,
      "hour": 2,
      "startCounts": 1,
      "endCounts": 1,
      "Diff": 0
    },
    {
      "": 2825,
      "station": "Yawkey Way at Boylston St.",
      "lat": 42.3446808403874,
      "lon": -71.09785348176956,
      "hour": 2,
      "startCounts": 3,
      "endCounts": 4,
      "Diff": -1
    },
    {
      "": 2824,
      "station": "Boylston St at Arlington St",
      "lat": 42.352583438376996,
      "lon": -71.06766249993595,
      "hour": 2,
      "startCounts": 4,
      "endCounts": 1,
      "Diff": 3
    },
    {
      "": 2823,
      "station": "Union Square - Brighton Ave at Cambridge St",
      "lat": 42.353334000000004,
      "lon": -71.137313,
      "hour": 2,
      "startCounts": 2,
      "endCounts": 4,
      "Diff": -2
    },
    {
      "": 2822,
      "station": "Central Sq Post Office / Cambridge City Hall at Mass Ave / Pleasant St",
      "lat": 42.366426000000004,
      "lon": -71.10549499999999,
      "hour": 2,
      "startCounts": 4,
      "endCounts": 2,
      "Diff": 2
    },
    {
      "": 2821,
      "station": "Harvard University Radcliffe Quadrangle at Shepard St / Garden St",
      "lat": 42.380287,
      "lon": -71.125107,
      "hour": 2,
      "startCounts": 1,
      "endCounts": 2,
      "Diff": -1
    },
    {
      "": 2820,
      "station": "Troy Boston",
      "lat": 42.343749,
      "lon": -71.062256,
      "hour": 2,
      "startCounts": 2,
      "endCounts": 1,
      "Diff": 1
    },
    {
      "": 2819,
      "station": "Ruggles T Stop - Columbus Ave at Melnea Cass Blvd",
      "lat": 42.33624444796878,
      "lon": -71.08798563480376,
      "hour": 2,
      "startCounts": 4,
      "endCounts": 6,
      "Diff": -2
    },
    {
      "": 2818,
      "station": "Cambridge St - at Columbia St / Webster Ave",
      "lat": 42.372969,
      "lon": -71.094445,
      "hour": 2,
      "startCounts": 4,
      "endCounts": 4,
      "Diff": 0
    },
    {
      "": 2524,
      "station": "Third at Binney",
      "lat": 42.365444861373994,
      "lon": -71.0827714204788,
      "hour": 2,
      "startCounts": 4,
      "endCounts": 1,
      "Diff": 3
    },
    {
      "": 2523,
      "station": "Northeastern University - North Parking Lot",
      "lat": 42.341814,
      "lon": -71.090179,
      "hour": 2,
      "startCounts": 7,
      "endCounts": 4,
      "Diff": 3
    },
    {
      "": 2816,
      "station": "Charles Circle - Charles St at Cambridge St",
      "lat": 42.36075761041193,
      "lon": -71.07132909824031,
      "hour": 2,
      "startCounts": 2,
      "endCounts": 2,
      "Diff": 0
    },
    {
      "": 2833,
      "station": "Cross St at Hanover St",
      "lat": 42.362811,
      "lon": -71.056067,
      "hour": 2,
      "startCounts": 4,
      "endCounts": 2,
      "Diff": 2
    },
    {
      "": 1941,
      "station": "Packard's Corner - Commonwealth Ave at Brighton Ave",
      "lat": 42.352261,
      "lon": -71.12383100000001,
      "hour": 2,
      "startCounts": 8,
      "endCounts": 3,
      "Diff": 5
    },
    {
      "": 1942,
      "station": "One Kendall Square at Hampshire St / Portland St",
      "lat": 42.366277000000004,
      "lon": -71.09169,
      "hour": 2,
      "startCounts": 6,
      "endCounts": 6,
      "Diff": 0
    },
    {
      "": 1943,
      "station": "MIT at Mass Ave / Amherst St",
      "lat": 42.3581,
      "lon": -71.093198,
      "hour": 2,
      "startCounts": 16,
      "endCounts": 27,
      "Diff": -11
    },
    {
      "": 1940,
      "station": "Brigham Circle - Francis St at Huntington Ave",
      "lat": 42.33462893055976,
      "lon": -71.10407917767589,
      "hour": 2,
      "startCounts": 4,
      "endCounts": 2,
      "Diff": 2
    },
    {
      "": 3505,
      "station": "Boston City Hall - 28 State St",
      "lat": 42.35892,
      "lon": -71.057629,
      "hour": 3,
      "startCounts": 3,
      "endCounts": 0,
      "Diff": 3
    },
    {
      "": 4098,
      "station": "Harvard Law School at Mass Ave / Jarvis St",
      "lat": 42.379011,
      "lon": -71.119945,
      "hour": 3,
      "startCounts": 0,
      "endCounts": 1,
      "Diff": -1
    },
    {
      "": 4099,
      "station": "Rowes Wharf at Atlantic Ave",
      "lat": 42.357143,
      "lon": -71.050699,
      "hour": 3,
      "startCounts": 0,
      "endCounts": 1,
      "Diff": -1
    },
    {
      "": 2842,
      "station": "Central Sq Post Office / Cambridge City Hall at Mass Ave / Pleasant St",
      "lat": 42.366426000000004,
      "lon": -71.10549499999999,
      "hour": 3,
      "startCounts": 1,
      "endCounts": 0,
      "Diff": 1
    },
    {
      "": 2841,
      "station": "Washington St at Waltham St",
      "lat": 42.341522,
      "lon": -71.068922,
      "hour": 3,
      "startCounts": 3,
      "endCounts": 2,
      "Diff": 1
    },
    {
      "": 4104,
      "station": "Harvard University / SEAS Cruft-Pierce Halls at 29 Oxford St",
      "lat": 42.377945000000004,
      "lon": -71.116865,
      "hour": 3,
      "startCounts": 0,
      "endCounts": 1,
      "Diff": -1
    },
    {
      "": 2840,
      "station": "Cross St at Hanover St",
      "lat": 42.362811,
      "lon": -71.056067,
      "hour": 3,
      "startCounts": 1,
      "endCounts": 2,
      "Diff": -1
    },
    {
      "": 2839,
      "station": "Commonwealth Ave At Babcock St",
      "lat": 42.35154734791375,
      "lon": -71.12126246094705,
      "hour": 3,
      "startCounts": 2,
      "endCounts": 2,
      "Diff": 0
    },
    {
      "": 4117,
      "station": "Curtis Hall - South St at Centre St",
      "lat": 42.309053999999996,
      "lon": -71.11543,
      "hour": 3,
      "startCounts": 0,
      "endCounts": 1,
      "Diff": -1
    },
    {
      "": 2838,
      "station": "Boylston St at Massachusetts Ave",
      "lat": 42.347265,
      "lon": -71.088088,
      "hour": 3,
      "startCounts": 4,
      "endCounts": 5,
      "Diff": -1
    },
    {
      "": 2837,
      "station": "Ruggles T Stop - Columbus Ave at Melnea Cass Blvd",
      "lat": 42.33624444796878,
      "lon": -71.08798563480376,
      "hour": 3,
      "startCounts": 4,
      "endCounts": 2,
      "Diff": 2
    },
    {
      "": 3459,
      "station": "Lower Cambridgeport at Magazine St / Riverside Rd",
      "lat": 42.35721850317653,
      "lon": -71.1138716340065,
      "hour": 3,
      "startCounts": 1,
      "endCounts": 1,
      "Diff": 0
    },