var apr = [
    {
      "": 0,
      "ID": 0,
      "startname": "MIT at Mass Ave / Amherst St",
      "startlat": 42.3581,
      "startlon": -71.093198,
      "endname": "MIT Vassar St",
      "endlat": 42.35560121327927,
      "endlon": -71.10394477844237,
      "starthour": 0,
      "trip": "'MIT Vassar St', 'MIT at Mass Ave / Amherst St'",
      "counts": 10
    },
    {
      "": 1,
      "ID": 1,
      "startname": "MIT Stata Center at Vassar St / Main St",
      "startlat": 42.3619622,
      "startlon": -71.0920526,
      "endname": "MIT Pacific St at Purrington St",
      "endlat": 42.359573201090434,
      "endlon": -71.10129475593567,
      "starthour": 0,
      "trip": "'MIT Pacific St at Purrington St', 'MIT Stata Center at Vassar St / Main St'",
      "counts": 10
    },
    {
      "": 2,
      "ID": 2,
      "startname": "Park Dr at Buswell St",
      "startlat": 42.347241,
      "startlon": -71.105301,
      "endname": "Commonwealth Ave at Buick St",
      "endlat": 42.351246,
      "endlon": -71.115639,
      "starthour": 0,
      "trip": "'Commonwealth Ave at Buick St', 'Park Dr at Buswell St'",
      "counts": 7
    },
    {
      "": 3,
      "ID": 3,
      "startname": "Beacon St at Massachusetts Ave",
      "startlat": 42.350826806690954,
      "startlon": -71.0898108780384,
      "endname": "MIT at Mass Ave / Amherst St",
      "endlat": 42.3581,
      "endlon": -71.093198,
      "starthour": 0,
      "trip": "'Beacon St at Massachusetts Ave', 'MIT at Mass Ave / Amherst St'",
      "counts": 7
    },
    {
      "": 4,
      "ID": 4,
      "startname": "Northeastern University - North Parking Lot",
      "startlat": 42.341814,
      "startlon": -71.090179,
      "endname": "Brigham Circle - Francis St at Huntington Ave",
      "endlat": 42.334397811945145,
      "endlon": -71.1050793528557,
      "starthour": 0,
      "trip": "'Brigham Circle - Francis St at Huntington Ave', 'Northeastern University - North Parking Lot'",
      "counts": 6
    },
    {
      "": 5,
      "ID": 5,
      "startname": "Yawkey Way at Boylston St.",
      "startlat": 42.3446808403874,
      "startlon": -71.09785348176956,
      "endname": "B.U. Central - 725 Comm. Ave.",
      "endlat": 42.350406,
      "endlon": -71.10827900000001,
      "starthour": 0,
      "trip": "'B.U. Central - 725 Comm. Ave.', 'Yawkey Way at Boylston St.'",
      "counts": 6
    },
    {
      "": 6,
      "ID": 6,
      "startname": "Beacon St at Arlington St",
      "startlat": 42.355549323361345,
      "startlon": -71.07284188270569,
      "endname": "Boston City Hall - 28 State St",
      "endlat": 42.35892,
      "endlon": -71.057629,
      "starthour": 0,
      "trip": "'Beacon St at Arlington St', 'Boston City Hall - 28 State St'",
      "counts": 6
    },
    {
      "": 7,
      "ID": 7,
      "startname": "Central Sq Post Office / Cambridge City Hall at Mass Ave / Pleasant St",
      "startlat": 42.366426000000004,
      "startlon": -71.10549499999999,
      "endname": "Inman Square at Vellucci Plaza / Hampshire St",
      "endlat": 42.374035,
      "endlon": -71.101427,
      "starthour": 0,
      "trip": "'Central Sq Post Office / Cambridge City Hall at Mass Ave / Pleasant St', 'Inman Square at Vellucci Plaza / Hampshire St'",
      "counts": 6
    },
    {
      "": 8,
      "ID": 8,
      "startname": "MIT at Mass Ave / Amherst St",
      "startlat": 42.3581,
      "startlon": -71.093198,
      "endname": "Central Square at Mass Ave / Essex St",
      "endlat": 42.36507,
      "endlon": -71.1031,
      "starthour": 0,
      "trip": "'Central Square at Mass Ave / Essex St', 'MIT at Mass Ave / Amherst St'",
      "counts": 5
    },
    {
      "": 9,
      "ID": 9,
      "startname": "Newbury St at Hereford St",
      "startlat": 42.348717,
      "startlon": -71.085954,
      "endname": "Kendall T",
      "endlat": 42.362427842912396,
      "endlon": -71.08495473861693,
      "starthour": 0,
      "trip": "'Kendall T', 'Newbury St at Hereford St'",
      "counts": 5
    },
    {
      "": 10,
      "ID": 10,
      "startname": "Beacon St at Massachusetts Ave",
      "startlat": 42.350826806690954,
      "startlon": -71.0898108780384,
      "endname": "MIT at Mass Ave / Amherst St",
      "endlat": 42.3581,
      "endlon": -71.093198,
      "starthour": 1,
      "trip": "'Beacon St at Massachusetts Ave', 'MIT at Mass Ave / Amherst St'",
      "counts": 13
    },
    {
      "": 11,
      "ID": 11,
      "startname": "MIT at Mass Ave / Amherst St",
      "startlat": 42.3581,
      "startlon": -71.093198,
      "endname": "Boylston St at Massachusetts Ave",
      "endlat": 42.347265,
      "endlon": -71.088088,
      "starthour": 1,
      "trip": "'Boylston St at Massachusetts Ave', 'MIT at Mass Ave / Amherst St'",
      "counts": 7
    },
    {
      "": 12,
      "ID": 12,
      "startname": "Charles Circle - Charles St at Cambridge St",
      "startlat": 42.36071444836764,
      "startlon": -71.07092812657356,
      "endname": "Beacon St at Massachusetts Ave",
      "endlat": 42.350826806690954,
      "endlon": -71.0898108780384,
      "starthour": 1,
      "trip": "'Beacon St at Massachusetts Ave', 'Charles Circle - Charles St at Cambridge St'",
      "counts": 7
    },
    {
      "": 13,
      "ID": 13,
      "startname": "Boylston St at Massachusetts Ave",
      "startlat": 42.347265,
      "startlon": -71.088088,
      "endname": "Yawkey Way at Boylston St.",
      "endlat": 42.3446808403874,
      "endlon": -71.09785348176956,
      "starthour": 1,
      "trip": "'Boylston St at Massachusetts Ave', 'Yawkey Way at Boylston St.'",
      "counts": 5
    },
    {
      "": 14,
      "ID": 14,
      "startname": "MIT Vassar St",
      "startlat": 42.35560121327927,
      "startlon": -71.10394477844237,
      "endname": "Ames St at Main St",
      "endlat": 42.3625,
      "endlon": -71.08821999999999,
      "starthour": 1,
      "trip": "'Ames St at Main St', 'MIT Vassar St'",
      "counts": 5
    },
    {
      "": 15,
      "ID": 15,
      "startname": "Harvard Square at Mass Ave/ Dunster",
      "startlat": 42.373267999999996,
      "startlon": -71.118579,
      "endname": "Binney St / Sixth St",
      "endlat": 42.366095,
      "endlon": -71.086388,
      "starthour": 1,
      "trip": "'Binney St / Sixth St', 'Harvard Square at Mass Ave/ Dunster'",
      "counts": 5
    },
    {
      "": 16,
      "ID": 16,
      "startname": "MIT Pacific St at Purrington St",
      "startlat": 42.359573201090434,
      "startlon": -71.10129475593567,
      "endname": "MIT Vassar St",
      "endlat": 42.35560121327927,
      "endlon": -71.10394477844237,
      "starthour": 1,
      "trip": "'MIT Pacific St at Purrington St', 'MIT Vassar St'",
      "counts": 4
    },
    {
      "": 17,
      "ID": 17,
      "startname": "MIT Stata Center at Vassar St / Main St",
      "startlat": 42.3619622,
      "startlon": -71.0920526,
      "endname": "MIT Vassar St",
      "endlat": 42.35560121327927,
      "endlon": -71.10394477844237,
      "starthour": 1,
      "trip": "'MIT Stata Center at Vassar St / Main St', 'MIT Vassar St'",
      "counts": 4
    },
    {
      "": 18,
      "ID": 18,
      "startname": "Boylston St at Washington St",
      "startlat": 42.352409,
      "startlon": -71.062679,
      "endname": "Back Bay T Stop - Dartmouth St at Stuart St",
      "endlat": 42.34807412317439,
      "endlon": -71.07657015323639,
      "starthour": 1,
      "trip": "'Back Bay T Stop - Dartmouth St at Stuart St', 'Boylston St at Washington St'",
      "counts": 4
    },
    {
      "": 19,
      "ID": 19,
      "startname": "Back Bay T Stop - Dartmouth St at Stuart St",
      "startlat": 42.34807412317439,
      "startlon": -71.07657015323639,
      "endname": "Binney St / Sixth St",
      "endlat": 42.366095,
      "endlon": -71.086388,
      "starthour": 1,
      "trip": "'Back Bay T Stop - Dartmouth St at Stuart St', 'Binney St / Sixth St'",
      "counts": 4
    },
    {
      "": 20,
      "ID": 20,
      "startname": "Beacon St at Massachusetts Ave",
      "startlat": 42.350826806690954,
      "startlon": -71.0898108780384,
      "endname": "MIT at Mass Ave / Amherst St",
      "endlat": 42.3581,
      "endlon": -71.093198,
      "starthour": 2,
      "trip": "'Beacon St at Massachusetts Ave', 'MIT at Mass Ave / Amherst St'",
      "counts": 9
    },
    {
      "": 21,
      "ID": 21,
      "startname": "Beacon St at Massachusetts Ave",
      "startlat": 42.350826806690954,
      "startlon": -71.0898108780384,
      "endname": "Beacon St at Massachusetts Ave",
      "endlat": 42.350826806690954,
      "endlon": -71.0898108780384,
      "starthour": 2,
      "trip": "'Beacon St at Massachusetts Ave', 'Beacon St at Massachusetts Ave'",
      "counts": 8
    },
    {
      "": 22,
      "ID": 22,
      "startname": "Beacon St at Arlington St",
      "startlat": 42.355549323361345,
      "startlon": -71.07284188270569,
      "endname": "Back Bay T Stop - Dartmouth St at Stuart St",
      "endlat": 42.34807412317439,
      "endlon": -71.07657015323639,
      "starthour": 2,
      "trip": "'Back Bay T Stop - Dartmouth St at Stuart St', 'Beacon St at Arlington St'",
      "counts": 5
    },
    {
      "": 23,
      "ID": 23,
      "startname": "Beacon St at Arlington St",
      "startlat": 42.355549323361345,
      "startlon": -71.07284188270569,
      "endname": "Boylston St at Washington St",
      "endlat": 42.352409,
      "endlon": -71.062679,
      "starthour": 2,
      "trip": "'Beacon St at Arlington St', 'Boylston St at Washington St'",
      "counts": 4
    },
    {
      "": 24,
      "ID": 24,
      "startname": "Binney St / Sixth St",
      "startlat": 42.366095,
      "startlon": -71.086388,
      "endname": "Lechmere Station at Cambridge St / First St",
      "endlat": 42.370677,
      "endlon": -71.07652900000001,
      "starthour": 2,
      "trip": "'Binney St / Sixth St', 'Lechmere Station at Cambridge St / First St'",
      "counts": 4
    },
    {
      "": 25,
      "ID": 25,
      "startname": "Christian Science Plaza - Massachusetts Ave at Westland Ave",
      "startlat": 42.3436658245146,
      "startlon": -71.08582377433777,
      "endname": "Washington St at Rutland St",
      "endlat": 42.338514601785995,
      "endlon": -71.07404083013535,
      "starthour": 2,
      "trip": "'Christian Science Plaza - Massachusetts Ave at Westland Ave', 'Washington St at Rutland St'",
      "counts": 4
    },
    {
      "": 26,
      "ID": 26,
      "startname": "Union Square - Somerville",
      "startlat": 42.379637,
      "startlon": -71.09531899999999,
      "endname": "Davis Square",
      "endlat": 42.396969,
      "endlon": -71.123024,
      "starthour": 2,
      "trip": "'Davis Square', 'Union Square - Somerville'",
      "counts": 4
    },
    {
      "": 27,
      "ID": 27,
      "startname": "Lechmere Station at Cambridge St / First St",
      "startlat": 42.370677,
      "startlon": -71.07652900000001,
      "endname": "Beacon St at Washington / Kirkland",
      "endlat": 42.37842,
      "endlon": -71.10566800000001,
      "starthour": 2,
      "trip": "'Beacon St at Washington / Kirkland', 'Lechmere Station at Cambridge St / First St'",
      "counts": 4
    },
    {
      "": 28,
      "ID": 28,
      "startname": "MIT Pacific St at Purrington St",
      "startlat": 42.359573201090434,
      "startlon": -71.10129475593567,
      "endname": "MIT Vassar St",
      "endlat": 42.35560121327927,
      "endlon": -71.10394477844237,
      "starthour": 2,
      "trip": "'MIT Pacific St at Purrington St', 'MIT Vassar St'",
      "counts": 4
    },
    {
      "": 29,
      "ID": 29,
      "startname": "MIT Pacific St at Purrington St",
      "startlat": 42.359573201090434,
      "startlon": -71.10129475593567,
      "endname": "MIT Stata Center at Vassar St / Main St",
      "endlat": 42.3619622,
      "endlon": -71.0920526,
      "starthour": 2,
      "trip": "'MIT Pacific St at Purrington St', 'MIT Stata Center at Vassar St / Main St'",
      "counts": 4
    },
    {
      "": 30,
      "ID": 30,
      "startname": "Boylston St at Washington St",
      "startlat": 42.352409,
      "startlon": -71.062679,
      "endname": "Boylston St at Washington St",
      "endlat": 42.352409,
      "endlon": -71.062679,
      "starthour": 3,
      "trip": "'Boylston St at Washington St', 'Boylston St at Washington St'",
      "counts": 8
    },
    {
      "": 31,
      "ID": 31,
      "startname": "Packard's Corner - Commonwealth Ave at Brighton Ave",
      "startlat": 42.352261,
      "startlon": -71.12383100000001,
      "endname": "New Balance - 20 Guest St",
      "endlat": 42.357329218677066,
      "endlon": -71.14673539996147,
      "starthour": 3,
      "trip": "'New Balance - 20 Guest St', \"Packard's Corner - Commonwealth Ave at Brighton Ave",
      "counts": 6
    },
    {
      "": 32,
      "ID": 32,
      "startname": "Binney St / Sixth St",
      "startlat": 42.366095,
      "startlon": -71.086388,
      "endname": "Lechmere Station at Cambridge St / First St",
      "endlat": 42.370677,
      "endlon": -71.07652900000001,
      "starthour": 3,
      "trip": "'Binney St / Sixth St', 'Lechmere Station at Cambridge St / First St'",
      "counts": 5
    },
    {
      "": 33,
      "ID": 33,
      "startname": "Beacon St at Arlington St",
      "startlat": 42.355549323361345,
      "startlon": -71.07284188270569,
      "endname": "Beacon St at Arlington St",
      "endlat": 42.355549323361345,
      "endlon": -71.07284188270569,
      "starthour": 3,
      "trip": "'Beacon St at Arlington St', 'Beacon St at Arlington St'",
      "counts": 3
    },
    {
      "": 34,
      "ID": 34,
      "startname": "Beacon St at Massachusetts Ave",
      "startlat": 42.350826806690954,
      "startlon": -71.0898108780384,
      "endname": "Harvard University Housing - 115 Putnam Ave at Peabody Terrace",
      "endlat": 42.366621,
      "endlon": -71.114214,
      "starthour": 3,
      "trip": "'Beacon St at Massachusetts Ave', 'Harvard University Housing - 115 Putnam Ave at Peabody Terrace'",
      "counts": 3
    },
    {
      "": 35,
      "ID": 35,
      "startname": "MIT Stata Center at Vassar St / Main St",
      "startlat": 42.3619622,
      "startlon": -71.0920526,
      "endname": "MIT Pacific St at Purrington St",
      "endlat": 42.359573201090434,
      "endlon": -71.10129475593567,
      "starthour": 3,
      "trip": "'MIT Pacific St at Purrington St', 'MIT Stata Center at Vassar St / Main St'",
      "counts": 3
    },
    {
      "": 36,
      "ID": 36,
      "startname": "Lafayette Square at Mass Ave / Main St / Columbia St",
      "startlat": 42.36346469304347,
      "startlon": -71.10057324171065,
      "endname": "MIT at Mass Ave / Amherst St",
      "endlat": 42.3581,
      "endlon": -71.093198,
      "starthour": 3,
      "trip": "'Lafayette Square at Mass Ave / Main St / Columbia St', 'MIT at Mass Ave / Amherst St'",
      "counts": 3
    },
    {
      "": 37,
      "ID": 37,
      "startname": "Allston Green District - Griggs St at Commonwealth Ave",
      "startlat": 42.348520145812714,
      "startlon": -71.13394662737845,
      "endname": "Allston Green District - Griggs St at Commonwealth Ave",
      "endlat": 42.348520145812714,
      "endlon": -71.13394662737845,
      "starthour": 3,
      "trip": "'Allston Green District - Griggs St at Commonwealth Ave', 'Allston Green District - Griggs St at Commonwealth Ave'",
      "counts": 3
    },
    {
      "": 38,
      "ID": 38,
      "startname": "South Station - 700 Atlantic Ave",
      "startlat": 42.352175,
      "startlon": -71.055547,
      "endname": "South Station - 700 Atlantic Ave",
      "endlat": 42.352175,
      "endlon": -71.055547,
      "starthour": 3,
      "trip": "'South Station - 700 Atlantic Ave', 'South Station - 700 Atlantic Ave'",
      "counts": 2
    },
    {
      "": 39,
      "ID": 39,
      "startname": "Burlington Ave at Brookline Ave",
      "startlat": 42.345733,
      "startlon": -71.10069399999999,
      "endname": "Boylston St at Dartmouth St",
      "endlat": 42.350413,
      "endlon": -71.07655,
      "starthour": 3,
      "trip": "'Boylston St at Dartmouth St', 'Burlington Ave at Brookline Ave'",
      "counts": 2
    },
    {
      "": 40,
      "ID": 40,
      "startname": "175 N Harvard St",
      "startlat": 42.363796,
      "startlon": -71.129164,
      "endname": "Harvard Square at Mass Ave/ Dunster",
      "endlat": 42.373267999999996,
      "endlon": -71.118579,
      "starthour": 4,
      "trip": "'175 N Harvard St', 'Harvard Square at Mass Ave/ Dunster'",
      "counts": 11
    },
    {
      "": 41,
      "ID": 41,
      "startname": "Packard's Corner - Commonwealth Ave at Brighton Ave",
      "startlat": 42.352261,
      "startlon": -71.12383100000001,
      "endname": "New Balance - 20 Guest St",
      "endlat": 42.357329218677066,
      "endlon": -71.14673539996147,
      "starthour": 4,
      "trip": "'New Balance - 20 Guest St', \"Packard's Corner - Commonwealth Ave at Brighton Ave",
      "counts": 10
    },
    {
      "": 42,
      "ID": 42,
      "startname": "Jackson Square T Stop",
      "startlat": 42.32293117195949,
      "startlon": -71.10014140605927,
      "endname": "Roxbury Crossing T Stop - Columbus Ave at Tremont St",
      "endlat": 42.331184,
      "endlon": -71.095171,
      "starthour": 4,
      "trip": "'Jackson Square T Stop', 'Roxbury Crossing T Stop - Columbus Ave at Tremont St'",
      "counts": 7
    },
    {
      "": 43,
      "ID": 43,
      "startname": "Harvard University Housing - 115 Putnam Ave at Peabody Terrace",
      "startlat": 42.366621,
      "startlon": -71.114214,
      "endname": "Harvard Square at Mass Ave/ Dunster",
      "endlat": 42.373267999999996,
      "endlon": -71.118579,
      "starthour": 4,
      "trip": "'Harvard Square at Mass Ave/ Dunster', 'Harvard University Housing - 115 Putnam Ave at Peabody Terrace'",
      "counts": 4
    },
    {
      "": 44,
      "ID": 44,
      "startname": "Beacon St at Massachusetts Ave",
      "startlat": 42.350826806690954,
      "startlon": -71.0898108780384,
      "endname": "MIT at Mass Ave / Amherst St",
      "endlat": 42.3581,
      "endlon": -71.093198,
      "starthour": 4,
      "trip": "'Beacon St at Massachusetts Ave', 'MIT at Mass Ave / Amherst St'",
      "counts": 3
    },
    {
      "": 45,
      "ID": 45,
      "startname": "Washington St at Rutland St",
      "startlat": 42.338514601785995,
      "startlon": -71.07404083013535,
      "endname": "Boylston St at Washington St",
      "endlat": 42.352409,
      "endlon": -71.062679,
      "starthour": 4,
      "trip": "'Boylston St at Washington St', 'Washington St at Rutland St'",
      "counts": 3
    },
    {
      "": 46,
      "ID": 46,
      "startname": "Packard's Corner - Commonwealth Ave at Brighton Ave",
      "startlat": 42.352261,
      "startlon": -71.12383100000001,
      "endname": "Lechmere Station at Cambridge St / First St",
      "endlat": 42.370677,
      "endlon": -71.07652900000001,
      "starthour": 4,
      "trip": "'Lechmere Station at Cambridge St / First St', \"Packard's Corner - Commonwealth Ave at Brighton Ave",
      "counts": 2
    },
    {
      "": 47,
      "ID": 47,
      "startname": "Park Dr at Buswell St",
      "startlat": 42.347241,
      "startlon": -71.105301,
      "endname": "Stuart St at Charles St",
      "endlat": 42.351146,
      "endlon": -71.066289,
      "starthour": 4,
      "trip": "'Park Dr at Buswell St', 'Stuart St at Charles St'",
      "counts": 2
    },
    {
      "": 48,
      "ID": 48,
      "startname": "Bowdoin St at Quincy St",
      "startlat": 42.30785224238503,
      "startlon": -71.06512248516083,
      "endname": "Back Bay T Stop - Dartmouth St at Stuart St",
      "endlat": 42.34807412317439,
      "endlon": -71.07657015323639,
      "starthour": 4,
      "trip": "'Back Bay T Stop - Dartmouth St at Stuart St', 'Bowdoin St at Quincy St'",
      "counts": 2
    },
    {
      "": 49,
      "ID": 49,
      "startname": "MIT Stata Center at Vassar St / Main St",
      "startlat": 42.3619622,
      "startlon": -71.0920526,
      "endname": "Lechmere Station at Cambridge St / First St",
      "endlat": 42.370677,
      "endlon": -71.07652900000001,
      "starthour": 4,
      "trip": "'Lechmere Station at Cambridge St / First St', 'MIT Stata Center at Vassar St / Main St'",
      "counts": 2
    },
    {
      "": 50,
      "ID": 50,
      "startname": "Cambridge St at Joy St",
      "startlat": 42.36130407013564,
      "startlon": -71.0652096569538,
      "endname": "Post Office Square - Pearl St at Milk St",
      "endlat": 42.356755,
      "endlon": -71.05540699999999,
      "starthour": 5,
      "trip": "'Cambridge St at Joy St', 'Post Office Square - Pearl St at Milk St'",
      "counts": 11
    },
    {
      "": 51,
      "ID": 51,
      "startname": "Back Bay T Stop - Dartmouth St at Stuart St",
      "startlat": 42.34807412317439,
      "startlon": -71.07657015323639,
      "endname": "Post Office Square - Pearl St at Milk St",
      "endlat": 42.356755,
      "endlon": -71.05540699999999,
      "starthour": 5,
      "trip": "'Back Bay T Stop - Dartmouth St at Stuart St', 'Post Office Square - Pearl St at Milk St'",
      "counts": 9
    },
    {
      "": 52,
      "ID": 52,
      "startname": "Inman Square at Vellucci Plaza / Hampshire St",
      "startlat": 42.374035,
      "startlon": -71.101427,
      "endname": "MIT at Mass Ave / Amherst St",
      "endlat": 42.3581,
      "endlon": -71.093198,
      "starthour": 5,
      "trip": "'Inman Square at Vellucci Plaza / Hampshire St', 'MIT at Mass Ave / Amherst St'",
      "counts": 8
    },
    {
      "": 53,
      "ID": 53,
      "startname": "South Station - 700 Atlantic Ave",
      "startlat": 42.352175,
      "startlon": -71.055547,
      "endname": "Congress St at Northern Ave",
      "endlat": 42.3481,
      "endlon": -71.03764,
      "starthour": 5,
      "trip": "'Congress St at Northern Ave', 'South Station - 700 Atlantic Ave'",
      "counts": 8
    },
    {
      "": 54,
      "ID": 54,
      "startname": "E Cottage St at Columbia Rd",
      "startlat": 42.320561,
      "startlon": -71.06198,
      "endname": "Arch St at Franklin St",
      "endlat": 42.35530156110769,
      "endlon": -71.0582560300827,
      "starthour": 5,
      "trip": "'Arch St at Franklin St', 'E Cottage St at Columbia Rd'",
      "counts": 7
    },
    {
      "": 55,
      "ID": 55,
      "startname": "Lower Cambridgeport at Magazine St/Riverside Rd",
      "startlat": 42.356953999999995,
      "startlon": -71.113687,
      "endname": "Charles Circle - Charles St at Cambridge St",
      "endlat": 42.36071444836764,
      "endlon": -71.07092812657356,
      "starthour": 5,
      "trip": "'Charles Circle - Charles St at Cambridge St', 'Lower Cambridgeport at Magazine St/Riverside Rd'",
      "counts": 7
    },
    {
      "": 56,
      "ID": 56,
      "startname": "Lewis Wharf at Atlantic Ave",
      "startlat": 42.363871,
      "startlon": -71.050877,
      "endname": "Post Office Square - Pearl St at Milk St",
      "endlat": 42.356755,
      "endlon": -71.05540699999999,
      "starthour": 5,
      "trip": "'Lewis Wharf at Atlantic Ave', 'Post Office Square - Pearl St at Milk St'",
      "counts": 7
    },
    {
      "": 57,
      "ID": 57,
      "startname": "Boston City Hall - 28 State St",
      "startlat": 42.35892,
      "startlon": -71.057629,
      "endname": "Back Bay T Stop - Dartmouth St at Stuart St",
      "endlat": 42.34807412317439,
      "endlon": -71.07657015323639,
      "starthour": 5,
      "trip": "'Back Bay T Stop - Dartmouth St at Stuart St', 'Boston City Hall - 28 State St'",
      "counts": 7
    },
    {
      "": 58,
      "ID": 58,
      "startname": "Rindge Avenue - O'Neill Library",
      "startlat": 42.392765999999995,
      "startlon": -71.129042,
      "endname": "Davis Square",
      "endlat": 42.396969,
      "endlon": -71.123024,
      "starthour": 5,
      "trip": "'Davis Square', \"Rindge Avenue - O'Neill Library",
      "counts": 7
    },
    {
      "": 59,
      "ID": 59,
      "startname": "Jackson Square T Stop",
      "startlat": 42.32293117195949,
      "startlon": -71.10014140605927,
      "endname": "Roxbury Crossing T Stop - Columbus Ave at Tremont St",
      "endlat": 42.331184,
      "endlon": -71.095171,
      "starthour": 5,
      "trip": "'Jackson Square T Stop', 'Roxbury Crossing T Stop - Columbus Ave at Tremont St'",
      "counts": 7
    },
    {
      "": 60,
      "ID": 60,
      "startname": "Aquarium T Stop - 200 Atlantic Ave",
      "startlat": 42.35991176110118,
      "startlon": -71.0514298081398,
      "endname": "South Station - 700 Atlantic Ave",
      "endlat": 42.352175,
      "endlon": -71.055547,
      "starthour": 6,
      "trip": "'Aquarium T Stop - 200 Atlantic Ave', 'South Station - 700 Atlantic Ave'",
      "counts": 32
    },
    {
      "": 61,
      "ID": 61,
      "startname": "Lechmere Station at Cambridge St / First St",
      "startlat": 42.370677,
      "startlon": -71.07652900000001,
      "endname": "Boston Convention and Exhibition Center - Summer St at West Side Dr",
      "endlat": 42.347763454147454,
      "endlon": -71.04535996913908,
      "starthour": 6,
      "trip": "'Boston Convention and Exhibition Center - Summer St at West Side Dr', 'Lechmere Station at Cambridge St / First St'",
      "counts": 29
    },
    {
      "": 62,
      "ID": 62,
      "startname": "Nashua Street at Red Auerbach Way",
      "startlat": 42.365673,
      "startlon": -71.064263,
      "endname": "Congress St at Sleeper St",
      "endlat": 42.351004495946704,
      "endlon": -71.04930013418199,
      "starthour": 6,
      "trip": "'Congress St at Sleeper St', 'Nashua Street at Red Auerbach Way'",
      "counts": 25
    },
    {
      "": 63,
      "ID": 63,
      "startname": "Nashua Street at Red Auerbach Way",
      "startlat": 42.365673,
      "startlon": -71.064263,
      "endname": "MIT Stata Center at Vassar St / Main St",
      "endlat": 42.3619622,
      "endlon": -71.0920526,
      "starthour": 6,
      "trip": "'MIT Stata Center at Vassar St / Main St', 'Nashua Street at Red Auerbach Way'",
      "counts": 24
    },
    {
      "": 64,
      "ID": 64,
      "startname": "Porter Square Station",
      "startlat": 42.387995000000004,
      "startlon": -71.119084,
      "endname": "One Kendall Square at Hampshire St / Portland St",
      "endlat": 42.366277000000004,
      "endlon": -71.09169,
      "starthour": 6,
      "trip": "'One Kendall Square at Hampshire St / Portland St', 'Porter Square Station'",
      "counts": 24
    },
    {
      "": 65,
      "ID": 65,
      "startname": "Nashua Street at Red Auerbach Way",
      "startlat": 42.365673,
      "startlon": -71.064263,
      "endname": "Post Office Square - Pearl St at Milk St",
      "endlat": 42.356755,
      "endlon": -71.05540699999999,
      "starthour": 6,
      "trip": "'Nashua Street at Red Auerbach Way', 'Post Office Square - Pearl St at Milk St'",
      "counts": 19
    },
    {
      "": 66,
      "ID": 66,
      "startname": "Back Bay T Stop - Dartmouth St at Stuart St",
      "startlat": 42.34807412317439,
      "startlon": -71.07657015323639,
      "endname": "Stuart St at Charles St",
      "endlat": 42.351146,
      "endlon": -71.066289,
      "starthour": 6,
      "trip": "'Back Bay T Stop - Dartmouth St at Stuart St', 'Stuart St at Charles St'",
      "counts": 18
    },
    {
      "": 67,
      "ID": 67,
      "startname": "South End Library - Tremont St at W Newton St",
      "startlat": 42.341332,
      "startlon": -71.076847,
      "endname": "Back Bay T Stop - Dartmouth St at Stuart St",
      "endlat": 42.34807412317439,
      "endlon": -71.07657015323639,
      "starthour": 6,
      "trip": "'Back Bay T Stop - Dartmouth St at Stuart St', 'South End Library - Tremont St at W Newton St'",
      "counts": 17
    },
    {
      "": 68,
      "ID": 68,
      "startname": "Washington St at Waltham St",
      "startlat": 42.341522,
      "startlon": -71.068922,
      "endname": "HMS/HSPH - Avenue Louis Pasteur at Longwood Ave",
      "endlat": 42.337417484597296,
      "endlon": -71.10286116600038,
      "starthour": 6,
      "trip": "'HMS/HSPH - Avenue Louis Pasteur at Longwood Ave', 'Washington St at Waltham St'",
      "counts": 16
    },
    {
      "": 69,
      "ID": 69,
      "startname": "Allston Green District - Griggs St at Commonwealth Ave",
      "startlat": 42.348520145812714,
      "startlon": -71.13394662737845,
      "endname": "B.U. Central - 725 Comm. Ave.",
      "endlat": 42.350406,
      "endlon": -71.10827900000001,
      "starthour": 6,
      "trip": "'Allston Green District - Griggs St at Commonwealth Ave', 'B.U. Central - 725 Comm. Ave.'",
      "counts": 13
    },
    {
      "": 70,
      "ID": 70,
      "startname": "Linear Park - Mass. Ave. at Cameron Ave.",
      "startlat": 42.397828000000004,
      "startlon": -71.130516,
      "endname": "Davis Square",
      "endlat": 42.396969,
      "endlon": -71.123024,
      "starthour": 7,
      "trip": "'Davis Square', 'Linear Park - Mass. Ave. at Cameron Ave. '",
      "counts": 42
    },
    {
      "": 71,
      "ID": 71,
      "startname": "Nashua Street at Red Auerbach Way",
      "startlat": 42.365673,
      "startlon": -71.064263,
      "endname": "Congress St at Sleeper St",
      "endlat": 42.351004495946704,
      "endlon": -71.04930013418199,
      "starthour": 7,
      "trip": "'Congress St at Sleeper St', 'Nashua Street at Red Auerbach Way'",
      "counts": 41
    },
    {
      "": 72,
      "ID": 72,
      "startname": "Ink Block - Harrison Ave at Herald St",
      "startlat": 42.345901,
      "startlon": -71.063187,
      "endname": "South Station - 700 Atlantic Ave",
      "endlat": 42.352175,
      "endlon": -71.055547,
      "starthour": 7,
      "trip": "'Ink Block - Harrison Ave at Herald St', 'South Station - 700 Atlantic Ave'",
      "counts": 40
    },
    {
      "": 73,
      "ID": 73,
      "startname": "South Station - 700 Atlantic Ave",
      "startlat": 42.352175,
      "startlon": -71.055547,
      "endname": "Nashua Street at Red Auerbach Way",
      "endlat": 42.365673,
      "endlon": -71.064263,
      "starthour": 7,
      "trip": "'Nashua Street at Red Auerbach Way', 'South Station - 700 Atlantic Ave'",
      "counts": 33
    },
    {
      "": 74,
      "ID": 74,
      "startname": "Tremont St at E Berkeley St",
      "startlat": 42.345392,
      "startlon": -71.069616,
      "endname": "South Station - 700 Atlantic Ave",
      "endlat": 42.352175,
      "endlon": -71.055547,
      "starthour": 7,
      "trip": "'South Station - 700 Atlantic Ave', 'Tremont St at E Berkeley St'",
      "counts": 30
    },
    {
      "": 75,
      "ID": 75,
      "startname": "Nashua Street at Red Auerbach Way",
      "startlat": 42.365673,
      "startlon": -71.064263,
      "endname": "Boston City Hall - 28 State St",
      "endlat": 42.35892,
      "endlon": -71.057629,
      "starthour": 7,
      "trip": "'Boston City Hall - 28 State St', 'Nashua Street at Red Auerbach Way'",
      "counts": 23
    },
    {
      "": 76,
      "ID": 76,
      "startname": "South Station - 700 Atlantic Ave",
      "startlat": 42.352175,
      "startlon": -71.055547,
      "endname": "Beacon St at Arlington St",
      "endlat": 42.355549323361345,
      "endlon": -71.07284188270569,
      "starthour": 7,
      "trip": "'Beacon St at Arlington St', 'South Station - 700 Atlantic Ave'",
      "counts": 22
    },
    {
      "": 77,
      "ID": 77,
      "startname": "Back Bay T Stop - Dartmouth St at Stuart St",
      "startlat": 42.34807412317439,
      "startlon": -71.07657015323639,
      "endname": "MIT Stata Center at Vassar St / Main St",
      "endlat": 42.3619622,
      "endlon": -71.0920526,
      "starthour": 7,
      "trip": "'Back Bay T Stop - Dartmouth St at Stuart St', 'MIT Stata Center at Vassar St / Main St'",
      "counts": 21
    },
    {
      "": 78,
      "ID": 78,
      "startname": "W Broadway at Dorchester St",
      "startlat": 42.335693,
      "startlon": -71.045859,
      "endname": "South Station - 700 Atlantic Ave",
      "endlat": 42.352175,
      "endlon": -71.055547,
      "starthour": 7,
      "trip": "'South Station - 700 Atlantic Ave', 'W Broadway at Dorchester St'",
      "counts": 21
    },
    {
      "": 79,
      "ID": 79,
      "startname": "South Station - 700 Atlantic Ave",
      "startlat": 42.352175,
      "startlon": -71.055547,
      "endname": "Rowes Wharf at Atlantic Ave",
      "endlat": 42.357143,
      "endlon": -71.050699,
      "starthour": 7,
      "trip": "'Rowes Wharf at Atlantic Ave', 'South Station - 700 Atlantic Ave'",
      "counts": 20
    },
    {
      "": 80,
      "ID": 80,
      "startname": "MIT Vassar St",
      "startlat": 42.35560121327927,
      "startlon": -71.10394477844237,
      "endname": "Kendall T",
      "endlat": 42.362427842912396,
      "endlon": -71.08495473861693,
      "starthour": 8,
      "trip": "'Kendall T', 'MIT Vassar St'",
      "counts": 48
    },
    {
      "": 81,
      "ID": 81,
      "startname": "MIT Vassar St",
      "startlat": 42.35560121327927,
      "startlon": -71.10394477844237,
      "endname": "MIT at Mass Ave / Amherst St",
      "endlat": 42.3581,
      "endlon": -71.093198,
      "starthour": 8,
      "trip": "'MIT Vassar St', 'MIT at Mass Ave / Amherst St'",
      "counts": 44
    },
    {
      "": 82,
      "ID": 82,
      "startname": "Linear Park - Mass. Ave. at Cameron Ave.",
      "startlat": 42.397828000000004,
      "startlon": -71.130516,
      "endname": "Davis Square",
      "endlat": 42.396969,
      "endlon": -71.123024,
      "starthour": 8,
      "trip": "'Davis Square', 'Linear Park - Mass. Ave. at Cameron Ave. '",
      "counts": 39
    },
    {
      "": 83,
      "ID": 83,
      "startname": "Lewis Wharf at Atlantic Ave",
      "startlat": 42.363871,
      "startlon": -71.050877,
      "endname": "South Station - 700 Atlantic Ave",
      "endlat": 42.352175,
      "endlon": -71.055547,
      "starthour": 8,
      "trip": "'Lewis Wharf at Atlantic Ave', 'South Station - 700 Atlantic Ave'",
      "counts": 38
    },
    {
      "": 84,
      "ID": 84,
      "startname": "MIT Vassar St",
      "startlat": 42.35560121327927,
      "startlon": -71.10394477844237,
      "endname": "MIT Stata Center at Vassar St / Main St",
      "endlat": 42.3619622,
      "endlon": -71.0920526,
      "starthour": 8,
      "trip": "'MIT Stata Center at Vassar St / Main St', 'MIT Vassar St'",
      "counts": 36
    },
    {
      "": 85,
      "ID": 85,
      "startname": "MIT Pacific St at Purrington St",
      "startlat": 42.359573201090434,
      "startlon": -71.10129475593567,
      "endname": "Ames St at Main St",
      "endlat": 42.3625,
      "endlon": -71.08821999999999,
      "starthour": 8,
      "trip": "'Ames St at Main St', 'MIT Pacific St at Purrington St'",
      "counts": 36
    },
    {
      "": 86,
      "ID": 86,
      "startname": "MIT Vassar St",
      "startlat": 42.35560121327927,
      "startlon": -71.10394477844237,
      "endname": "Ames St at Main St",
      "endlat": 42.3625,
      "endlon": -71.08821999999999,
      "starthour": 8,
      "trip": "'Ames St at Main St', 'MIT Vassar St'",
      "counts": 34
    },
    {
      "": 87,
      "ID": 87,
      "startname": "MIT Pacific St at Purrington St",
      "startlat": 42.359573201090434,
      "startlon": -71.10129475593567,
      "endname": "Kendall T",
      "endlat": 42.362427842912396,
      "endlon": -71.08495473861693,
      "starthour": 8,
      "trip": "'Kendall T', 'MIT Pacific St at Purrington St'",
      "counts": 34
    },
    {
      "": 88,
      "ID": 88,
      "startname": "MIT at Mass Ave / Amherst St",
      "startlat": 42.3581,
      "startlon": -71.093198,
      "endname": "Beacon St at Massachusetts Ave",
      "endlat": 42.350826806690954,
      "endlon": -71.0898108780384,
      "starthour": 8,
      "trip": "'Beacon St at Massachusetts Ave', 'MIT at Mass Ave / Amherst St'",
      "counts": 32
    },
    {
      "": 89,
      "ID": 89,
      "startname": "Back Bay T Stop - Dartmouth St at Stuart St",
      "startlat": 42.34807412317439,
      "startlon": -71.07657015323639,
      "endname": "MIT at Mass Ave / Amherst St",
      "endlat": 42.3581,
      "endlon": -71.093198,
      "starthour": 8,
      "trip": "'Back Bay T Stop - Dartmouth St at Stuart St', 'MIT at Mass Ave / Amherst St'",
      "counts": 31
    },
    {
      "": 90,
      "ID": 90,
      "startname": "MIT Vassar St",
      "startlat": 42.35560121327927,
      "startlon": -71.10394477844237,
      "endname": "MIT Stata Center at Vassar St / Main St",
      "endlat": 42.3619622,
      "endlon": -71.0920526,
      "starthour": 9,
      "trip": "'MIT Stata Center at Vassar St / Main St', 'MIT Vassar St'",
      "counts": 74
    },
    {
      "": 91,
      "ID": 91,
      "startname": "MIT Pacific St at Purrington St",
      "startlat": 42.359573201090434,
      "startlon": -71.10129475593567,
      "endname": "MIT Stata Center at Vassar St / Main St",
      "endlat": 42.3619622,
      "endlon": -71.0920526,
      "starthour": 9,
      "trip": "'MIT Pacific St at Purrington St', 'MIT Stata Center at Vassar St / Main St'",
      "counts": 50
    },
    {
      "": 92,
      "ID": 92,
      "startname": "MIT Vassar St",
      "startlat": 42.35560121327927,
      "startlon": -71.10394477844237,
      "endname": "Kendall T",
      "endlat": 42.362427842912396,
      "endlon": -71.08495473861693,
      "starthour": 9,
      "trip": "'Kendall T', 'MIT Vassar St'",
      "counts": 49
    },
    {
      "": 93,
      "ID": 93,
      "startname": "MIT Pacific St at Purrington St",
      "startlat": 42.359573201090434,
      "startlon": -71.10129475593567,
      "endname": "Kendall T",
      "endlat": 42.362427842912396,
      "endlon": -71.08495473861693,
      "starthour": 9,
      "trip": "'Kendall T', 'MIT Pacific St at Purrington St'",
      "counts": 37
    },
    {
      "": 94,
      "ID": 94,
      "startname": "MIT at Mass Ave / Amherst St",
      "startlat": 42.3581,
      "startlon": -71.093198,
      "endname": "Beacon St at Massachusetts Ave",
      "endlat": 42.350826806690954,
      "endlon": -71.0898108780384,
      "starthour": 9,
      "trip": "'Beacon St at Massachusetts Ave', 'MIT at Mass Ave / Amherst St'",
      "counts": 33
    },
    {
      "": 95,
      "ID": 95,
      "startname": "Inman Square at Vellucci Plaza / Hampshire St",
      "startlat": 42.374035,
      "startlon": -71.101427,
      "endname": "MIT Stata Center at Vassar St / Main St",
      "endlat": 42.3619622,
      "endlon": -71.0920526,
      "starthour": 9,
      "trip": "'Inman Square at Vellucci Plaza / Hampshire St', 'MIT Stata Center at Vassar St / Main St'",
      "counts": 31
    },
    {
      "": 96,
      "ID": 96,
      "startname": "MIT at Mass Ave / Amherst St",
      "startlat": 42.3581,
      "startlon": -71.093198,
      "endname": "MIT Vassar St",
      "endlat": 42.35560121327927,
      "endlon": -71.10394477844237,
      "starthour": 9,
      "trip": "'MIT Vassar St', 'MIT at Mass Ave / Amherst St'",
      "counts": 29
    },
    {
      "": 97,
      "ID": 97,
      "startname": "MIT Pacific St at Purrington St",
      "startlat": 42.359573201090434,
      "startlon": -71.10129475593567,
      "endname": "MIT at Mass Ave / Amherst St",
      "endlat": 42.3581,
      "endlon": -71.093198,
      "starthour": 9,
      "trip": "'MIT Pacific St at Purrington St', 'MIT at Mass Ave / Amherst St'",
      "counts": 27
    },
    {
      "": 98,
      "ID": 98,
      "startname": "Harvard University Gund Hall at Quincy St / Kirkland S",
      "startlat": 42.376369,
      "startlon": -71.114025,
      "endname": "Harvard University Radcliffe Quadrangle at Shepard St / Garden St",
      "endlat": 42.380287,
      "endlon": -71.125107,
      "starthour": 9,
      "trip": "'Harvard University Gund Hall at Quincy St / Kirkland S', 'Harvard University Radcliffe Quadrangle at Shepard St / Garden St'",
      "counts": 25
    },
    {
      "": 99,
      "ID": 99,
      "startname": "Central Sq Post Office / Cambridge City Hall at Mass Ave / Pleasant St",
      "startlat": 42.366426000000004,
      "startlon": -71.10549499999999,
      "endname": "MIT Stata Center at Vassar St / Main St",
      "endlat": 42.3619622,
      "endlon": -71.0920526,
      "starthour": 9,
      "trip": "'Central Sq Post Office / Cambridge City Hall at Mass Ave / Pleasant St', 'MIT Stata Center at Vassar St / Main St'",
      "counts": 24
    },
    {
      "": 100,
      "ID": 100,
      "startname": "MIT Vassar St",
      "startlat": 42.35560121327927,
      "startlon": -71.10394477844237,
      "endname": "MIT Stata Center at Vassar St / Main St",
      "endlat": 42.3619622,
      "endlon": -71.0920526,
      "starthour": 10,
      "trip": "'MIT Stata Center at Vassar St / Main St', 'MIT Vassar St'",
      "counts": 62
    },
    {
      "": 101,
      "ID": 101,
      "startname": "MIT Pacific St at Purrington St",
      "startlat": 42.359573201090434,
      "startlon": -71.10129475593567,
      "endname": "MIT Stata Center at Vassar St / Main St",
      "endlat": 42.3619622,
      "endlon": -71.0920526,
      "starthour": 10,
      "trip": "'MIT Pacific St at Purrington St', 'MIT Stata Center at Vassar St / Main St'",
      "counts": 48
    },
    {
      "": 102,
      "ID": 102,
      "startname": "MIT Vassar St",
      "startlat": 42.35560121327927,
      "startlon": -71.10394477844237,
      "endname": "MIT at Mass Ave / Amherst St",
      "endlat": 42.3581,
      "endlon": -71.093198,
      "starthour": 10,
      "trip": "'MIT Vassar St', 'MIT at Mass Ave / Amherst St'",
      "counts": 29
    },
    {
      "": 103,
      "ID": 103,
      "startname": "MIT Pacific St at Purrington St",
      "startlat": 42.359573201090434,
      "startlon": -71.10129475593567,
      "endname": "MIT at Mass Ave / Amherst St",
      "endlat": 42.3581,
      "endlon": -71.093198,
      "starthour": 10,
      "trip": "'MIT Pacific St at Purrington St', 'MIT at Mass Ave / Amherst St'",
      "counts": 27
    },
    {
      "": 104,
      "ID": 104,
      "startname": "Beacon St at Massachusetts Ave",
      "startlat": 42.350826806690954,
      "startlon": -71.0898108780384,
      "endname": "MIT at Mass Ave / Amherst St",
      "endlat": 42.3581,
      "endlon": -71.093198,
      "starthour": 10,
      "trip": "'Beacon St at Massachusetts Ave', 'MIT at Mass Ave / Amherst St'",
      "counts": 25
    },
    {
      "": 105,
      "ID": 105,
      "startname": "Beacon St at Arlington St",
      "startlat": 42.355549323361345,
      "startlon": -71.07284188270569,
      "endname": "Beacon St at Arlington St",
      "endlat": 42.355549323361345,
      "endlon": -71.07284188270569,
      "starthour": 10,
      "trip": "'Beacon St at Arlington St', 'Beacon St at Arlington St'",
      "counts": 20
    },
    {
      "": 106,
      "ID": 106,
      "startname": "MIT at Mass Ave / Amherst St",
      "startlat": 42.3581,
      "startlon": -71.093198,
      "endname": "MIT Stata Center at Vassar St / Main St",
      "endlat": 42.3619622,
      "endlon": -71.0920526,
      "starthour": 10,
      "trip": "'MIT Stata Center at Vassar St / Main St', 'MIT at Mass Ave / Amherst St'",
      "counts": 20
    },
    {
      "": 107,
      "ID": 107,
      "startname": "Kendall T",
      "startlat": 42.362427842912396,
      "startlon": -71.08495473861693,
      "endname": "MIT at Mass Ave / Amherst St",
      "endlat": 42.3581,
      "endlon": -71.093198,
      "starthour": 10,
      "trip": "'Kendall T', 'MIT at Mass Ave / Amherst St'",
      "counts": 19
    },
    {
      "": 108,
      "ID": 108,
      "startname": "MIT Pacific St at Purrington St",
      "startlat": 42.359573201090434,
      "startlon": -71.10129475593567,
      "endname": "Ames St at Main St",
      "endlat": 42.3625,
      "endlon": -71.08821999999999,
      "starthour": 10,
      "trip": "'Ames St at Main St', 'MIT Pacific St at Purrington St'",
      "counts": 17
    },
    {
      "": 109,
      "ID": 109,
      "startname": "Kendall T",
      "startlat": 42.362427842912396,
      "startlon": -71.08495473861693,
      "endname": "MIT Stata Center at Vassar St / Main St",
      "endlat": 42.3619622,
      "endlon": -71.0920526,
      "starthour": 10,
      "trip": "'Kendall T', 'MIT Stata Center at Vassar St / Main St'",
      "counts": 17
    },
    {
      "": 110,
      "ID": 110,
      "startname": "MIT Pacific St at Purrington St",
      "startlat": 42.359573201090434,
      "startlon": -71.10129475593567,
      "endname": "MIT Stata Center at Vassar St / Main St",
      "endlat": 42.3619622,
      "endlon": -71.0920526,
      "starthour": 11,
      "trip": "'MIT Pacific St at Purrington St', 'MIT Stata Center at Vassar St / Main St'",
      "counts": 40
    },
    {
      "": 111,
      "ID": 111,
      "startname": "MIT Vassar St",
      "startlat": 42.35560121327927,
      "startlon": -71.10394477844237,
      "endname": "MIT Stata Center at Vassar St / Main St",
      "endlat": 42.3619622,
      "endlon": -71.0920526,
      "starthour": 11,
      "trip": "'MIT Stata Center at Vassar St / Main St', 'MIT Vassar St'",
      "counts": 33
    },
    {
      "": 112,
      "ID": 112,
      "startname": "MIT at Mass Ave / Amherst St",
      "startlat": 42.3581,
      "startlon": -71.093198,
      "endname": "MIT Vassar St",
      "endlat": 42.35560121327927,
      "endlon": -71.10394477844237,
      "starthour": 11,
      "trip": "'MIT Vassar St', 'MIT at Mass Ave / Amherst St'",
      "counts": 33
    },
    {
      "": 113,
      "ID": 113,
      "startname": "Beacon St at Massachusetts Ave",
      "startlat": 42.350826806690954,
      "startlon": -71.0898108780384,
      "endname": "MIT at Mass Ave / Amherst St",
      "endlat": 42.3581,
      "endlon": -71.093198,
      "starthour": 11,
      "trip": "'Beacon St at Massachusetts Ave', 'MIT at Mass Ave / Amherst St'",
      "counts": 31
    },
    {
      "": 114,
      "ID": 114,
      "startname": "MIT Pacific St at Purrington St",
      "startlat": 42.359573201090434,
      "startlon": -71.10129475593567,
      "endname": "Kendall T",
      "endlat": 42.362427842912396,
      "endlon": -71.08495473861693,
      "starthour": 11,
      "trip": "'Kendall T', 'MIT Pacific St at Purrington St'",
      "counts": 24
    },
    {
      "": 115,
      "ID": 115,
      "startname": "MIT at Mass Ave / Amherst St",
      "startlat": 42.3581,
      "startlon": -71.093198,
      "endname": "MIT Stata Center at Vassar St / Main St",
      "endlat": 42.3619622,
      "endlon": -71.0920526,
      "starthour": 11,
      "trip": "'MIT Stata Center at Vassar St / Main St', 'MIT at Mass Ave / Amherst St'",
      "counts": 23
    },
    {
      "": 116,
      "ID": 116,
      "startname": "Ames St at Main St",
      "startlat": 42.3625,
      "startlon": -71.08821999999999,
      "endname": "MIT Pacific St at Purrington St",
      "endlat": 42.359573201090434,
      "endlon": -71.10129475593567,
      "starthour": 11,
      "trip": "'Ames St at Main St', 'MIT Pacific St at Purrington St'",
      "counts": 21
    },
    {
      "": 117,
      "ID": 117,
      "startname": "Beacon St at Arlington St",
      "startlat": 42.355549323361345,
      "startlon": -71.07284188270569,
      "endname": "Beacon St at Arlington St",
      "endlat": 42.355549323361345,
      "endlon": -71.07284188270569,
      "starthour": 11,
      "trip": "'Beacon St at Arlington St', 'Beacon St at Arlington St'",
      "counts": 20
    },
    {
      "": 118,
      "ID": 118,
      "startname": "Harvard Kennedy School at Bennett St / Eliot St",
      "startlat": 42.371991654086756,
      "startlon": -71.12226963043213,
      "endname": "Harvard University Housing - 115 Putnam Ave at Peabody Terrace",
      "endlat": 42.366621,
      "endlon": -71.114214,
      "starthour": 11,
      "trip": "'Harvard Kennedy School at Bennett St / Eliot St', 'Harvard University Housing - 115 Putnam Ave at Peabody Terrace'",
      "counts": 20
    },
    {
      "": 119,
      "ID": 119,
      "startname": "Harvard Square at Mass Ave/ Dunster",
      "startlat": 42.373267999999996,
      "startlon": -71.118579,
      "endname": "MIT at Mass Ave / Amherst St",
      "endlat": 42.3581,
      "endlon": -71.093198,
      "starthour": 11,
      "trip": "'Harvard Square at Mass Ave/ Dunster', 'MIT at Mass Ave / Amherst St'",
      "counts": 19
    },
    {
      "": 120,
      "ID": 120,
      "startname": "MIT at Mass Ave / Amherst St",
      "startlat": 42.3581,
      "startlon": -71.093198,
      "endname": "MIT Vassar St",
      "endlat": 42.35560121327927,
      "endlon": -71.10394477844237,
      "starthour": 12,
      "trip": "'MIT Vassar St', 'MIT at Mass Ave / Amherst St'",
      "counts": 47
    },
    {
      "": 121,
      "ID": 121,
      "startname": "MIT Stata Center at Vassar St / Main St",
      "startlat": 42.3619622,
      "startlon": -71.0920526,
      "endname": "MIT Vassar St",
      "endlat": 42.35560121327927,
      "endlon": -71.10394477844237,
      "starthour": 12,
      "trip": "'MIT Stata Center at Vassar St / Main St', 'MIT Vassar St'",
      "counts": 40
    },
    {
      "": 122,
      "ID": 122,
      "startname": "MIT at Mass Ave / Amherst St",
      "startlat": 42.3581,
      "startlon": -71.093198,
      "endname": "Harvard Square at Mass Ave/ Dunster",
      "endlat": 42.373267999999996,
      "endlon": -71.118579,
      "starthour": 12,
      "trip": "'Harvard Square at Mass Ave/ Dunster', 'MIT at Mass Ave / Amherst St'",
      "counts": 33
    },
    {
      "": 123,
      "ID": 123,
      "startname": "MIT Stata Center at Vassar St / Main St",
      "startlat": 42.3619622,
      "startlon": -71.0920526,
      "endname": "MIT Pacific St at Purrington St",
      "endlat": 42.359573201090434,
      "endlon": -71.10129475593567,
      "starthour": 12,
      "trip": "'MIT Pacific St at Purrington St', 'MIT Stata Center at Vassar St / Main St'",
      "counts": 31
    },
    {
      "": 124,
      "ID": 124,
      "startname": "Beacon St at Massachusetts Ave",
      "startlat": 42.350826806690954,
      "startlon": -71.0898108780384,
      "endname": "MIT at Mass Ave / Amherst St",
      "endlat": 42.3581,
      "endlon": -71.093198,
      "starthour": 12,
      "trip": "'Beacon St at Massachusetts Ave', 'MIT at Mass Ave / Amherst St'",
      "counts": 28
    },
    {
      "": 125,
      "ID": 125,
      "startname": "MIT at Mass Ave / Amherst St",
      "startlat": 42.3581,
      "startlon": -71.093198,
      "endname": "Central Square at Mass Ave / Essex St",
      "endlat": 42.36507,
      "endlon": -71.1031,
      "starthour": 12,
      "trip": "'Central Square at Mass Ave / Essex St', 'MIT at Mass Ave / Amherst St'",
      "counts": 24
    },
    {
      "": 126,
      "ID": 126,
      "startname": "Back Bay T Stop - Dartmouth St at Stuart St",
      "startlat": 42.34807412317439,
      "startlon": -71.07657015323639,
      "endname": "Back Bay T Stop - Dartmouth St at Stuart St",
      "endlat": 42.34807412317439,
      "endlon": -71.07657015323639,
      "starthour": 12,
      "trip": "'Back Bay T Stop - Dartmouth St at Stuart St', 'Back Bay T Stop - Dartmouth St at Stuart St'",
      "counts": 22
    },
    {
      "": 127,
      "ID": 127,
      "startname": "MIT at Mass Ave / Amherst St",
      "startlat": 42.3581,
      "startlon": -71.093198,
      "endname": "MIT Pacific St at Purrington St",
      "endlat": 42.359573201090434,
      "endlon": -71.10129475593567,
      "starthour": 12,
      "trip": "'MIT Pacific St at Purrington St', 'MIT at Mass Ave / Amherst St'",
      "counts": 22
    },
    {
      "": 128,
      "ID": 128,
      "startname": "Warren St at Chelsea St",
      "startlat": 42.371848,
      "startlon": -71.060292,
      "endname": "Cross St at Hanover St",
      "endlat": 42.362811,
      "endlon": -71.056067,
      "starthour": 12,
      "trip": "'Cross St at Hanover St', 'Warren St at Chelsea St'",
      "counts": 18
    },
    {
      "": 129,
      "ID": 129,
      "startname": "Prudential Center - Belvedere St",
      "startlat": 42.345959,
      "startlon": -71.082578,
      "endname": "Prudential Center - Belvedere St",
      "endlat": 42.345959,
      "endlon": -71.082578,
      "starthour": 12,
      "trip": "'Prudential Center - Belvedere St', 'Prudential Center - Belvedere St'",
      "counts": 18
    },
    {
      "": 130,
      "ID": 130,
      "startname": "MIT at Mass Ave / Amherst St",
      "startlat": 42.3581,
      "startlon": -71.093198,
      "endname": "MIT Vassar St",
      "endlat": 42.35560121327927,
      "endlon": -71.10394477844237,
      "starthour": 13,
      "trip": "'MIT Vassar St', 'MIT at Mass Ave / Amherst St'",
      "counts": 48
    },
    {
      "": 131,
      "ID": 131,
      "startname": "MIT at Mass Ave / Amherst St",
      "startlat": 42.3581,
      "startlon": -71.093198,
      "endname": "Beacon St at Massachusetts Ave",
      "endlat": 42.350826806690954,
      "endlon": -71.0898108780384,
      "starthour": 13,
      "trip": "'Beacon St at Massachusetts Ave', 'MIT at Mass Ave / Amherst St'",
      "counts": 46
    },
    {
      "": 132,
      "ID": 132,
      "startname": "MIT at Mass Ave / Amherst St",
      "startlat": 42.3581,
      "startlon": -71.093198,
      "endname": "Kendall T",
      "endlat": 42.362427842912396,
      "endlon": -71.08495473861693,
      "starthour": 13,
      "trip": "'Kendall T', 'MIT at Mass Ave / Amherst St'",
      "counts": 39
    },
    {
      "": 133,
      "ID": 133,
      "startname": "Harvard Square at Mass Ave/ Dunster",
      "startlat": 42.373267999999996,
      "startlon": -71.118579,
      "endname": "MIT at Mass Ave / Amherst St",
      "endlat": 42.3581,
      "endlon": -71.093198,
      "starthour": 13,
      "trip": "'Harvard Square at Mass Ave/ Dunster', 'MIT at Mass Ave / Amherst St'",
      "counts": 27
    },
    {
      "": 134,
      "ID": 134,
      "startname": "MIT Vassar St",
      "startlat": 42.35560121327927,
      "startlon": -71.10394477844237,
      "endname": "MIT Stata Center at Vassar St / Main St",
      "endlat": 42.3619622,
      "endlon": -71.0920526,
      "starthour": 13,
      "trip": "'MIT Stata Center at Vassar St / Main St', 'MIT Vassar St'",
      "counts": 24
    },
    {
      "": 135,
      "ID": 135,
      "startname": "Kendall T",
      "startlat": 42.362427842912396,
      "startlon": -71.08495473861693,
      "endname": "MIT Vassar St",
      "endlat": 42.35560121327927,
      "endlon": -71.10394477844237,
      "starthour": 13,
      "trip": "'Kendall T', 'MIT Vassar St'",
      "counts": 23
    },
    {
      "": 136,
      "ID": 136,
      "startname": "MIT at Mass Ave / Amherst St",
      "startlat": 42.3581,
      "startlon": -71.093198,
      "endname": "MIT Pacific St at Purrington St",
      "endlat": 42.359573201090434,
      "endlon": -71.10129475593567,
      "starthour": 13,
      "trip": "'MIT Pacific St at Purrington St', 'MIT at Mass Ave / Amherst St'",
      "counts": 21
    },
    {
      "": 137,
      "ID": 137,
      "startname": "Beacon St at Arlington St",
      "startlat": 42.355549323361345,
      "startlon": -71.07284188270569,
      "endname": "Copley Square - Dartmouth St at Boylston St",
      "endlat": 42.34976701008725,
      "endlon": -71.0773265361786,
      "starthour": 13,
      "trip": "'Beacon St at Arlington St', 'Copley Square - Dartmouth St at Boylston St'",
      "counts": 19
    },
    {
      "": 138,
      "ID": 138,
      "startname": "MIT Pacific St at Purrington St",
      "startlat": 42.359573201090434,
      "startlon": -71.10129475593567,
      "endname": "MIT Stata Center at Vassar St / Main St",
      "endlat": 42.3619622,
      "endlon": -71.0920526,
      "starthour": 13,
      "trip": "'MIT Pacific St at Purrington St', 'MIT Stata Center at Vassar St / Main St'",
      "counts": 19
    },
    {
      "": 139,
      "ID": 139,
      "startname": "Commonwealth Ave at Buick St",
      "startlat": 42.351246,
      "startlon": -71.115639,
      "endname": "B.U. Central - 725 Comm. Ave.",
      "endlat": 42.350406,
      "endlon": -71.10827900000001,
      "starthour": 13,
      "trip": "'B.U. Central - 725 Comm. Ave.', 'Commonwealth Ave at Buick St'",
      "counts": 19
    },
    {
      "": 140,
      "ID": 140,
      "startname": "Beacon St at Arlington St",
      "startlat": 42.355549323361345,
      "startlon": -71.07284188270569,
      "endname": "Beacon St at Arlington St",
      "endlat": 42.355549323361345,
      "endlon": -71.07284188270569,
      "starthour": 14,
      "trip": "'Beacon St at Arlington St', 'Beacon St at Arlington St'",
      "counts": 40
    },
    {
      "": 141,
      "ID": 141,
      "startname": "Kendall T",
      "startlat": 42.362427842912396,
      "startlon": -71.08495473861693,
      "endname": "MIT at Mass Ave / Amherst St",
      "endlat": 42.3581,
      "endlon": -71.093198,
      "starthour": 14,
      "trip": "'Kendall T', 'MIT at Mass Ave / Amherst St'",
      "counts": 39
    },
    {
      "": 142,
      "ID": 142,
      "startname": "MIT at Mass Ave / Amherst St",
      "startlat": 42.3581,
      "startlon": -71.093198,
      "endname": "Beacon St at Massachusetts Ave",
      "endlat": 42.350826806690954,
      "endlon": -71.0898108780384,
      "starthour": 14,
      "trip": "'Beacon St at Massachusetts Ave', 'MIT at Mass Ave / Amherst St'",
      "counts": 36
    },
    {
      "": 143,
      "ID": 143,
      "startname": "MIT Vassar St",
      "startlat": 42.35560121327927,
      "startlon": -71.10394477844237,
      "endname": "MIT at Mass Ave / Amherst St",
      "endlat": 42.3581,
      "endlon": -71.093198,
      "starthour": 14,
      "trip": "'MIT Vassar St', 'MIT at Mass Ave / Amherst St'",
      "counts": 30
    },
    {
      "": 144,
      "ID": 144,
      "startname": "MIT at Mass Ave / Amherst St",
      "startlat": 42.3581,
      "startlon": -71.093198,
      "endname": "Harvard Square at Mass Ave/ Dunster",
      "endlat": 42.373267999999996,
      "endlon": -71.118579,
      "starthour": 14,
      "trip": "'Harvard Square at Mass Ave/ Dunster', 'MIT at Mass Ave / Amherst St'",
      "counts": 26
    },
    {
      "": 145,
      "ID": 145,
      "startname": "MIT at Mass Ave / Amherst St",
      "startlat": 42.3581,
      "startlon": -71.093198,
      "endname": "MIT Pacific St at Purrington St",
      "endlat": 42.359573201090434,
      "endlon": -71.10129475593567,
      "starthour": 14,
      "trip": "'MIT Pacific St at Purrington St', 'MIT at Mass Ave / Amherst St'",
      "counts": 25
    },
    {
      "": 146,
      "ID": 146,
      "startname": "MIT Vassar St",
      "startlat": 42.35560121327927,
      "startlon": -71.10394477844237,
      "endname": "MIT Stata Center at Vassar St / Main St",
      "endlat": 42.3619622,
      "endlon": -71.0920526,
      "starthour": 14,
      "trip": "'MIT Stata Center at Vassar St / Main St', 'MIT Vassar St'",
      "counts": 25
    },
    {
      "": 147,
      "ID": 147,
      "startname": "Charles Circle - Charles St at Cambridge St",
      "startlat": 42.36071444836764,
      "startlon": -71.07092812657356,
      "endname": "Harvard Square at Mass Ave/ Dunster",
      "endlat": 42.373267999999996,
      "endlon": -71.118579,
      "starthour": 14,
      "trip": "'Charles Circle - Charles St at Cambridge St', 'Harvard Square at Mass Ave/ Dunster'",
      "counts": 22
    },
    {
      "": 148,
      "ID": 148,
      "startname": "MIT Stata Center at Vassar St / Main St",
      "startlat": 42.3619622,
      "startlon": -71.0920526,
      "endname": "MIT Pacific St at Purrington St",
      "endlat": 42.359573201090434,
      "endlon": -71.10129475593567,
      "starthour": 14,
      "trip": "'MIT Pacific St at Purrington St', 'MIT Stata Center at Vassar St / Main St'",
      "counts": 21
    },
    {
      "": 149,
      "ID": 149,
      "startname": "Kendall T",
      "startlat": 42.362427842912396,
      "startlon": -71.08495473861693,
      "endname": "MIT Pacific St at Purrington St",
      "endlat": 42.359573201090434,
      "endlon": -71.10129475593567,
      "starthour": 14,
      "trip": "'Kendall T', 'MIT Pacific St at Purrington St'",
      "counts": 21
    },
    {
      "": 150,
      "ID": 150,
      "startname": "MIT at Mass Ave / Amherst St",
      "startlat": 42.3581,
      "startlon": -71.093198,
      "endname": "Beacon St at Massachusetts Ave",
      "endlat": 42.350826806690954,
      "endlon": -71.0898108780384,
      "starthour": 15,
      "trip": "'Beacon St at Massachusetts Ave', 'MIT at Mass Ave / Amherst St'",
      "counts": 53
    },
    {
      "": 151,
      "ID": 151,
      "startname": "Beacon St at Arlington St",
      "startlat": 42.355549323361345,
      "startlon": -71.07284188270569,
      "endname": "Beacon St at Arlington St",
      "endlat": 42.355549323361345,
      "endlon": -71.07284188270569,
      "starthour": 15,
      "trip": "'Beacon St at Arlington St', 'Beacon St at Arlington St'",
      "counts": 38
    },
    {
      "": 152,
      "ID": 152,
      "startname": "MIT Vassar St",
      "startlat": 42.35560121327927,
      "startlon": -71.10394477844237,
      "endname": "MIT Stata Center at Vassar St / Main St",
      "endlat": 42.3619622,
      "endlon": -71.0920526,
      "starthour": 15,
      "trip": "'MIT Stata Center at Vassar St / Main St', 'MIT Vassar St'",
      "counts": 30
    },
    {
      "": 153,
      "ID": 153,
      "startname": "MIT at Mass Ave / Amherst St",
      "startlat": 42.3581,
      "startlon": -71.093198,
      "endname": "Harvard Square at Mass Ave/ Dunster",
      "endlat": 42.373267999999996,
      "endlon": -71.118579,
      "starthour": 15,
      "trip": "'Harvard Square at Mass Ave/ Dunster', 'MIT at Mass Ave / Amherst St'",
      "counts": 29
    },
    {
      "": 154,
      "ID": 154,
      "startname": "MIT Vassar St",
      "startlat": 42.35560121327927,
      "startlon": -71.10394477844237,
      "endname": "MIT at Mass Ave / Amherst St",
      "endlat": 42.3581,
      "endlon": -71.093198,
      "starthour": 15,
      "trip": "'MIT Vassar St', 'MIT at Mass Ave / Amherst St'",
      "counts": 27
    },
    {
      "": 155,
      "ID": 155,
      "startname": "MIT at Mass Ave / Amherst St",
      "startlat": 42.3581,
      "startlon": -71.093198,
      "endname": "Kendall T",
      "endlat": 42.362427842912396,
      "endlon": -71.08495473861693,
      "starthour": 15,
      "trip": "'Kendall T', 'MIT at Mass Ave / Amherst St'",
      "counts": 26
    },
    {
      "": 156,
      "ID": 156,
      "startname": "Kendall T",
      "startlat": 42.362427842912396,
      "startlon": -71.08495473861693,
      "endname": "MIT Pacific St at Purrington St",
      "endlat": 42.359573201090434,
      "endlon": -71.10129475593567,
      "starthour": 15,
      "trip": "'Kendall T', 'MIT Pacific St at Purrington St'",
      "counts": 25
    },
    {
      "": 157,
      "ID": 157,
      "startname": "MIT at Mass Ave / Amherst St",
      "startlat": 42.3581,
      "startlon": -71.093198,
      "endname": "MIT Pacific St at Purrington St",
      "endlat": 42.359573201090434,
      "endlon": -71.10129475593567,
      "starthour": 15,
      "trip": "'MIT Pacific St at Purrington St', 'MIT at Mass Ave / Amherst St'",
      "counts": 24
    },
    {
      "": 158,
      "ID": 158,
      "startname": "MIT Pacific St at Purrington St",
      "startlat": 42.359573201090434,
      "startlon": -71.10129475593567,
      "endname": "MIT Stata Center at Vassar St / Main St",
      "endlat": 42.3619622,
      "endlon": -71.0920526,
      "starthour": 15,
      "trip": "'MIT Pacific St at Purrington St', 'MIT Stata Center at Vassar St / Main St'",
      "counts": 23
    },
    {
      "": 159,
      "ID": 159,
      "startname": "Central Square at Mass Ave / Essex St",
      "startlat": 42.36507,
      "startlon": -71.1031,
      "endname": "MIT at Mass Ave / Amherst St",
      "endlat": 42.3581,
      "endlon": -71.093198,
      "starthour": 15,
      "trip": "'Central Square at Mass Ave / Essex St', 'MIT at Mass Ave / Amherst St'",
      "counts": 22
    },
    {
      "": 160,
      "ID": 160,
      "startname": "Beacon St at Massachusetts Ave",
      "startlat": 42.350826806690954,
      "startlon": -71.0898108780384,
      "endname": "MIT at Mass Ave / Amherst St",
      "endlat": 42.3581,
      "endlon": -71.093198,
      "starthour": 16,
      "trip": "'Beacon St at Massachusetts Ave', 'MIT at Mass Ave / Amherst St'",
      "counts": 54
    },
    {
      "": 161,
      "ID": 161,
      "startname": "Harvard Square at Mass Ave/ Dunster",
      "startlat": 42.373267999999996,
      "startlon": -71.118579,
      "endname": "MIT at Mass Ave / Amherst St",
      "endlat": 42.3581,
      "endlon": -71.093198,
      "starthour": 16,
      "trip": "'Harvard Square at Mass Ave/ Dunster', 'MIT at Mass Ave / Amherst St'",
      "counts": 44
    },
    {
      "": 162,
      "ID": 162,
      "startname": "Congress St at Sleeper St",
      "startlat": 42.351004495946704,
      "startlon": -71.04930013418199,
      "endname": "Nashua Street at Red Auerbach Way",
      "endlat": 42.365673,
      "endlon": -71.064263,
      "starthour": 16,
      "trip": "'Congress St at Sleeper St', 'Nashua Street at Red Auerbach Way'",
      "counts": 42
    },
    {
      "": 163,
      "ID": 163,
      "startname": "MIT Vassar St",
      "startlat": 42.35560121327927,
      "startlon": -71.10394477844237,
      "endname": "MIT Stata Center at Vassar St / Main St",
      "endlat": 42.3619622,
      "endlon": -71.0920526,
      "starthour": 16,
      "trip": "'MIT Stata Center at Vassar St / Main St', 'MIT Vassar St'",
      "counts": 36
    },
    {
      "": 164,
      "ID": 164,
      "startname": "MIT at Mass Ave / Amherst St",
      "startlat": 42.3581,
      "startlon": -71.093198,
      "endname": "MIT Vassar St",
      "endlat": 42.35560121327927,
      "endlon": -71.10394477844237,
      "starthour": 16,
      "trip": "'MIT Vassar St', 'MIT at Mass Ave / Amherst St'",
      "counts": 34
    },
    {
      "": 165,
      "ID": 165,
      "startname": "Kendall T",
      "startlat": 42.362427842912396,
      "startlon": -71.08495473861693,
      "endname": "MIT at Mass Ave / Amherst St",
      "endlat": 42.3581,
      "endlon": -71.093198,
      "starthour": 16,
      "trip": "'Kendall T', 'MIT at Mass Ave / Amherst St'",
      "counts": 32
    },
    {
      "": 166,
      "ID": 166,
      "startname": "MIT Vassar St",
      "startlat": 42.35560121327927,
      "startlon": -71.10394477844237,
      "endname": "Ames St at Main St",
      "endlat": 42.3625,
      "endlon": -71.08821999999999,
      "starthour": 16,
      "trip": "'Ames St at Main St', 'MIT Vassar St'",
      "counts": 31
    },
    {
      "": 167,
      "ID": 167,
      "startname": "Nashua Street at Red Auerbach Way",
      "startlat": 42.365673,
      "startlon": -71.064263,
      "endname": "South Station - 700 Atlantic Ave",
      "endlat": 42.352175,
      "endlon": -71.055547,
      "starthour": 16,
      "trip": "'Nashua Street at Red Auerbach Way', 'South Station - 700 Atlantic Ave'",
      "counts": 31
    },
    {
      "": 168,
      "ID": 168,
      "startname": "Post Office Square - Pearl St at Milk St",
      "startlat": 42.356755,
      "startlon": -71.05540699999999,
      "endname": "Nashua Street at Red Auerbach Way",
      "endlat": 42.365673,
      "endlon": -71.064263,
      "starthour": 16,
      "trip": "'Nashua Street at Red Auerbach Way', 'Post Office Square - Pearl St at Milk St'",
      "counts": 31
    },
    {
      "": 169,
      "ID": 169,
      "startname": "Beacon St at Arlington St",
      "startlat": 42.355549323361345,
      "startlon": -71.07284188270569,
      "endname": "Beacon St at Arlington St",
      "endlat": 42.355549323361345,
      "endlon": -71.07284188270569,
      "starthour": 16,
      "trip": "'Beacon St at Arlington St', 'Beacon St at Arlington St'",
      "counts": 26
    },
    {
      "": 170,
      "ID": 170,
      "startname": "MIT at Mass Ave / Amherst St",
      "startlat": 42.3581,
      "startlon": -71.093198,
      "endname": "MIT Vassar St",
      "endlat": 42.35560121327927,
      "endlon": -71.10394477844237,
      "starthour": 17,
      "trip": "'MIT Vassar St', 'MIT at Mass Ave / Amherst St'",
      "counts": 58
    },
    {
      "": 171,
      "ID": 171,
      "startname": "MIT at Mass Ave / Amherst St",
      "startlat": 42.3581,
      "startlon": -71.093198,
      "endname": "Beacon St at Massachusetts Ave",
      "endlat": 42.350826806690954,
      "endlon": -71.0898108780384,
      "starthour": 17,
      "trip": "'Beacon St at Massachusetts Ave', 'MIT at Mass Ave / Amherst St'",
      "counts": 52
    },
    {
      "": 172,
      "ID": 172,
      "startname": "Davis Square",
      "startlat": 42.396969,
      "startlon": -71.123024,
      "endname": "Linear Park - Mass. Ave. at Cameron Ave.",
      "endlat": 42.397828000000004,
      "endlon": -71.130516,
      "starthour": 17,
      "trip": "'Davis Square', 'Linear Park - Mass. Ave. at Cameron Ave. '",
      "counts": 45
    },
    {
      "": 173,
      "ID": 173,
      "startname": "Rowes Wharf at Atlantic Ave",
      "startlat": 42.357143,
      "startlon": -71.050699,
      "endname": "Cross St at Hanover St",
      "endlat": 42.362811,
      "endlon": -71.056067,
      "starthour": 17,
      "trip": "'Cross St at Hanover St', 'Rowes Wharf at Atlantic Ave'",
      "counts": 40
    },
    {
      "": 174,
      "ID": 174,
      "startname": "South Station - 700 Atlantic Ave",
      "startlat": 42.352175,
      "startlon": -71.055547,
      "endname": "Nashua Street at Red Auerbach Way",
      "endlat": 42.365673,
      "endlon": -71.064263,
      "starthour": 17,
      "trip": "'Nashua Street at Red Auerbach Way', 'South Station - 700 Atlantic Ave'",
      "counts": 39
    },
    {
      "": 175,
      "ID": 175,
      "startname": "Central Square at Mass Ave / Essex St",
      "startlat": 42.36507,
      "startlon": -71.1031,
      "endname": "MIT at Mass Ave / Amherst St",
      "endlat": 42.3581,
      "endlon": -71.093198,
      "starthour": 17,
      "trip": "'Central Square at Mass Ave / Essex St', 'MIT at Mass Ave / Amherst St'",
      "counts": 36
    },
    {
      "": 176,
      "ID": 176,
      "startname": "Beacon St at Arlington St",
      "startlat": 42.355549323361345,
      "startlon": -71.07284188270569,
      "endname": "Beacon St at Arlington St",
      "endlat": 42.355549323361345,
      "endlon": -71.07284188270569,
      "starthour": 17,
      "trip": "'Beacon St at Arlington St', 'Beacon St at Arlington St'",
      "counts": 35
    },
    {
      "": 177,
      "ID": 177,
      "startname": "MIT Stata Center at Vassar St / Main St",
      "startlat": 42.3619622,
      "startlon": -71.0920526,
      "endname": "MIT Pacific St at Purrington St",
      "endlat": 42.359573201090434,
      "endlon": -71.10129475593567,
      "starthour": 17,
      "trip": "'MIT Pacific St at Purrington St', 'MIT Stata Center at Vassar St / Main St'",
      "counts": 35
    },
    {
      "": 178,
      "ID": 178,
      "startname": "South Station - 700 Atlantic Ave",
      "startlat": 42.352175,
      "startlon": -71.055547,
      "endname": "Ink Block - Harrison Ave at Herald St",
      "endlat": 42.345901,
      "endlon": -71.063187,
      "starthour": 17,
      "trip": "'Ink Block - Harrison Ave at Herald St', 'South Station - 700 Atlantic Ave'",
      "counts": 34
    },
    {
      "": 179,
      "ID": 179,
      "startname": "MIT Stata Center at Vassar St / Main St",
      "startlat": 42.3619622,
      "startlon": -71.0920526,
      "endname": "MIT Vassar St",
      "endlat": 42.35560121327927,
      "endlon": -71.10394477844237,
      "starthour": 17,
      "trip": "'MIT Stata Center at Vassar St / Main St', 'MIT Vassar St'",
      "counts": 32
    },
    {
      "": 180,
      "ID": 180,
      "startname": "Beacon St at Massachusetts Ave",
      "startlat": 42.350826806690954,
      "startlon": -71.0898108780384,
      "endname": "MIT at Mass Ave / Amherst St",
      "endlat": 42.3581,
      "endlon": -71.093198,
      "starthour": 18,
      "trip": "'Beacon St at Massachusetts Ave', 'MIT at Mass Ave / Amherst St'",
      "counts": 53
    },
    {
      "": 181,
      "ID": 181,
      "startname": "MIT Stata Center at Vassar St / Main St",
      "startlat": 42.3619622,
      "startlon": -71.0920526,
      "endname": "MIT Vassar St",
      "endlat": 42.35560121327927,
      "endlon": -71.10394477844237,
      "starthour": 18,
      "trip": "'MIT Stata Center at Vassar St / Main St', 'MIT Vassar St'",
      "counts": 49
    },
    {
      "": 182,
      "ID": 182,
      "startname": "Harvard Square at Mass Ave/ Dunster",
      "startlat": 42.373267999999996,
      "startlon": -71.118579,
      "endname": "MIT at Mass Ave / Amherst St",
      "endlat": 42.3581,
      "endlon": -71.093198,
      "starthour": 18,
      "trip": "'Harvard Square at Mass Ave/ Dunster', 'MIT at Mass Ave / Amherst St'",
      "counts": 36
    },
    {
      "": 183,
      "ID": 183,
      "startname": "MIT Stata Center at Vassar St / Main St",
      "startlat": 42.3619622,
      "startlon": -71.0920526,
      "endname": "MIT Pacific St at Purrington St",
      "endlat": 42.359573201090434,
      "endlon": -71.10129475593567,
      "starthour": 18,
      "trip": "'MIT Pacific St at Purrington St', 'MIT Stata Center at Vassar St / Main St'",
      "counts": 35
    },
    {
      "": 184,
      "ID": 184,
      "startname": "MIT at Mass Ave / Amherst St",
      "startlat": 42.3581,
      "startlon": -71.093198,
      "endname": "MIT Vassar St",
      "endlat": 42.35560121327927,
      "endlon": -71.10394477844237,
      "starthour": 18,
      "trip": "'MIT Vassar St', 'MIT at Mass Ave / Amherst St'",
      "counts": 34
    },
    {
      "": 185,
      "ID": 185,
      "startname": "Davis Square",
      "startlat": 42.396969,
      "startlon": -71.123024,
      "endname": "Linear Park - Mass. Ave. at Cameron Ave.",
      "endlat": 42.397828000000004,
      "endlon": -71.130516,
      "starthour": 18,
      "trip": "'Davis Square', 'Linear Park - Mass. Ave. at Cameron Ave. '",
      "counts": 31
    },
    {
      "": 186,
      "ID": 186,
      "startname": "Central Square at Mass Ave / Essex St",
      "startlat": 42.36507,
      "startlon": -71.1031,
      "endname": "MIT at Mass Ave / Amherst St",
      "endlat": 42.3581,
      "endlon": -71.093198,
      "starthour": 18,
      "trip": "'Central Square at Mass Ave / Essex St', 'MIT at Mass Ave / Amherst St'",
      "counts": 27
    },
    {
      "": 187,
      "ID": 187,
      "startname": "MIT Vassar St",
      "startlat": 42.35560121327927,
      "startlon": -71.10394477844237,
      "endname": "Central Square at Mass Ave / Essex St",
      "endlat": 42.36507,
      "endlon": -71.1031,
      "starthour": 18,
      "trip": "'Central Square at Mass Ave / Essex St', 'MIT Vassar St'",
      "counts": 24
    },
    {
      "": 188,
      "ID": 188,
      "startname": "MIT at Mass Ave / Amherst St",
      "startlat": 42.3581,
      "startlon": -71.093198,
      "endname": "Kendall T",
      "endlat": 42.362427842912396,
      "endlon": -71.08495473861693,
      "starthour": 18,
      "trip": "'Kendall T', 'MIT at Mass Ave / Amherst St'",
      "counts": 22
    },
    {
      "": 189,
      "ID": 189,
      "startname": "Davis Square",
      "startlat": 42.396969,
      "startlon": -71.123024,
      "endname": "Packard Ave / Powderhouse Blvd",
      "endlat": 42.40449,
      "endlon": -71.123413,
      "starthour": 18,
      "trip": "'Davis Square', 'Packard Ave / Powderhouse Blvd'",
      "counts": 22
    },
    {
      "": 190,
      "ID": 190,
      "startname": "MIT at Mass Ave / Amherst St",
      "startlat": 42.3581,
      "startlon": -71.093198,
      "endname": "Beacon St at Massachusetts Ave",
      "endlat": 42.350826806690954,
      "endlon": -71.0898108780384,
      "starthour": 19,
      "trip": "'Beacon St at Massachusetts Ave', 'MIT at Mass Ave / Amherst St'",
      "counts": 46
    },
    {
      "": 191,
      "ID": 191,
      "startname": "MIT Stata Center at Vassar St / Main St",
      "startlat": 42.3619622,
      "startlon": -71.0920526,
      "endname": "MIT Pacific St at Purrington St",
      "endlat": 42.359573201090434,
      "endlon": -71.10129475593567,
      "starthour": 19,
      "trip": "'MIT Pacific St at Purrington St', 'MIT Stata Center at Vassar St / Main St'",
      "counts": 38
    },
    {
      "": 192,
      "ID": 192,
      "startname": "MIT at Mass Ave / Amherst St",
      "startlat": 42.3581,
      "startlon": -71.093198,
      "endname": "MIT Vassar St",
      "endlat": 42.35560121327927,
      "endlon": -71.10394477844237,
      "starthour": 19,
      "trip": "'MIT Vassar St', 'MIT at Mass Ave / Amherst St'",
      "counts": 37
    },
    {
      "": 193,
      "ID": 193,
      "startname": "MIT at Mass Ave / Amherst St",
      "startlat": 42.3581,
      "startlon": -71.093198,
      "endname": "MIT Pacific St at Purrington St",
      "endlat": 42.359573201090434,
      "endlon": -71.10129475593567,
      "starthour": 19,
      "trip": "'MIT Pacific St at Purrington St', 'MIT at Mass Ave / Amherst St'",
      "counts": 33
    },
    {
      "": 194,
      "ID": 194,
      "startname": "MIT Stata Center at Vassar St / Main St",
      "startlat": 42.3619622,
      "startlon": -71.0920526,
      "endname": "MIT Vassar St",
      "endlat": 42.35560121327927,
      "endlon": -71.10394477844237,
      "starthour": 19,
      "trip": "'MIT Stata Center at Vassar St / Main St', 'MIT Vassar St'",
      "counts": 31
    },
    {
      "": 195,
      "ID": 195,
      "startname": "MIT Pacific St at Purrington St",
      "startlat": 42.359573201090434,
      "startlon": -71.10129475593567,
      "endname": "Central Square at Mass Ave / Essex St",
      "endlat": 42.36507,
      "endlon": -71.1031,
      "starthour": 19,
      "trip": "'Central Square at Mass Ave / Essex St', 'MIT Pacific St at Purrington St'",
      "counts": 25
    },
    {
      "": 196,
      "ID": 196,
      "startname": "MIT at Mass Ave / Amherst St",
      "startlat": 42.3581,
      "startlon": -71.093198,
      "endname": "Central Square at Mass Ave / Essex St",
      "endlat": 42.36507,
      "endlon": -71.1031,
      "starthour": 19,
      "trip": "'Central Square at Mass Ave / Essex St', 'MIT at Mass Ave / Amherst St'",
      "counts": 22
    },
    {
      "": 197,
      "ID": 197,
      "startname": "Davis Square",
      "startlat": 42.396969,
      "startlon": -71.123024,
      "endname": "Linear Park - Mass. Ave. at Cameron Ave.",
      "endlat": 42.397828000000004,
      "endlon": -71.130516,
      "starthour": 19,
      "trip": "'Davis Square', 'Linear Park - Mass. Ave. at Cameron Ave. '",
      "counts": 22
    },
    {
      "": 198,
      "ID": 198,
      "startname": "MIT Pacific St at Purrington St",
      "startlat": 42.359573201090434,
      "startlon": -71.10129475593567,
      "endname": "MIT Vassar St",
      "endlat": 42.35560121327927,
      "endlon": -71.10394477844237,
      "starthour": 19,
      "trip": "'MIT Pacific St at Purrington St', 'MIT Vassar St'",
      "counts": 21
    },
    {
      "": 199,
      "ID": 199,
      "startname": "Kendall T",
      "startlat": 42.362427842912396,
      "startlon": -71.08495473861693,
      "endname": "MIT Pacific St at Purrington St",
      "endlat": 42.359573201090434,
      "endlon": -71.10129475593567,
      "starthour": 19,
      "trip": "'Kendall T', 'MIT Pacific St at Purrington St'",
      "counts": 20
    },
    {
      "": 200,
      "ID": 200,
      "startname": "Beacon St at Massachusetts Ave",
      "startlat": 42.350826806690954,
      "startlon": -71.0898108780384,
      "endname": "MIT at Mass Ave / Amherst St",
      "endlat": 42.3581,
      "endlon": -71.093198,
      "starthour": 20,
      "trip": "'Beacon St at Massachusetts Ave', 'MIT at Mass Ave / Amherst St'",
      "counts": 71
    },
    {
      "": 201,
      "ID": 201,
      "startname": "Central Square at Mass Ave / Essex St",
      "startlat": 42.36507,
      "startlon": -71.1031,
      "endname": "MIT Pacific St at Purrington St",
      "endlat": 42.359573201090434,
      "endlon": -71.10129475593567,
      "starthour": 20,
      "trip": "'Central Square at Mass Ave / Essex St', 'MIT Pacific St at Purrington St'",
      "counts": 30
    },
    {
      "": 202,
      "ID": 202,
      "startname": "MIT Vassar St",
      "startlat": 42.35560121327927,
      "startlon": -71.10394477844237,
      "endname": "MIT at Mass Ave / Amherst St",
      "endlat": 42.3581,
      "endlon": -71.093198,
      "starthour": 20,
      "trip": "'MIT Vassar St', 'MIT at Mass Ave / Amherst St'",
      "counts": 28
    },
    {
      "": 203,
      "ID": 203,
      "startname": "MIT Pacific St at Purrington St",
      "startlat": 42.359573201090434,
      "startlon": -71.10129475593567,
      "endname": "MIT at Mass Ave / Amherst St",
      "endlat": 42.3581,
      "endlon": -71.093198,
      "starthour": 20,
      "trip": "'MIT Pacific St at Purrington St', 'MIT at Mass Ave / Amherst St'",
      "counts": 27
    },
    {
      "": 204,
      "ID": 204,
      "startname": "MIT Vassar St",
      "startlat": 42.35560121327927,
      "startlon": -71.10394477844237,
      "endname": "Lower Cambridgeport at Magazine St/Riverside Rd",
      "endlat": 42.356953999999995,
      "endlon": -71.113687,
      "starthour": 20,
      "trip": "'Lower Cambridgeport at Magazine St/Riverside Rd', 'MIT Vassar St'",
      "counts": 22
    },
    {
      "": 205,
      "ID": 205,
      "startname": "MIT Stata Center at Vassar St / Main St",
      "startlat": 42.3619622,
      "startlon": -71.0920526,
      "endname": "MIT Pacific St at Purrington St",
      "endlat": 42.359573201090434,
      "endlon": -71.10129475593567,
      "starthour": 20,
      "trip": "'MIT Pacific St at Purrington St', 'MIT Stata Center at Vassar St / Main St'",
      "counts": 19
    },
    {
      "": 206,
      "ID": 206,
      "startname": "MIT Pacific St at Purrington St",
      "startlat": 42.359573201090434,
      "startlon": -71.10129475593567,
      "endname": "MIT Vassar St",
      "endlat": 42.35560121327927,
      "endlon": -71.10394477844237,
      "starthour": 20,
      "trip": "'MIT Pacific St at Purrington St', 'MIT Vassar St'",
      "counts": 19
    },
    {
      "": 207,
      "ID": 207,
      "startname": "Kendall T",
      "startlat": 42.362427842912396,
      "startlon": -71.08495473861693,
      "endname": "MIT at Mass Ave / Amherst St",
      "endlat": 42.3581,
      "endlon": -71.093198,
      "starthour": 20,
      "trip": "'Kendall T', 'MIT at Mass Ave / Amherst St'",
      "counts": 19
    },
    {
      "": 208,
      "ID": 208,
      "startname": "MIT Stata Center at Vassar St / Main St",
      "startlat": 42.3619622,
      "startlon": -71.0920526,
      "endname": "MIT Vassar St",
      "endlat": 42.35560121327927,
      "endlon": -71.10394477844237,
      "starthour": 20,
      "trip": "'MIT Stata Center at Vassar St / Main St', 'MIT Vassar St'",
      "counts": 18
    },
    {
      "": 209,
      "ID": 209,
      "startname": "Davis Square",
      "startlat": 42.396969,
      "startlon": -71.123024,
      "endname": "Linear Park - Mass. Ave. at Cameron Ave.",
      "endlat": 42.397828000000004,
      "endlon": -71.130516,
      "starthour": 20,
      "trip": "'Davis Square', 'Linear Park - Mass. Ave. at Cameron Ave. '",
      "counts": 16
    },
    {
      "": 210,
      "ID": 210,
      "startname": "Beacon St at Massachusetts Ave",
      "startlat": 42.350826806690954,
      "startlon": -71.0898108780384,
      "endname": "MIT at Mass Ave / Amherst St",
      "endlat": 42.3581,
      "endlon": -71.093198,
      "starthour": 21,
      "trip": "'Beacon St at Massachusetts Ave', 'MIT at Mass Ave / Amherst St'",
      "counts": 45
    },
    {
      "": 211,
      "ID": 211,
      "startname": "MIT at Mass Ave / Amherst St",
      "startlat": 42.3581,
      "startlon": -71.093198,
      "endname": "MIT Vassar St",
      "endlat": 42.35560121327927,
      "endlon": -71.10394477844237,
      "starthour": 21,
      "trip": "'MIT Vassar St', 'MIT at Mass Ave / Amherst St'",
      "counts": 23
    },
    {
      "": 212,
      "ID": 212,
      "startname": "MIT Stata Center at Vassar St / Main St",
      "startlat": 42.3619622,
      "startlon": -71.0920526,
      "endname": "MIT Vassar St",
      "endlat": 42.35560121327927,
      "endlon": -71.10394477844237,
      "starthour": 21,
      "trip": "'MIT Stata Center at Vassar St / Main St', 'MIT Vassar St'",
      "counts": 18
    },
    {
      "": 213,
      "ID": 213,
      "startname": "MIT at Mass Ave / Amherst St",
      "startlat": 42.3581,
      "startlon": -71.093198,
      "endname": "MIT Pacific St at Purrington St",
      "endlat": 42.359573201090434,
      "endlon": -71.10129475593567,
      "starthour": 21,
      "trip": "'MIT Pacific St at Purrington St', 'MIT at Mass Ave / Amherst St'",
      "counts": 16
    },
    {
      "": 214,
      "ID": 214,
      "startname": "Central Square at Mass Ave / Essex St",
      "startlat": 42.36507,
      "startlon": -71.1031,
      "endname": "MIT at Mass Ave / Amherst St",
      "endlat": 42.3581,
      "endlon": -71.093198,
      "starthour": 21,
      "trip": "'Central Square at Mass Ave / Essex St', 'MIT at Mass Ave / Amherst St'",
      "counts": 15
    },
    {
      "": 215,
      "ID": 215,
      "startname": "MIT Vassar St",
      "startlat": 42.35560121327927,
      "startlon": -71.10394477844237,
      "endname": "MIT Pacific St at Purrington St",
      "endlat": 42.359573201090434,
      "endlon": -71.10129475593567,
      "starthour": 21,
      "trip": "'MIT Pacific St at Purrington St', 'MIT Vassar St'",
      "counts": 15
    },
    {
      "": 216,
      "ID": 216,
      "startname": "Central Square at Mass Ave / Essex St",
      "startlat": 42.36507,
      "startlon": -71.1031,
      "endname": "MIT Pacific St at Purrington St",
      "endlat": 42.359573201090434,
      "endlon": -71.10129475593567,
      "starthour": 21,
      "trip": "'Central Square at Mass Ave / Essex St', 'MIT Pacific St at Purrington St'",
      "counts": 12
    },
    {
      "": 217,
      "ID": 217,
      "startname": "Stuart St at Charles St",
      "startlat": 42.351146,
      "startlon": -71.066289,
      "endname": "Back Bay T Stop - Dartmouth St at Stuart St",
      "endlat": 42.34807412317439,
      "endlon": -71.07657015323639,
      "starthour": 21,
      "trip": "'Back Bay T Stop - Dartmouth St at Stuart St', 'Stuart St at Charles St'",
      "counts": 11
    },
    {
      "": 218,
      "ID": 218,
      "startname": "Lower Cambridgeport at Magazine St/Riverside Rd",
      "startlat": 42.356953999999995,
      "startlon": -71.113687,
      "endname": "MIT Vassar St",
      "endlat": 42.35560121327927,
      "endlon": -71.10394477844237,
      "starthour": 21,
      "trip": "'Lower Cambridgeport at Magazine St/Riverside Rd', 'MIT Vassar St'",
      "counts": 11
    },
    {
      "": 219,
      "ID": 219,
      "startname": "B.U. Central - 725 Comm. Ave.",
      "startlat": 42.350406,
      "startlon": -71.10827900000001,
      "endname": "Packard's Corner - Commonwealth Ave at Brighton Ave",
      "endlat": 42.352261,
      "endlon": -71.12383100000001,
      "starthour": 21,
      "trip": "'B.U. Central - 725 Comm. Ave.', \"Packard's Corner - Commonwealth Ave at Brighton Ave",
      "counts": 10
    },
    {
      "": 220,
      "ID": 220,
      "startname": "MIT at Mass Ave / Amherst St",
      "startlat": 42.3581,
      "startlon": -71.093198,
      "endname": "Beacon St at Massachusetts Ave",
      "endlat": 42.350826806690954,
      "endlon": -71.0898108780384,
      "starthour": 22,
      "trip": "'Beacon St at Massachusetts Ave', 'MIT at Mass Ave / Amherst St'",
      "counts": 18
    },
    {
      "": 221,
      "ID": 221,
      "startname": "MIT Vassar St",
      "startlat": 42.35560121327927,
      "startlon": -71.10394477844237,
      "endname": "MIT Pacific St at Purrington St",
      "endlat": 42.359573201090434,
      "endlon": -71.10129475593567,
      "starthour": 22,
      "trip": "'MIT Pacific St at Purrington St', 'MIT Vassar St'",
      "counts": 14
    },
    {
      "": 222,
      "ID": 222,
      "startname": "MIT at Mass Ave / Amherst St",
      "startlat": 42.3581,
      "startlon": -71.093198,
      "endname": "MIT Pacific St at Purrington St",
      "endlat": 42.359573201090434,
      "endlon": -71.10129475593567,
      "starthour": 22,
      "trip": "'MIT Pacific St at Purrington St', 'MIT at Mass Ave / Amherst St'",
      "counts": 13
    },
    {
      "": 223,
      "ID": 223,
      "startname": "University Park",
      "startlat": 42.36264779118595,
      "startlon": -71.1000609397888,
      "endname": "MIT Vassar St",
      "endlat": 42.35560121327927,
      "endlon": -71.10394477844237,
      "starthour": 22,
      "trip": "'MIT Vassar St', 'University Park'",
      "counts": 12
    },
    {
      "": 224,
      "ID": 224,
      "startname": "B.U. Central - 725 Comm. Ave.",
      "startlat": 42.350406,
      "startlon": -71.10827900000001,
      "endname": "Packard's Corner - Commonwealth Ave at Brighton Ave",
      "endlat": 42.352261,
      "endlon": -71.12383100000001,
      "starthour": 22,
      "trip": "'B.U. Central - 725 Comm. Ave.', \"Packard's Corner - Commonwealth Ave at Brighton Ave",
      "counts": 11
    },
    {
      "": 225,
      "ID": 225,
      "startname": "MIT Vassar St",
      "startlat": 42.35560121327927,
      "startlon": -71.10394477844237,
      "endname": "MIT Stata Center at Vassar St / Main St",
      "endlat": 42.3619622,
      "endlon": -71.0920526,
      "starthour": 22,
      "trip": "'MIT Stata Center at Vassar St / Main St', 'MIT Vassar St'",
      "counts": 11
    },
    {
      "": 226,
      "ID": 226,
      "startname": "MIT Stata Center at Vassar St / Main St",
      "startlat": 42.3619622,
      "startlon": -71.0920526,
      "endname": "MIT Pacific St at Purrington St",
      "endlat": 42.359573201090434,
      "endlon": -71.10129475593567,
      "starthour": 22,
      "trip": "'MIT Pacific St at Purrington St', 'MIT Stata Center at Vassar St / Main St'",
      "counts": 10
    },
    {
      "": 227,
      "ID": 227,
      "startname": "Rowes Wharf at Atlantic Ave",
      "startlat": 42.357143,
      "startlon": -71.050699,
      "endname": "Seaport Square - Seaport Blvd at Northern Ave",
      "endlat": 42.35148193460858,
      "endlon": -71.04436084628105,
      "starthour": 22,
      "trip": "'Rowes Wharf at Atlantic Ave', 'Seaport Square - Seaport Blvd at Northern Ave'",
      "counts": 10
    },
    {
      "": 228,
      "ID": 228,
      "startname": "Harvard Square at Mass Ave/ Dunster",
      "startlat": 42.373267999999996,
      "startlon": -71.118579,
      "endname": "Central Sq Post Office / Cambridge City Hall at Mass Ave / Pleasant St",
      "endlat": 42.366426000000004,
      "endlon": -71.10549499999999,
      "starthour": 22,
      "trip": "'Central Sq Post Office / Cambridge City Hall at Mass Ave / Pleasant St', 'Harvard Square at Mass Ave/ Dunster'",
      "counts": 10
    },
    {
      "": 229,
      "ID": 229,
      "startname": "MIT Pacific St at Purrington St",
      "startlat": 42.359573201090434,
      "startlon": -71.10129475593567,
      "endname": "Central Square at Mass Ave / Essex St",
      "endlat": 42.36507,
      "endlon": -71.1031,
      "starthour": 22,
      "trip": "'Central Square at Mass Ave / Essex St', 'MIT Pacific St at Purrington St'",
      "counts": 9
    },
    {
      "": 230,
      "ID": 230,
      "startname": "Beacon St at Massachusetts Ave",
      "startlat": 42.350826806690954,
      "startlon": -71.0898108780384,
      "endname": "MIT at Mass Ave / Amherst St",
      "endlat": 42.3581,
      "endlon": -71.093198,
      "starthour": 23,
      "trip": "'Beacon St at Massachusetts Ave', 'MIT at Mass Ave / Amherst St'",
      "counts": 19
    },
    {
      "": 231,
      "ID": 231,
      "startname": "Allston Green District - Griggs St at Commonwealth Ave",
      "startlat": 42.348520145812714,
      "startlon": -71.13394662737845,
      "endname": "One Kendall Square at Hampshire St / Portland St",
      "endlat": 42.366277000000004,
      "endlon": -71.09169,
      "starthour": 23,
      "trip": "'Allston Green District - Griggs St at Commonwealth Ave', 'One Kendall Square at Hampshire St / Portland St'",
      "counts": 9
    },
    {
      "": 232,
      "ID": 232,
      "startname": "University Park",
      "startlat": 42.36264779118595,
      "startlon": -71.1000609397888,
      "endname": "MIT Pacific St at Purrington St",
      "endlat": 42.359573201090434,
      "endlon": -71.10129475593567,
      "starthour": 23,
      "trip": "'MIT Pacific St at Purrington St', 'University Park'",
      "counts": 9
    },
    {
      "": 233,
      "ID": 233,
      "startname": "MIT Stata Center at Vassar St / Main St",
      "startlat": 42.3619622,
      "startlon": -71.0920526,
      "endname": "MIT Pacific St at Purrington St",
      "endlat": 42.359573201090434,
      "endlon": -71.10129475593567,
      "starthour": 23,
      "trip": "'MIT Pacific St at Purrington St', 'MIT Stata Center at Vassar St / Main St'",
      "counts": 9
    },
    {
      "": 234,
      "ID": 234,
      "startname": "Tremont St at E Berkeley St",
      "startlat": 42.345392,
      "startlon": -71.069616,
      "endname": "Christian Science Plaza - Massachusetts Ave at Westland Ave",
      "endlat": 42.3436658245146,
      "endlon": -71.08582377433777,
      "starthour": 23,
      "trip": "'Christian Science Plaza - Massachusetts Ave at Westland Ave', 'Tremont St at E Berkeley St'",
      "counts": 8
    },
    {
      "": 235,
      "ID": 235,
      "startname": "Stuart St at Charles St",
      "startlat": 42.351146,
      "startlon": -71.066289,
      "endname": "South Station - 700 Atlantic Ave",
      "endlat": 42.352175,
      "endlon": -71.055547,
      "starthour": 23,
      "trip": "'South Station - 700 Atlantic Ave', 'Stuart St at Charles St'",
      "counts": 8
    },
    {
      "": 236,
      "ID": 236,
      "startname": "Central Square at Mass Ave / Essex St",
      "startlat": 42.36507,
      "startlon": -71.1031,
      "endname": "359 Broadway - Broadway at Fayette Street",
      "endlat": 42.370803,
      "endlon": -71.104412,
      "starthour": 23,
      "trip": "'359 Broadway - Broadway at Fayette Street', 'Central Square at Mass Ave / Essex St'",
      "counts": 7
    },
    {
      "": 237,
      "ID": 237,
      "startname": "MIT at Mass Ave / Amherst St",
      "startlat": 42.3581,
      "startlon": -71.093198,
      "endname": "University Park",
      "endlat": 42.36264779118595,
      "endlon": -71.1000609397888,
      "starthour": 23,
      "trip": "'MIT at Mass Ave / Amherst St', 'University Park'",
      "counts": 7
    },
    {
      "": 238,
      "ID": 238,
      "startname": "MIT Pacific St at Purrington St",
      "startlat": 42.359573201090434,
      "startlon": -71.10129475593567,
      "endname": "MIT Vassar St",
      "endlat": 42.35560121327927,
      "endlon": -71.10394477844237,
      "starthour": 23,
      "trip": "'MIT Pacific St at Purrington St', 'MIT Vassar St'",
      "counts": 7
    },
    {
      "": 239,
      "ID": 239,
      "startname": "MIT at Mass Ave / Amherst St",
      "startlat": 42.3581,
      "startlon": -71.093198,
      "endname": "MIT Pacific St at Purrington St",
      "endlat": 42.359573201090434,
      "endlon": -71.10129475593567,
      "starthour": 23,
      "trip": "'MIT Pacific St at Purrington St', 'MIT at Mass Ave / Amherst St'",
      "counts": 7
    }
  ]