var jan = [
  {
    "": 0,
    "ID": 0,
    "startname": "MIT at Mass Ave / Amherst St",
    "startlat": 42.3581,
    "startlon": -71.093198,
    "endname": "Kendall T",
    "endlat": 42.362427842912396,
    "endlon": -71.08495473861693,
    "starthour": 0,
    "trip": "'Kendall T', 'MIT at Mass Ave / Amherst St'",
    "counts": 8
  },
  {
    "": 1,
    "ID": 1,
    "startname": "MIT Stata Center at Vassar St / Main St",
    "startlat": 42.3619622,
    "startlon": -71.0920526,
    "endname": "MIT Pacific St at Purrington St",
    "endlat": 42.359573201090434,
    "endlon": -71.10129475593567,
    "starthour": 0,
    "trip": "'MIT Pacific St at Purrington St', 'MIT Stata Center at Vassar St / Main St'",
    "counts": 7
  },
  {
    "": 2,
    "ID": 2,
    "startname": "MIT at Mass Ave / Amherst St",
    "startlat": 42.3581,
    "startlon": -71.093198,
    "endname": "MIT Vassar St",
    "endlat": 42.35560121327927,
    "endlon": -71.10394477844237,
    "starthour": 0,
    "trip": "'MIT Vassar St', 'MIT at Mass Ave / Amherst St'",
    "counts": 7
  },
  {
    "": 3,
    "ID": 3,
    "startname": "Ames St at Main St",
    "startlat": 42.3625,
    "startlon": -71.08821999999999,
    "endname": "Cambridge St - at Columbia St / Webster Ave",
    "endlat": 42.372969,
    "endlon": -71.094445,
    "starthour": 0,
    "trip": "'Ames St at Main St', 'Cambridge St - at Columbia St / Webster Ave'",
    "counts": 4
  },
  {
    "": 4,
    "ID": 4,
    "startname": "MIT Stata Center at Vassar St / Main St",
    "startlat": 42.3619622,
    "startlon": -71.0920526,
    "endname": "MIT Vassar St",
    "endlat": 42.35560121327927,
    "endlon": -71.10394477844237,
    "starthour": 0,
    "trip": "'MIT Stata Center at Vassar St / Main St', 'MIT Vassar St'",
    "counts": 4
  },
  {
    "": 5,
    "ID": 5,
    "startname": "MIT Stata Center at Vassar St / Main St",
    "startlat": 42.3619622,
    "startlon": -71.0920526,
    "endname": "One Kendall Square at Hampshire St / Portland St",
    "endlat": 42.366277000000004,
    "endlon": -71.09169,
    "starthour": 0,
    "trip": "'MIT Stata Center at Vassar St / Main St', 'One Kendall Square at Hampshire St / Portland St'",
    "counts": 4
  },
  {
    "": 6,
    "ID": 6,
    "startname": "Ames St at Main St",
    "startlat": 42.3625,
    "startlon": -71.08821999999999,
    "endname": "MIT Vassar St",
    "endlat": 42.35560121327927,
    "endlon": -71.10394477844237,
    "starthour": 0,
    "trip": "'Ames St at Main St', 'MIT Vassar St'",
    "counts": 4
  },
  {
    "": 7,
    "ID": 7,
    "startname": "Binney St / Sixth St",
    "startlat": 42.366095,
    "startlon": -71.086388,
    "endname": "Third at Binney",
    "endlat": 42.365444861373994,
    "endlon": -71.0827714204788,
    "starthour": 0,
    "trip": "'Binney St / Sixth St', 'Third at Binney'",
    "counts": 4
  },
  {
    "": 8,
    "ID": 8,
    "startname": "Kendall T",
    "startlat": 42.362427842912396,
    "startlon": -71.08495473861693,
    "endname": "MIT Pacific St at Purrington St",
    "endlat": 42.359573201090434,
    "endlon": -71.10129475593567,
    "starthour": 0,
    "trip": "'Kendall T', 'MIT Pacific St at Purrington St'",
    "counts": 3
  },
  {
    "": 9,
    "ID": 9,
    "startname": "MIT Pacific St at Purrington St",
    "startlat": 42.359573201090434,
    "startlon": -71.10129475593567,
    "endname": "MIT Pacific St at Purrington St",
    "endlat": 42.359573201090434,
    "endlon": -71.10129475593567,
    "starthour": 0,
    "trip": "'MIT Pacific St at Purrington St', 'MIT Pacific St at Purrington St'",
    "counts": 3
  },
  {
    "": 10,
    "ID": 10,
    "startname": "MIT Pacific St at Purrington St",
    "startlat": 42.359573201090434,
    "startlon": -71.10129475593567,
    "endname": "MIT at Mass Ave / Amherst St",
    "endlat": 42.3581,
    "endlon": -71.093198,
    "starthour": 1,
    "trip": "'MIT Pacific St at Purrington St', 'MIT at Mass Ave / Amherst St'",
    "counts": 5
  },
  {
    "": 11,
    "ID": 11,
    "startname": "Washington St. at Rutland St.",
    "startlat": 42.33849279283789,
    "startlon": -71.07401937246324,
    "endname": "Packard's Corner - Comm. Ave. at Brighton Ave.",
    "endlat": 42.352261,
    "endlon": -71.12383100000001,
    "starthour": 1,
    "trip": "Packard's Corner - Comm. Ave. at Brighton Ave.\", 'Washington St. at Rutland St.'",
    "counts": 4
  },
  {
    "": 12,
    "ID": 12,
    "startname": "One Kendall Square at Hampshire St / Portland St",
    "startlat": 42.366277000000004,
    "startlon": -71.09169,
    "endname": "Linear Park - Mass. Ave. at Cameron Ave.",
    "endlat": 42.397828000000004,
    "endlon": -71.130516,
    "starthour": 1,
    "trip": "'Linear Park - Mass. Ave. at Cameron Ave. ', 'One Kendall Square at Hampshire St / Portland St'",
    "counts": 4
  },
  {
    "": 13,
    "ID": 13,
    "startname": "One Kendall Square at Hampshire St / Portland St",
    "startlat": 42.366277000000004,
    "startlon": -71.09169,
    "endname": "MIT at Mass Ave / Amherst St",
    "endlat": 42.3581,
    "endlon": -71.093198,
    "starthour": 1,
    "trip": "'MIT at Mass Ave / Amherst St', 'One Kendall Square at Hampshire St / Portland St'",
    "counts": 3
  },
  {
    "": 14,
    "ID": 14,
    "startname": "Seaport Square - Seaport Blvd. at Boston Wharf",
    "startlat": 42.351205,
    "startlon": -71.043983,
    "endname": "Day Boulevard",
    "endlat": 42.336448,
    "endlon": -71.023739,
    "starthour": 1,
    "trip": "'Day Boulevard', 'Seaport Square - Seaport Blvd. at Boston Wharf'",
    "counts": 3
  },
  {
    "": 15,
    "ID": 15,
    "startname": "Binney St / Sixth St",
    "startlat": 42.366095,
    "startlon": -71.086388,
    "endname": "Ames St at Main St",
    "endlat": 42.3625,
    "endlon": -71.08821999999999,
    "starthour": 1,
    "trip": "'Ames St at Main St', 'Binney St / Sixth St'",
    "counts": 3
  },
  {
    "": 16,
    "ID": 16,
    "startname": "Ames St at Main St",
    "startlat": 42.3625,
    "startlon": -71.08821999999999,
    "endname": "Cambridge Main Library at Broadway / Trowbridge St",
    "endlat": 42.373379,
    "endlon": -71.111075,
    "starthour": 1,
    "trip": "'Ames St at Main St', 'Cambridge Main Library at Broadway / Trowbridge St'",
    "counts": 3
  },
  {
    "": 17,
    "ID": 17,
    "startname": "Ames St at Main St",
    "startlat": 42.3625,
    "startlon": -71.08821999999999,
    "endname": "Lower Cambridgeport at Magazine St/Riverside Rd",
    "endlat": 42.356953999999995,
    "endlon": -71.113687,
    "starthour": 1,
    "trip": "'Ames St at Main St', 'Lower Cambridgeport at Magazine St/Riverside Rd'",
    "counts": 2
  },
  {
    "": 18,
    "ID": 18,
    "startname": "Chinatown Gate Plaza - Surface Rd. at Beach St.",
    "startlat": 42.351356,
    "startlon": -71.05936700000001,
    "endname": "Packard's Corner - Comm. Ave. at Brighton Ave.",
    "endlat": 42.352261,
    "endlon": -71.12383100000001,
    "starthour": 1,
    "trip": "'Chinatown Gate Plaza - Surface Rd. at Beach St.', \"Packard's Corner - Comm. Ave. at Brighton Ave.",
    "counts": 2
  },
  {
    "": 19,
    "ID": 19,
    "startname": "Central Square at Mass Ave / Essex St",
    "startlat": 42.36507,
    "startlon": -71.1031,
    "endname": "359 Broadway - Broadway at Fayette Street",
    "endlat": 42.370803,
    "endlon": -71.104412,
    "starthour": 1,
    "trip": "'359 Broadway - Broadway at Fayette Street', 'Central Square at Mass Ave / Essex St'",
    "counts": 2
  },
  {
    "": 20,
    "ID": 20,
    "startname": "MIT Stata Center at Vassar St / Main St",
    "startlat": 42.3619622,
    "startlon": -71.0920526,
    "endname": "Lechmere Station at Cambridge St / First St",
    "endlat": 42.370677,
    "endlon": -71.07652900000001,
    "starthour": 2,
    "trip": "'Lechmere Station at Cambridge St / First St', 'MIT Stata Center at Vassar St / Main St'",
    "counts": 4
  },
  {
    "": 21,
    "ID": 21,
    "startname": "MIT Stata Center at Vassar St / Main St",
    "startlat": 42.3619622,
    "startlon": -71.0920526,
    "endname": "MIT Pacific St at Purrington St",
    "endlat": 42.359573201090434,
    "endlon": -71.10129475593567,
    "starthour": 2,
    "trip": "'MIT Pacific St at Purrington St', 'MIT Stata Center at Vassar St / Main St'",
    "counts": 4
  },
  {
    "": 22,
    "ID": 22,
    "startname": "Ames St at Main St",
    "startlat": 42.3625,
    "startlon": -71.08821999999999,
    "endname": "Linear Park - Mass. Ave. at Cameron Ave.",
    "endlat": 42.397828000000004,
    "endlon": -71.130516,
    "starthour": 2,
    "trip": "'Ames St at Main St', 'Linear Park - Mass. Ave. at Cameron Ave. '",
    "counts": 4
  },
  {
    "": 23,
    "ID": 23,
    "startname": "MIT at Mass Ave / Amherst St",
    "startlat": 42.3581,
    "startlon": -71.093198,
    "endname": "Kendall T",
    "endlat": 42.362427842912396,
    "endlon": -71.08495473861693,
    "starthour": 2,
    "trip": "'Kendall T', 'MIT at Mass Ave / Amherst St'",
    "counts": 3
  },
  {
    "": 24,
    "ID": 24,
    "startname": "MIT at Mass Ave / Amherst St",
    "startlat": 42.3581,
    "startlon": -71.093198,
    "endname": "MIT Pacific St at Purrington St",
    "endlat": 42.359573201090434,
    "endlon": -71.10129475593567,
    "starthour": 2,
    "trip": "'MIT Pacific St at Purrington St', 'MIT at Mass Ave / Amherst St'",
    "counts": 3
  },
  {
    "": 25,
    "ID": 25,
    "startname": "University Park",
    "startlat": 42.36264779118595,
    "startlon": -71.1000609397888,
    "endname": "Harvard University Radcliffe Quadrangle at Shepard St / Garden St",
    "endlat": 42.380287,
    "endlon": -71.125107,
    "starthour": 2,
    "trip": "'Harvard University Radcliffe Quadrangle at Shepard St / Garden St', 'University Park'",
    "counts": 2
  },
  {
    "": 26,
    "ID": 26,
    "startname": "Ames St at Main St",
    "startlat": 42.3625,
    "startlon": -71.08821999999999,
    "endname": "Central Square at Mass Ave / Essex St",
    "endlat": 42.36507,
    "endlon": -71.1031,
    "starthour": 2,
    "trip": "'Ames St at Main St', 'Central Square at Mass Ave / Essex St'",
    "counts": 2
  },
  {
    "": 27,
    "ID": 27,
    "startname": "MIT Pacific St at Purrington St",
    "startlat": 42.359573201090434,
    "startlon": -71.10129475593567,
    "endname": "Sidney Research Campus/ Erie Street at Waverly",
    "endlat": 42.35775309465199,
    "endlon": -71.10393404960631,
    "starthour": 2,
    "trip": "'MIT Pacific St at Purrington St', 'Sidney Research Campus/ Erie Street at Waverly'",
    "counts": 2
  },
  {
    "": 28,
    "ID": 28,
    "startname": "MIT at Mass Ave / Amherst St",
    "startlat": 42.3581,
    "startlon": -71.093198,
    "endname": "Lafayette Square at Mass Ave / Main St / Columbia St",
    "endlat": 42.36346469304347,
    "endlon": -71.10057324171065,
    "starthour": 2,
    "trip": "'Lafayette Square at Mass Ave / Main St / Columbia St', 'MIT at Mass Ave / Amherst St'",
    "counts": 2
  },
  {
    "": 29,
    "ID": 29,
    "startname": "Cambridge St - at Columbia St / Webster Ave",
    "startlat": 42.372969,
    "startlon": -71.094445,
    "endname": "MIT at Mass Ave / Amherst St",
    "endlat": 42.3581,
    "endlon": -71.093198,
    "starthour": 2,
    "trip": "'Cambridge St - at Columbia St / Webster Ave', 'MIT at Mass Ave / Amherst St'",
    "counts": 1
  },
  {
    "": 30,
    "ID": 30,
    "startname": "MIT Stata Center at Vassar St / Main St",
    "startlat": 42.3619622,
    "startlon": -71.0920526,
    "endname": "Lechmere Station at Cambridge St / First St",
    "endlat": 42.370677,
    "endlon": -71.07652900000001,
    "starthour": 3,
    "trip": "'Lechmere Station at Cambridge St / First St', 'MIT Stata Center at Vassar St / Main St'",
    "counts": 2
  },
  {
    "": 31,
    "ID": 31,
    "startname": "MIT Stata Center at Vassar St / Main St",
    "startlat": 42.3619622,
    "startlon": -71.0920526,
    "endname": "MIT Pacific St at Purrington St",
    "endlat": 42.359573201090434,
    "endlon": -71.10129475593567,
    "starthour": 3,
    "trip": "'MIT Pacific St at Purrington St', 'MIT Stata Center at Vassar St / Main St'",
    "counts": 2
  },
  {
    "": 32,
    "ID": 32,
    "startname": "University Park",
    "startlat": 42.36264779118595,
    "startlon": -71.1000609397888,
    "endname": "Central Sq Post Office / Cambridge City Hall at Mass Ave / Pleasant St",
    "endlat": 42.366426000000004,
    "endlon": -71.10549499999999,
    "starthour": 3,
    "trip": "'Central Sq Post Office / Cambridge City Hall at Mass Ave / Pleasant St', 'University Park'",
    "counts": 1
  },
  {
    "": 33,
    "ID": 33,
    "startname": "MIT at Mass Ave / Amherst St",
    "startlat": 42.3581,
    "startlon": -71.093198,
    "endname": "Cambridge St - at Columbia St / Webster Ave",
    "endlat": 42.372969,
    "endlon": -71.094445,
    "starthour": 3,
    "trip": "'Cambridge St - at Columbia St / Webster Ave', 'MIT at Mass Ave / Amherst St'",
    "counts": 1
  },
  {
    "": 34,
    "ID": 34,
    "startname": "Harvard Square at Brattle St / Eliot St",
    "startlat": 42.373231,
    "startlon": -71.120886,
    "endname": "Inman Square at Vellucci Plaza / Hampshire St",
    "endlat": 42.374035,
    "endlon": -71.101427,
    "starthour": 3,
    "trip": "'Harvard Square at Brattle St / Eliot St', 'Inman Square at Vellucci Plaza / Hampshire St'",
    "counts": 1
  },
  {
    "": 35,
    "ID": 35,
    "startname": "MIT Vassar St",
    "startlat": 42.35560121327927,
    "startlon": -71.10394477844237,
    "endname": "One Kendall Square at Hampshire St / Portland St",
    "endlat": 42.366277000000004,
    "endlon": -71.09169,
    "starthour": 3,
    "trip": "'MIT Vassar St', 'One Kendall Square at Hampshire St / Portland St'",
    "counts": 1
  },
  {
    "": 36,
    "ID": 36,
    "startname": "Ames St at Main St",
    "startlat": 42.3625,
    "startlon": -71.08821999999999,
    "endname": "Linear Park - Mass. Ave. at Cameron Ave.",
    "endlat": 42.397828000000004,
    "endlon": -71.130516,
    "starthour": 3,
    "trip": "'Ames St at Main St', 'Linear Park - Mass. Ave. at Cameron Ave. '",
    "counts": 1
  },
  {
    "": 37,
    "ID": 37,
    "startname": "MIT Vassar St",
    "startlat": 42.35560121327927,
    "startlon": -71.10394477844237,
    "endname": "Lafayette Square at Mass Ave / Main St / Columbia St",
    "endlat": 42.36346469304347,
    "endlon": -71.10057324171065,
    "starthour": 3,
    "trip": "'Lafayette Square at Mass Ave / Main St / Columbia St', 'MIT Vassar St'",
    "counts": 1
  },
  {
    "": 38,
    "ID": 38,
    "startname": "MIT at Mass Ave / Amherst St",
    "startlat": 42.3581,
    "startlon": -71.093198,
    "endname": "MIT Pacific St at Purrington St",
    "endlat": 42.359573201090434,
    "endlon": -71.10129475593567,
    "starthour": 3,
    "trip": "'MIT Pacific St at Purrington St', 'MIT at Mass Ave / Amherst St'",
    "counts": 1
  },
  {
    "": 39,
    "ID": 39,
    "startname": "Porter Square Station",
    "startlat": 42.387995000000004,
    "startlon": -71.119084,
    "endname": "Cambridge St. at Joy St.",
    "endlat": 42.361174,
    "endlon": -71.06514200000001,
    "starthour": 3,
    "trip": "'Cambridge St. at Joy St.', 'Porter Square Station'",
    "counts": 1
  },
  {
    "": 40,
    "ID": 40,
    "startname": "Ames St at Main St",
    "startlat": 42.3625,
    "startlon": -71.08821999999999,
    "endname": "Lechmere Station at Cambridge St / First St",
    "endlat": 42.370677,
    "endlon": -71.07652900000001,
    "starthour": 4,
    "trip": "'Ames St at Main St', 'Lechmere Station at Cambridge St / First St'",
    "counts": 3
  },
  {
    "": 41,
    "ID": 41,
    "startname": "CambridgeSide Galleria - CambridgeSide PL at Land Blvd",
    "startlat": 42.366981,
    "startlon": -71.076472,
    "endname": "CambridgeSide Galleria - CambridgeSide PL at Land Blvd",
    "endlat": 42.366981,
    "endlon": -71.076472,
    "starthour": 4,
    "trip": "'CambridgeSide Galleria - CambridgeSide PL at Land Blvd', 'CambridgeSide Galleria - CambridgeSide PL at Land Blvd'",
    "counts": 2
  },
  {
    "": 42,
    "ID": 42,
    "startname": "MIT Stata Center at Vassar St / Main St",
    "startlat": 42.3619622,
    "startlon": -71.0920526,
    "endname": "Lechmere Station at Cambridge St / First St",
    "endlat": 42.370677,
    "endlon": -71.07652900000001,
    "starthour": 4,
    "trip": "'Lechmere Station at Cambridge St / First St', 'MIT Stata Center at Vassar St / Main St'",
    "counts": 2
  },
  {
    "": 43,
    "ID": 43,
    "startname": "Northeastern U / North Parking Lot",
    "startlat": 42.341814,
    "startlon": -71.090179,
    "endname": "Northeastern U / North Parking Lot",
    "endlat": 42.341814,
    "endlon": -71.090179,
    "starthour": 4,
    "trip": "'Northeastern U / North Parking Lot', 'Northeastern U / North Parking Lot'",
    "counts": 2
  },
  {
    "": 44,
    "ID": 44,
    "startname": "MIT Vassar St",
    "startlat": 42.35560121327927,
    "startlon": -71.10394477844237,
    "endname": "Cambridge St - at Columbia St / Webster Ave",
    "endlat": 42.372969,
    "endlon": -71.094445,
    "starthour": 4,
    "trip": "'Cambridge St - at Columbia St / Webster Ave', 'MIT Vassar St'",
    "counts": 2
  },
  {
    "": 45,
    "ID": 45,
    "startname": "Cross St. at Hanover St.",
    "startlat": 42.362811,
    "startlon": -71.056067,
    "endname": "Washington St. at Lenox St.",
    "endlat": 42.3348756,
    "endlon": -71.07909690000001,
    "starthour": 4,
    "trip": "'Cross St. at Hanover St.', 'Washington St. at Lenox St.'",
    "counts": 1
  },
  {
    "": 46,
    "ID": 46,
    "startname": "MIT Pacific St at Purrington St",
    "startlat": 42.359573201090434,
    "startlon": -71.10129475593567,
    "endname": "MIT Pacific St at Purrington St",
    "endlat": 42.359573201090434,
    "endlon": -71.10129475593567,
    "starthour": 4,
    "trip": "'MIT Pacific St at Purrington St', 'MIT Pacific St at Purrington St'",
    "counts": 1
  },
  {
    "": 47,
    "ID": 47,
    "startname": "Binney St / Sixth St",
    "startlat": 42.366095,
    "startlon": -71.086388,
    "endname": "Lechmere Station at Cambridge St / First St",
    "endlat": 42.370677,
    "endlon": -71.07652900000001,
    "starthour": 4,
    "trip": "'Binney St / Sixth St', 'Lechmere Station at Cambridge St / First St'",
    "counts": 1
  },
  {
    "": 48,
    "ID": 48,
    "startname": "Ames St at Main St",
    "startlat": 42.3625,
    "startlon": -71.08821999999999,
    "endname": "Central Square at Mass Ave / Essex St",
    "endlat": 42.36507,
    "endlon": -71.1031,
    "starthour": 4,
    "trip": "'Ames St at Main St', 'Central Square at Mass Ave / Essex St'",
    "counts": 1
  },
  {
    "": 49,
    "ID": 49,
    "startname": "University Park",
    "startlat": 42.36264779118595,
    "startlon": -71.1000609397888,
    "endname": "Harvard University Radcliffe Quadrangle at Shepard St / Garden St",
    "endlat": 42.380287,
    "endlon": -71.125107,
    "starthour": 4,
    "trip": "'Harvard University Radcliffe Quadrangle at Shepard St / Garden St', 'University Park'",
    "counts": 1
  },
  {
    "": 50,
    "ID": 50,
    "startname": "Rindge Avenue - O'Neill Library",
    "startlat": 42.392765999999995,
    "startlon": -71.129042,
    "endname": "Linear Park - Mass. Ave. at Cameron Ave.",
    "endlat": 42.397828000000004,
    "endlon": -71.130516,
    "starthour": 5,
    "trip": "'Linear Park - Mass. Ave. at Cameron Ave. ', \"Rindge Avenue - O'Neill Library",
    "counts": 9
  },
  {
    "": 51,
    "ID": 51,
    "startname": "Inman Square at Vellucci Plaza / Hampshire St",
    "startlat": 42.374035,
    "startlon": -71.101427,
    "endname": "University Park",
    "endlat": 42.36264779118595,
    "endlon": -71.1000609397888,
    "starthour": 5,
    "trip": "'Inman Square at Vellucci Plaza / Hampshire St', 'University Park'",
    "counts": 7
  },
  {
    "": 52,
    "ID": 52,
    "startname": "Jackson Square T at Centre St",
    "startlat": 42.322858354135754,
    "startlon": -71.10034391283989,
    "endname": "Roxbury Crossing Station",
    "endlat": 42.331184,
    "endlon": -71.095171,
    "starthour": 5,
    "trip": "'Jackson Square T at Centre St', 'Roxbury Crossing Station'",
    "counts": 5
  },
  {
    "": 53,
    "ID": 53,
    "startname": "Dana Park",
    "startlat": 42.361780439606044,
    "startlon": -71.10809952020645,
    "endname": "Central Square at Mass Ave / Essex St",
    "endlat": 42.36507,
    "endlon": -71.1031,
    "starthour": 5,
    "trip": "'Central Square at Mass Ave / Essex St', 'Dana Park'",
    "counts": 5
  },
  {
    "": 54,
    "ID": 54,
    "startname": "Harvard University Radcliffe Quadrangle at Shepard St / Garden St",
    "startlat": 42.380287,
    "startlon": -71.125107,
    "endname": "Harvard Square at Brattle St / Eliot St",
    "endlat": 42.373231,
    "endlon": -71.120886,
    "starthour": 5,
    "trip": "'Harvard Square at Brattle St / Eliot St', 'Harvard University Radcliffe Quadrangle at Shepard St / Garden St'",
    "counts": 4
  },
  {
    "": 55,
    "ID": 55,
    "startname": "Cambridge St. at Joy St.",
    "startlat": 42.361174,
    "startlon": -71.06514200000001,
    "endname": "Mayor Martin J Walsh - 28 State St",
    "endlat": 42.35892,
    "endlon": -71.057629,
    "starthour": 5,
    "trip": "'Cambridge St. at Joy St.', 'Mayor Martin J Walsh - 28 State St'",
    "counts": 3
  },
  {
    "": 56,
    "ID": 56,
    "startname": "West Broadway at Dorchester St",
    "startlat": 42.335693,
    "startlon": -71.045859,
    "endname": "Watermark Seaport",
    "endlat": 42.35154310472321,
    "endlon": -71.04573011398315,
    "starthour": 5,
    "trip": "'Watermark Seaport', 'West Broadway at Dorchester St'",
    "counts": 3
  },
  {
    "": 57,
    "ID": 57,
    "startname": "One Kendall Square at Hampshire St / Portland St",
    "startlat": 42.366277000000004,
    "startlon": -71.09169,
    "endname": "MIT at Mass Ave / Amherst St",
    "endlat": 42.3581,
    "endlon": -71.093198,
    "starthour": 5,
    "trip": "'MIT at Mass Ave / Amherst St', 'One Kendall Square at Hampshire St / Portland St'",
    "counts": 2
  },
  {
    "": 58,
    "ID": 58,
    "startname": "359 Broadway - Broadway at Fayette Street",
    "startlat": 42.370803,
    "startlon": -71.104412,
    "endname": "Rowes Wharf - Atlantic Ave",
    "endlat": 42.357143,
    "endlon": -71.050699,
    "starthour": 5,
    "trip": "'359 Broadway - Broadway at Fayette Street', 'Rowes Wharf - Atlantic Ave'",
    "counts": 2
  },
  {
    "": 59,
    "ID": 59,
    "startname": "Kendall Street",
    "startlat": 42.36356015842989,
    "startlon": -71.08216792345047,
    "endname": "Kendall Street",
    "endlat": 42.36356015842989,
    "endlon": -71.08216792345047,
    "starthour": 5,
    "trip": "'Kendall Street', 'Kendall Street'",
    "counts": 2
  },
  {
    "": 60,
    "ID": 60,
    "startname": "Porter Square Station",
    "startlat": 42.387995000000004,
    "startlon": -71.119084,
    "endname": "One Kendall Square at Hampshire St / Portland St",
    "endlat": 42.366277000000004,
    "endlon": -71.09169,
    "starthour": 6,
    "trip": "'One Kendall Square at Hampshire St / Portland St', 'Porter Square Station'",
    "counts": 16
  },
  {
    "": 61,
    "ID": 61,
    "startname": "Harvard Law School at Mass Ave / Jarvis St",
    "startlat": 42.379011,
    "startlon": -71.119945,
    "endname": "Harvard Kennedy School at Bennett St / Eliot St",
    "endlat": 42.371991654086756,
    "endlon": -71.12226963043213,
    "starthour": 6,
    "trip": "'Harvard Kennedy School at Bennett St / Eliot St', 'Harvard Law School at Mass Ave / Jarvis St'",
    "counts": 11
  },
  {
    "": 62,
    "ID": 62,
    "startname": "Dana Park",
    "startlat": 42.361780439606044,
    "startlon": -71.10809952020645,
    "endname": "Central Square at Mass Ave / Essex St",
    "endlat": 42.36507,
    "endlon": -71.1031,
    "starthour": 6,
    "trip": "'Central Square at Mass Ave / Essex St', 'Dana Park'",
    "counts": 9
  },
  {
    "": 63,
    "ID": 63,
    "startname": "Inman Square at Vellucci Plaza / Hampshire St",
    "startlat": 42.374035,
    "startlon": -71.101427,
    "endname": "MIT Stata Center at Vassar St / Main St",
    "endlat": 42.3619622,
    "endlon": -71.0920526,
    "starthour": 6,
    "trip": "'Inman Square at Vellucci Plaza / Hampshire St', 'MIT Stata Center at Vassar St / Main St'",
    "counts": 8
  },
  {
    "": 64,
    "ID": 64,
    "startname": "Cambridge St - at Columbia St / Webster Ave",
    "startlat": 42.372969,
    "startlon": -71.094445,
    "endname": "Lafayette Square at Mass Ave / Main St / Columbia St",
    "endlat": 42.36346469304347,
    "endlon": -71.10057324171065,
    "starthour": 6,
    "trip": "'Cambridge St - at Columbia St / Webster Ave', 'Lafayette Square at Mass Ave / Main St / Columbia St'",
    "counts": 6
  },
  {
    "": 65,
    "ID": 65,
    "startname": "359 Broadway - Broadway at Fayette Street",
    "startlat": 42.370803,
    "startlon": -71.104412,
    "endname": "MIT at Mass Ave / Amherst St",
    "endlat": 42.3581,
    "endlon": -71.093198,
    "starthour": 6,
    "trip": "'359 Broadway - Broadway at Fayette Street', 'MIT at Mass Ave / Amherst St'",
    "counts": 5
  },
  {
    "": 66,
    "ID": 66,
    "startname": "MIT Vassar St",
    "startlat": 42.35560121327927,
    "startlon": -71.10394477844237,
    "endname": "Kendall T",
    "endlat": 42.362427842912396,
    "endlon": -71.08495473861693,
    "starthour": 6,
    "trip": "'Kendall T', 'MIT Vassar St'",
    "counts": 5
  },
  {
    "": 67,
    "ID": 67,
    "startname": "MIT Vassar St",
    "startlat": 42.35560121327927,
    "startlon": -71.10394477844237,
    "endname": "MIT Stata Center at Vassar St / Main St",
    "endlat": 42.3619622,
    "endlon": -71.0920526,
    "starthour": 6,
    "trip": "'MIT Stata Center at Vassar St / Main St', 'MIT Vassar St'",
    "counts": 4
  },
  {
    "": 68,
    "ID": 68,
    "startname": "359 Broadway - Broadway at Fayette Street",
    "startlat": 42.370803,
    "startlon": -71.104412,
    "endname": "Harvard University / SEAS Cruft-Pierce Halls at 29 Oxford St",
    "endlat": 42.377945000000004,
    "endlon": -71.116865,
    "starthour": 6,
    "trip": "'359 Broadway - Broadway at Fayette Street', 'Harvard University / SEAS Cruft-Pierce Halls at 29 Oxford St'",
    "counts": 4
  },
  {
    "": 69,
    "ID": 69,
    "startname": "Cambridge St. at Joy St.",
    "startlat": 42.361174,
    "startlon": -71.06514200000001,
    "endname": "Rowes Wharf - Atlantic Ave",
    "endlat": 42.357143,
    "endlon": -71.050699,
    "starthour": 6,
    "trip": "'Cambridge St. at Joy St.', 'Rowes Wharf - Atlantic Ave'",
    "counts": 4
  },
  {
    "": 70,
    "ID": 70,
    "startname": "MIT Vassar St",
    "startlat": 42.35560121327927,
    "startlon": -71.10394477844237,
    "endname": "MIT Stata Center at Vassar St / Main St",
    "endlat": 42.3619622,
    "endlon": -71.0920526,
    "starthour": 7,
    "trip": "'MIT Stata Center at Vassar St / Main St', 'MIT Vassar St'",
    "counts": 23
  },
  {
    "": 71,
    "ID": 71,
    "startname": "359 Broadway - Broadway at Fayette Street",
    "startlat": 42.370803,
    "startlon": -71.104412,
    "endname": "Central Sq Post Office / Cambridge City Hall at Mass Ave / Pleasant St",
    "endlat": 42.366426000000004,
    "endlon": -71.10549499999999,
    "starthour": 7,
    "trip": "'359 Broadway - Broadway at Fayette Street', 'Central Sq Post Office / Cambridge City Hall at Mass Ave / Pleasant St'",
    "counts": 22
  },
  {
    "": 72,
    "ID": 72,
    "startname": "Inman Square at Vellucci Plaza / Hampshire St",
    "startlat": 42.374035,
    "startlon": -71.101427,
    "endname": "Ames St at Main St",
    "endlat": 42.3625,
    "endlon": -71.08821999999999,
    "starthour": 7,
    "trip": "'Ames St at Main St', 'Inman Square at Vellucci Plaza / Hampshire St'",
    "counts": 17
  },
  {
    "": 73,
    "ID": 73,
    "startname": "Rindge Avenue - O'Neill Library",
    "startlat": 42.392765999999995,
    "startlon": -71.129042,
    "endname": "Alewife MBTA at Steel Place",
    "endlat": 42.395588457167094,
    "endlon": -71.14260613918304,
    "starthour": 7,
    "trip": "'Alewife MBTA at Steel Place', \"Rindge Avenue - O'Neill Library",
    "counts": 13
  },
  {
    "": 74,
    "ID": 74,
    "startname": "Lesley University",
    "startlat": 42.38674802045056,
    "startlon": -71.11901879310608,
    "endname": "Mt Auburn",
    "endlat": 42.37478628706384,
    "endlon": -71.13320231437683,
    "starthour": 7,
    "trip": "'Lesley University', 'Mt Auburn'",
    "counts": 13
  },
  {
    "": 75,
    "ID": 75,
    "startname": "Danehy Park",
    "startlat": 42.388965999999996,
    "startlon": -71.132788,
    "endname": "MIT at Mass Ave / Amherst St",
    "endlat": 42.3581,
    "endlon": -71.093198,
    "starthour": 7,
    "trip": "'Danehy Park', 'MIT at Mass Ave / Amherst St'",
    "counts": 13
  },
  {
    "": 76,
    "ID": 76,
    "startname": "Inman Square at Vellucci Plaza / Hampshire St",
    "startlat": 42.374035,
    "startlon": -71.101427,
    "endname": "MIT at Mass Ave / Amherst St",
    "endlat": 42.3581,
    "endlon": -71.093198,
    "starthour": 7,
    "trip": "'Inman Square at Vellucci Plaza / Hampshire St', 'MIT at Mass Ave / Amherst St'",
    "counts": 12
  },
  {
    "": 77,
    "ID": 77,
    "startname": "MIT Vassar St",
    "startlat": 42.35560121327927,
    "startlon": -71.10394477844237,
    "endname": "Ames St at Main St",
    "endlat": 42.3625,
    "endlon": -71.08821999999999,
    "starthour": 7,
    "trip": "'Ames St at Main St', 'MIT Vassar St'",
    "counts": 12
  },
  {
    "": 78,
    "ID": 78,
    "startname": "EF - North Point Park",
    "startlat": 42.369885,
    "startlon": -71.06995699999999,
    "endname": "One Kendall Square at Hampshire St / Portland St",
    "endlat": 42.366277000000004,
    "endlon": -71.09169,
    "starthour": 7,
    "trip": "'EF - North Point Park', 'One Kendall Square at Hampshire St / Portland St'",
    "counts": 12
  },
  {
    "": 79,
    "ID": 79,
    "startname": "Porter Square Station",
    "startlat": 42.387995000000004,
    "startlon": -71.119084,
    "endname": "Binney St / Sixth St",
    "endlat": 42.366095,
    "endlon": -71.086388,
    "starthour": 7,
    "trip": "'Binney St / Sixth St', 'Porter Square Station'",
    "counts": 12
  },
  {
    "": 80,
    "ID": 80,
    "startname": "MIT Vassar St",
    "startlat": 42.35560121327927,
    "startlon": -71.10394477844237,
    "endname": "Ames St at Main St",
    "endlat": 42.3625,
    "endlon": -71.08821999999999,
    "starthour": 8,
    "trip": "'Ames St at Main St', 'MIT Vassar St'",
    "counts": 29
  },
  {
    "": 81,
    "ID": 81,
    "startname": "MIT Pacific St at Purrington St",
    "startlat": 42.359573201090434,
    "startlon": -71.10129475593567,
    "endname": "Kendall T",
    "endlat": 42.362427842912396,
    "endlon": -71.08495473861693,
    "starthour": 8,
    "trip": "'Kendall T', 'MIT Pacific St at Purrington St'",
    "counts": 27
  },
  {
    "": 82,
    "ID": 82,
    "startname": "Inman Square at Vellucci Plaza / Hampshire St",
    "startlat": 42.374035,
    "startlon": -71.101427,
    "endname": "Ames St at Main St",
    "endlat": 42.3625,
    "endlon": -71.08821999999999,
    "starthour": 8,
    "trip": "'Ames St at Main St', 'Inman Square at Vellucci Plaza / Hampshire St'",
    "counts": 25
  },
  {
    "": 83,
    "ID": 83,
    "startname": "MIT Vassar St",
    "startlat": 42.35560121327927,
    "startlon": -71.10394477844237,
    "endname": "Kendall T",
    "endlat": 42.362427842912396,
    "endlon": -71.08495473861693,
    "starthour": 8,
    "trip": "'Kendall T', 'MIT Vassar St'",
    "counts": 24
  },
  {
    "": 84,
    "ID": 84,
    "startname": "MIT Vassar St",
    "startlat": 42.35560121327927,
    "startlon": -71.10394477844237,
    "endname": "MIT Stata Center at Vassar St / Main St",
    "endlat": 42.3619622,
    "endlon": -71.0920526,
    "starthour": 8,
    "trip": "'MIT Stata Center at Vassar St / Main St', 'MIT Vassar St'",
    "counts": 22
  },
  {
    "": 85,
    "ID": 85,
    "startname": "MIT Vassar St",
    "startlat": 42.35560121327927,
    "startlon": -71.10394477844237,
    "endname": "MIT at Mass Ave / Amherst St",
    "endlat": 42.3581,
    "endlon": -71.093198,
    "starthour": 8,
    "trip": "'MIT Vassar St', 'MIT at Mass Ave / Amherst St'",
    "counts": 21
  },
  {
    "": 86,
    "ID": 86,
    "startname": "Harvard University Housing - 115 Putnam Ave at Peabody Terrace",
    "startlat": 42.366621,
    "startlon": -71.114214,
    "endname": "Harvard Kennedy School at Bennett St / Eliot St",
    "endlat": 42.371991654086756,
    "endlon": -71.12226963043213,
    "starthour": 8,
    "trip": "'Harvard Kennedy School at Bennett St / Eliot St', 'Harvard University Housing - 115 Putnam Ave at Peabody Terrace'",
    "counts": 20
  },
  {
    "": 87,
    "ID": 87,
    "startname": "Harvard University Housing - 115 Putnam Ave at Peabody Terrace",
    "startlat": 42.366621,
    "startlon": -71.114214,
    "endname": "MIT Stata Center at Vassar St / Main St",
    "endlat": 42.3619622,
    "endlon": -71.0920526,
    "starthour": 8,
    "trip": "'Harvard University Housing - 115 Putnam Ave at Peabody Terrace', 'MIT Stata Center at Vassar St / Main St'",
    "counts": 20
  },
  {
    "": 88,
    "ID": 88,
    "startname": "Harvard University Housing - 115 Putnam Ave at Peabody Terrace",
    "startlat": 42.366621,
    "startlon": -71.114214,
    "endname": "Harvard Square at Mass Ave/ Dunster",
    "endlat": 42.373267999999996,
    "endlon": -71.118579,
    "starthour": 8,
    "trip": "'Harvard Square at Mass Ave/ Dunster', 'Harvard University Housing - 115 Putnam Ave at Peabody Terrace'",
    "counts": 20
  },
  {
    "": 89,
    "ID": 89,
    "startname": "Cambridge St - at Columbia St / Webster Ave",
    "startlat": 42.372969,
    "startlon": -71.094445,
    "endname": "MIT Stata Center at Vassar St / Main St",
    "endlat": 42.3619622,
    "endlon": -71.0920526,
    "starthour": 8,
    "trip": "'Cambridge St - at Columbia St / Webster Ave', 'MIT Stata Center at Vassar St / Main St'",
    "counts": 20
  },
  {
    "": 90,
    "ID": 90,
    "startname": "MIT Vassar St",
    "startlat": 42.35560121327927,
    "startlon": -71.10394477844237,
    "endname": "MIT Stata Center at Vassar St / Main St",
    "endlat": 42.3619622,
    "endlon": -71.0920526,
    "starthour": 9,
    "trip": "'MIT Stata Center at Vassar St / Main St', 'MIT Vassar St'",
    "counts": 33
  },
  {
    "": 91,
    "ID": 91,
    "startname": "Kendall T",
    "startlat": 42.362427842912396,
    "startlon": -71.08495473861693,
    "endname": "MIT Vassar St",
    "endlat": 42.35560121327927,
    "endlon": -71.10394477844237,
    "starthour": 9,
    "trip": "'Kendall T', 'MIT Vassar St'",
    "counts": 30
  },
  {
    "": 92,
    "ID": 92,
    "startname": "Inman Square at Vellucci Plaza / Hampshire St",
    "startlat": 42.374035,
    "startlon": -71.101427,
    "endname": "MIT Stata Center at Vassar St / Main St",
    "endlat": 42.3619622,
    "endlon": -71.0920526,
    "starthour": 9,
    "trip": "'Inman Square at Vellucci Plaza / Hampshire St', 'MIT Stata Center at Vassar St / Main St'",
    "counts": 27
  },
  {
    "": 93,
    "ID": 93,
    "startname": "MIT Vassar St",
    "startlat": 42.35560121327927,
    "startlon": -71.10394477844237,
    "endname": "Ames St at Main St",
    "endlat": 42.3625,
    "endlon": -71.08821999999999,
    "starthour": 9,
    "trip": "'Ames St at Main St', 'MIT Vassar St'",
    "counts": 27
  },
  {
    "": 94,
    "ID": 94,
    "startname": "MIT Vassar St",
    "startlat": 42.35560121327927,
    "startlon": -71.10394477844237,
    "endname": "MIT at Mass Ave / Amherst St",
    "endlat": 42.3581,
    "endlon": -71.093198,
    "starthour": 9,
    "trip": "'MIT Vassar St', 'MIT at Mass Ave / Amherst St'",
    "counts": 26
  },
  {
    "": 95,
    "ID": 95,
    "startname": "Lechmere Station at Cambridge St / First St",
    "startlat": 42.370677,
    "startlon": -71.07652900000001,
    "endname": "Kendall T",
    "endlat": 42.362427842912396,
    "endlon": -71.08495473861693,
    "starthour": 9,
    "trip": "'Kendall T', 'Lechmere Station at Cambridge St / First St'",
    "counts": 24
  },
  {
    "": 96,
    "ID": 96,
    "startname": "Harvard University Gund Hall at Quincy St / Kirkland S",
    "startlat": 42.376369,
    "startlon": -71.114025,
    "endname": "Harvard University Radcliffe Quadrangle at Shepard St / Garden St",
    "endlat": 42.380287,
    "endlon": -71.125107,
    "starthour": 9,
    "trip": "'Harvard University Gund Hall at Quincy St / Kirkland S', 'Harvard University Radcliffe Quadrangle at Shepard St / Garden St'",
    "counts": 23
  },
  {
    "": 97,
    "ID": 97,
    "startname": "MIT at Mass Ave / Amherst St",
    "startlat": 42.3581,
    "startlon": -71.093198,
    "endname": "MIT Pacific St at Purrington St",
    "endlat": 42.359573201090434,
    "endlon": -71.10129475593567,
    "starthour": 9,
    "trip": "'MIT Pacific St at Purrington St', 'MIT at Mass Ave / Amherst St'",
    "counts": 17
  },
  {
    "": 98,
    "ID": 98,
    "startname": "One Kendall Square at Hampshire St / Portland St",
    "startlat": 42.366277000000004,
    "startlon": -71.09169,
    "endname": "MIT at Mass Ave / Amherst St",
    "endlat": 42.3581,
    "endlon": -71.093198,
    "starthour": 9,
    "trip": "'MIT at Mass Ave / Amherst St', 'One Kendall Square at Hampshire St / Portland St'",
    "counts": 17
  },
  {
    "": 99,
    "ID": 99,
    "startname": "Lower Cambridgeport at Magazine St/Riverside Rd",
    "startlat": 42.356953999999995,
    "startlon": -71.113687,
    "endname": "Ames St at Main St",
    "endlat": 42.3625,
    "endlon": -71.08821999999999,
    "starthour": 9,
    "trip": "'Ames St at Main St', 'Lower Cambridgeport at Magazine St/Riverside Rd'",
    "counts": 16
  },
  {
    "": 100,
    "ID": 100,
    "startname": "MIT Vassar St",
    "startlat": 42.35560121327927,
    "startlon": -71.10394477844237,
    "endname": "MIT Stata Center at Vassar St / Main St",
    "endlat": 42.3619622,
    "endlon": -71.0920526,
    "starthour": 10,
    "trip": "'MIT Stata Center at Vassar St / Main St', 'MIT Vassar St'",
    "counts": 39
  },
  {
    "": 101,
    "ID": 101,
    "startname": "MIT Vassar St",
    "startlat": 42.35560121327927,
    "startlon": -71.10394477844237,
    "endname": "MIT at Mass Ave / Amherst St",
    "endlat": 42.3581,
    "endlon": -71.093198,
    "starthour": 10,
    "trip": "'MIT Vassar St', 'MIT at Mass Ave / Amherst St'",
    "counts": 27
  },
  {
    "": 102,
    "ID": 102,
    "startname": "MIT Pacific St at Purrington St",
    "startlat": 42.359573201090434,
    "startlon": -71.10129475593567,
    "endname": "MIT at Mass Ave / Amherst St",
    "endlat": 42.3581,
    "endlon": -71.093198,
    "starthour": 10,
    "trip": "'MIT Pacific St at Purrington St', 'MIT at Mass Ave / Amherst St'",
    "counts": 27
  },
  {
    "": 103,
    "ID": 103,
    "startname": "MIT Vassar St",
    "startlat": 42.35560121327927,
    "startlon": -71.10394477844237,
    "endname": "Kendall T",
    "endlat": 42.362427842912396,
    "endlon": -71.08495473861693,
    "starthour": 10,
    "trip": "'Kendall T', 'MIT Vassar St'",
    "counts": 16
  },
  {
    "": 104,
    "ID": 104,
    "startname": "MIT Vassar St",
    "startlat": 42.35560121327927,
    "startlon": -71.10394477844237,
    "endname": "Ames St at Main St",
    "endlat": 42.3625,
    "endlon": -71.08821999999999,
    "starthour": 10,
    "trip": "'Ames St at Main St', 'MIT Vassar St'",
    "counts": 16
  },
  {
    "": 105,
    "ID": 105,
    "startname": "Kendall T",
    "startlat": 42.362427842912396,
    "startlon": -71.08495473861693,
    "endname": "MIT Pacific St at Purrington St",
    "endlat": 42.359573201090434,
    "endlon": -71.10129475593567,
    "starthour": 10,
    "trip": "'Kendall T', 'MIT Pacific St at Purrington St'",
    "counts": 15
  },
  {
    "": 106,
    "ID": 106,
    "startname": "MIT Pacific St at Purrington St",
    "startlat": 42.359573201090434,
    "startlon": -71.10129475593567,
    "endname": "MIT Stata Center at Vassar St / Main St",
    "endlat": 42.3619622,
    "endlon": -71.0920526,
    "starthour": 10,
    "trip": "'MIT Pacific St at Purrington St', 'MIT Stata Center at Vassar St / Main St'",
    "counts": 13
  },
  {
    "": 107,
    "ID": 107,
    "startname": "Kendall T",
    "startlat": 42.362427842912396,
    "startlon": -71.08495473861693,
    "endname": "MIT at Mass Ave / Amherst St",
    "endlat": 42.3581,
    "endlon": -71.093198,
    "starthour": 10,
    "trip": "'Kendall T', 'MIT at Mass Ave / Amherst St'",
    "counts": 12
  },
  {
    "": 108,
    "ID": 108,
    "startname": "Inman Square at Vellucci Plaza / Hampshire St",
    "startlat": 42.374035,
    "startlon": -71.101427,
    "endname": "MIT Stata Center at Vassar St / Main St",
    "endlat": 42.3619622,
    "endlon": -71.0920526,
    "starthour": 10,
    "trip": "'Inman Square at Vellucci Plaza / Hampshire St', 'MIT Stata Center at Vassar St / Main St'",
    "counts": 12
  },
  {
    "": 109,
    "ID": 109,
    "startname": "Harvard University River Houses at DeWolfe St / Cowperthwaite St",
    "startlat": 42.36919031768079,
    "startlon": -71.11714124679565,
    "endname": "Dana Park",
    "endlat": 42.361780439606044,
    "endlon": -71.10809952020645,
    "starthour": 10,
    "trip": "'Dana Park', 'Harvard University River Houses at DeWolfe St / Cowperthwaite St'",
    "counts": 12
  },
  {
    "": 110,
    "ID": 110,
    "startname": "MIT Vassar St",
    "startlat": 42.35560121327927,
    "startlon": -71.10394477844237,
    "endname": "MIT Stata Center at Vassar St / Main St",
    "endlat": 42.3619622,
    "endlon": -71.0920526,
    "starthour": 11,
    "trip": "'MIT Stata Center at Vassar St / Main St', 'MIT Vassar St'",
    "counts": 30
  },
  {
    "": 111,
    "ID": 111,
    "startname": "MIT Vassar St",
    "startlat": 42.35560121327927,
    "startlon": -71.10394477844237,
    "endname": "MIT at Mass Ave / Amherst St",
    "endlat": 42.3581,
    "endlon": -71.093198,
    "starthour": 11,
    "trip": "'MIT Vassar St', 'MIT at Mass Ave / Amherst St'",
    "counts": 27
  },
  {
    "": 112,
    "ID": 112,
    "startname": "MIT Pacific St at Purrington St",
    "startlat": 42.359573201090434,
    "startlon": -71.10129475593567,
    "endname": "MIT Stata Center at Vassar St / Main St",
    "endlat": 42.3619622,
    "endlon": -71.0920526,
    "starthour": 11,
    "trip": "'MIT Pacific St at Purrington St', 'MIT Stata Center at Vassar St / Main St'",
    "counts": 23
  },
  {
    "": 113,
    "ID": 113,
    "startname": "MIT Pacific St at Purrington St",
    "startlat": 42.359573201090434,
    "startlon": -71.10129475593567,
    "endname": "Kendall T",
    "endlat": 42.362427842912396,
    "endlon": -71.08495473861693,
    "starthour": 11,
    "trip": "'Kendall T', 'MIT Pacific St at Purrington St'",
    "counts": 16
  },
  {
    "": 114,
    "ID": 114,
    "startname": "Kendall T",
    "startlat": 42.362427842912396,
    "startlon": -71.08495473861693,
    "endname": "MIT at Mass Ave / Amherst St",
    "endlat": 42.3581,
    "endlon": -71.093198,
    "starthour": 11,
    "trip": "'Kendall T', 'MIT at Mass Ave / Amherst St'",
    "counts": 15
  },
  {
    "": 115,
    "ID": 115,
    "startname": "MIT Pacific St at Purrington St",
    "startlat": 42.359573201090434,
    "startlon": -71.10129475593567,
    "endname": "Central Square at Mass Ave / Essex St",
    "endlat": 42.36507,
    "endlon": -71.1031,
    "starthour": 11,
    "trip": "'Central Square at Mass Ave / Essex St', 'MIT Pacific St at Purrington St'",
    "counts": 14
  },
  {
    "": 116,
    "ID": 116,
    "startname": "MIT at Mass Ave / Amherst St",
    "startlat": 42.3581,
    "startlon": -71.093198,
    "endname": "MIT Pacific St at Purrington St",
    "endlat": 42.359573201090434,
    "endlon": -71.10129475593567,
    "starthour": 11,
    "trip": "'MIT Pacific St at Purrington St', 'MIT at Mass Ave / Amherst St'",
    "counts": 14
  },
  {
    "": 117,
    "ID": 117,
    "startname": "359 Broadway - Broadway at Fayette Street",
    "startlat": 42.370803,
    "startlon": -71.104412,
    "endname": "MIT Stata Center at Vassar St / Main St",
    "endlat": 42.3619622,
    "endlon": -71.0920526,
    "starthour": 11,
    "trip": "'359 Broadway - Broadway at Fayette Street', 'MIT Stata Center at Vassar St / Main St'",
    "counts": 13
  },
  {
    "": 118,
    "ID": 118,
    "startname": "MIT Pacific St at Purrington St",
    "startlat": 42.359573201090434,
    "startlon": -71.10129475593567,
    "endname": "Ames St at Main St",
    "endlat": 42.3625,
    "endlon": -71.08821999999999,
    "starthour": 11,
    "trip": "'Ames St at Main St', 'MIT Pacific St at Purrington St'",
    "counts": 11
  },
  {
    "": 119,
    "ID": 119,
    "startname": "MIT Stata Center at Vassar St / Main St",
    "startlat": 42.3619622,
    "startlon": -71.0920526,
    "endname": "Kendall T",
    "endlat": 42.362427842912396,
    "endlon": -71.08495473861693,
    "starthour": 11,
    "trip": "'Kendall T', 'MIT Stata Center at Vassar St / Main St'",
    "counts": 11
  },
  {
    "": 120,
    "ID": 120,
    "startname": "MIT Vassar St",
    "startlat": 42.35560121327927,
    "startlon": -71.10394477844237,
    "endname": "MIT at Mass Ave / Amherst St",
    "endlat": 42.3581,
    "endlon": -71.093198,
    "starthour": 12,
    "trip": "'MIT Vassar St', 'MIT at Mass Ave / Amherst St'",
    "counts": 25
  },
  {
    "": 121,
    "ID": 121,
    "startname": "MIT Pacific St at Purrington St",
    "startlat": 42.359573201090434,
    "startlon": -71.10129475593567,
    "endname": "MIT Stata Center at Vassar St / Main St",
    "endlat": 42.3619622,
    "endlon": -71.0920526,
    "starthour": 12,
    "trip": "'MIT Pacific St at Purrington St', 'MIT Stata Center at Vassar St / Main St'",
    "counts": 19
  },
  {
    "": 122,
    "ID": 122,
    "startname": "MIT Vassar St",
    "startlat": 42.35560121327927,
    "startlon": -71.10394477844237,
    "endname": "MIT Stata Center at Vassar St / Main St",
    "endlat": 42.3619622,
    "endlon": -71.0920526,
    "starthour": 12,
    "trip": "'MIT Stata Center at Vassar St / Main St', 'MIT Vassar St'",
    "counts": 19
  },
  {
    "": 123,
    "ID": 123,
    "startname": "Kendall T",
    "startlat": 42.362427842912396,
    "startlon": -71.08495473861693,
    "endname": "MIT at Mass Ave / Amherst St",
    "endlat": 42.3581,
    "endlon": -71.093198,
    "starthour": 12,
    "trip": "'Kendall T', 'MIT at Mass Ave / Amherst St'",
    "counts": 18
  },
  {
    "": 124,
    "ID": 124,
    "startname": "MIT Vassar St",
    "startlat": 42.35560121327927,
    "startlon": -71.10394477844237,
    "endname": "Kendall T",
    "endlat": 42.362427842912396,
    "endlon": -71.08495473861693,
    "starthour": 12,
    "trip": "'Kendall T', 'MIT Vassar St'",
    "counts": 16
  },
  {
    "": 125,
    "ID": 125,
    "startname": "MIT at Mass Ave / Amherst St",
    "startlat": 42.3581,
    "startlon": -71.093198,
    "endname": "MIT Pacific St at Purrington St",
    "endlat": 42.359573201090434,
    "endlon": -71.10129475593567,
    "starthour": 12,
    "trip": "'MIT Pacific St at Purrington St', 'MIT at Mass Ave / Amherst St'",
    "counts": 15
  },
  {
    "": 126,
    "ID": 126,
    "startname": "Harvard University Housing - 115 Putnam Ave at Peabody Terrace",
    "startlat": 42.366621,
    "startlon": -71.114214,
    "endname": "Harvard University / SEAS Cruft-Pierce Halls at 29 Oxford St",
    "endlat": 42.377945000000004,
    "endlon": -71.116865,
    "starthour": 12,
    "trip": "'Harvard University / SEAS Cruft-Pierce Halls at 29 Oxford St', 'Harvard University Housing - 115 Putnam Ave at Peabody Terrace'",
    "counts": 15
  },
  {
    "": 127,
    "ID": 127,
    "startname": "MIT at Mass Ave / Amherst St",
    "startlat": 42.3581,
    "startlon": -71.093198,
    "endname": "Central Square at Mass Ave / Essex St",
    "endlat": 42.36507,
    "endlon": -71.1031,
    "starthour": 12,
    "trip": "'Central Square at Mass Ave / Essex St', 'MIT at Mass Ave / Amherst St'",
    "counts": 12
  },
  {
    "": 128,
    "ID": 128,
    "startname": "MIT Pacific St at Purrington St",
    "startlat": 42.359573201090434,
    "startlon": -71.10129475593567,
    "endname": "Kendall T",
    "endlat": 42.362427842912396,
    "endlon": -71.08495473861693,
    "starthour": 12,
    "trip": "'Kendall T', 'MIT Pacific St at Purrington St'",
    "counts": 11
  },
  {
    "": 129,
    "ID": 129,
    "startname": "MIT at Mass Ave / Amherst St",
    "startlat": 42.3581,
    "startlon": -71.093198,
    "endname": "Cambridge St - at Columbia St / Webster Ave",
    "endlat": 42.372969,
    "endlon": -71.094445,
    "starthour": 12,
    "trip": "'Cambridge St - at Columbia St / Webster Ave', 'MIT at Mass Ave / Amherst St'",
    "counts": 10
  },
  {
    "": 130,
    "ID": 130,
    "startname": "MIT Vassar St",
    "startlat": 42.35560121327927,
    "startlon": -71.10394477844237,
    "endname": "MIT Stata Center at Vassar St / Main St",
    "endlat": 42.3619622,
    "endlon": -71.0920526,
    "starthour": 13,
    "trip": "'MIT Stata Center at Vassar St / Main St', 'MIT Vassar St'",
    "counts": 34
  },
  {
    "": 131,
    "ID": 131,
    "startname": "MIT at Mass Ave / Amherst St",
    "startlat": 42.3581,
    "startlon": -71.093198,
    "endname": "Kendall T",
    "endlat": 42.362427842912396,
    "endlon": -71.08495473861693,
    "starthour": 13,
    "trip": "'Kendall T', 'MIT at Mass Ave / Amherst St'",
    "counts": 24
  },
  {
    "": 132,
    "ID": 132,
    "startname": "MIT Pacific St at Purrington St",
    "startlat": 42.359573201090434,
    "startlon": -71.10129475593567,
    "endname": "Kendall T",
    "endlat": 42.362427842912396,
    "endlon": -71.08495473861693,
    "starthour": 13,
    "trip": "'Kendall T', 'MIT Pacific St at Purrington St'",
    "counts": 22
  },
  {
    "": 133,
    "ID": 133,
    "startname": "MIT at Mass Ave / Amherst St",
    "startlat": 42.3581,
    "startlon": -71.093198,
    "endname": "MIT Vassar St",
    "endlat": 42.35560121327927,
    "endlon": -71.10394477844237,
    "starthour": 13,
    "trip": "'MIT Vassar St', 'MIT at Mass Ave / Amherst St'",
    "counts": 21
  },
  {
    "": 134,
    "ID": 134,
    "startname": "MIT Pacific St at Purrington St",
    "startlat": 42.359573201090434,
    "startlon": -71.10129475593567,
    "endname": "MIT at Mass Ave / Amherst St",
    "endlat": 42.3581,
    "endlon": -71.093198,
    "starthour": 13,
    "trip": "'MIT Pacific St at Purrington St', 'MIT at Mass Ave / Amherst St'",
    "counts": 20
  },
  {
    "": 135,
    "ID": 135,
    "startname": "MIT at Mass Ave / Amherst St",
    "startlat": 42.3581,
    "startlon": -71.093198,
    "endname": "Ames St at Main St",
    "endlat": 42.3625,
    "endlon": -71.08821999999999,
    "starthour": 13,
    "trip": "'Ames St at Main St', 'MIT at Mass Ave / Amherst St'",
    "counts": 15
  },
  {
    "": 136,
    "ID": 136,
    "startname": "Central Square at Mass Ave / Essex St",
    "startlat": 42.36507,
    "startlon": -71.1031,
    "endname": "MIT Pacific St at Purrington St",
    "endlat": 42.359573201090434,
    "endlon": -71.10129475593567,
    "starthour": 13,
    "trip": "'Central Square at Mass Ave / Essex St', 'MIT Pacific St at Purrington St'",
    "counts": 13
  },
  {
    "": 137,
    "ID": 137,
    "startname": "Central Square at Mass Ave / Essex St",
    "startlat": 42.36507,
    "startlon": -71.1031,
    "endname": "MIT at Mass Ave / Amherst St",
    "endlat": 42.3581,
    "endlon": -71.093198,
    "starthour": 13,
    "trip": "'Central Square at Mass Ave / Essex St', 'MIT at Mass Ave / Amherst St'",
    "counts": 12
  },
  {
    "": 138,
    "ID": 138,
    "startname": "MIT Pacific St at Purrington St",
    "startlat": 42.359573201090434,
    "startlon": -71.10129475593567,
    "endname": "MIT Stata Center at Vassar St / Main St",
    "endlat": 42.3619622,
    "endlon": -71.0920526,
    "starthour": 13,
    "trip": "'MIT Pacific St at Purrington St', 'MIT Stata Center at Vassar St / Main St'",
    "counts": 11
  },
  {
    "": 139,
    "ID": 139,
    "startname": "MIT Vassar St",
    "startlat": 42.35560121327927,
    "startlon": -71.10394477844237,
    "endname": "Kendall T",
    "endlat": 42.362427842912396,
    "endlon": -71.08495473861693,
    "starthour": 13,
    "trip": "'Kendall T', 'MIT Vassar St'",
    "counts": 10
  },
  {
    "": 140,
    "ID": 140,
    "startname": "MIT Vassar St",
    "startlat": 42.35560121327927,
    "startlon": -71.10394477844237,
    "endname": "MIT Stata Center at Vassar St / Main St",
    "endlat": 42.3619622,
    "endlon": -71.0920526,
    "starthour": 14,
    "trip": "'MIT Stata Center at Vassar St / Main St', 'MIT Vassar St'",
    "counts": 26
  },
  {
    "": 141,
    "ID": 141,
    "startname": "MIT Vassar St",
    "startlat": 42.35560121327927,
    "startlon": -71.10394477844237,
    "endname": "MIT at Mass Ave / Amherst St",
    "endlat": 42.3581,
    "endlon": -71.093198,
    "starthour": 14,
    "trip": "'MIT Vassar St', 'MIT at Mass Ave / Amherst St'",
    "counts": 25
  },
  {
    "": 142,
    "ID": 142,
    "startname": "MIT Pacific St at Purrington St",
    "startlat": 42.359573201090434,
    "startlon": -71.10129475593567,
    "endname": "MIT at Mass Ave / Amherst St",
    "endlat": 42.3581,
    "endlon": -71.093198,
    "starthour": 14,
    "trip": "'MIT Pacific St at Purrington St', 'MIT at Mass Ave / Amherst St'",
    "counts": 18
  },
  {
    "": 143,
    "ID": 143,
    "startname": "MIT at Mass Ave / Amherst St",
    "startlat": 42.3581,
    "startlon": -71.093198,
    "endname": "Kendall T",
    "endlat": 42.362427842912396,
    "endlon": -71.08495473861693,
    "starthour": 14,
    "trip": "'Kendall T', 'MIT at Mass Ave / Amherst St'",
    "counts": 15
  },
  {
    "": 144,
    "ID": 144,
    "startname": "MIT Pacific St at Purrington St",
    "startlat": 42.359573201090434,
    "startlon": -71.10129475593567,
    "endname": "Kendall T",
    "endlat": 42.362427842912396,
    "endlon": -71.08495473861693,
    "starthour": 14,
    "trip": "'Kendall T', 'MIT Pacific St at Purrington St'",
    "counts": 14
  },
  {
    "": 145,
    "ID": 145,
    "startname": "MIT Pacific St at Purrington St",
    "startlat": 42.359573201090434,
    "startlon": -71.10129475593567,
    "endname": "MIT Stata Center at Vassar St / Main St",
    "endlat": 42.3619622,
    "endlon": -71.0920526,
    "starthour": 14,
    "trip": "'MIT Pacific St at Purrington St', 'MIT Stata Center at Vassar St / Main St'",
    "counts": 13
  },
  {
    "": 146,
    "ID": 146,
    "startname": "Ames St at Main St",
    "startlat": 42.3625,
    "startlon": -71.08821999999999,
    "endname": "MIT Pacific St at Purrington St",
    "endlat": 42.359573201090434,
    "endlon": -71.10129475593567,
    "starthour": 14,
    "trip": "'Ames St at Main St', 'MIT Pacific St at Purrington St'",
    "counts": 13
  },
  {
    "": 147,
    "ID": 147,
    "startname": "MIT at Mass Ave / Amherst St",
    "startlat": 42.3581,
    "startlon": -71.093198,
    "endname": "Central Square at Mass Ave / Essex St",
    "endlat": 42.36507,
    "endlon": -71.1031,
    "starthour": 14,
    "trip": "'Central Square at Mass Ave / Essex St', 'MIT at Mass Ave / Amherst St'",
    "counts": 11
  },
  {
    "": 148,
    "ID": 148,
    "startname": "MIT Vassar St",
    "startlat": 42.35560121327927,
    "startlon": -71.10394477844237,
    "endname": "University Park",
    "endlat": 42.36264779118595,
    "endlon": -71.1000609397888,
    "starthour": 14,
    "trip": "'MIT Vassar St', 'University Park'",
    "counts": 11
  },
  {
    "": 149,
    "ID": 149,
    "startname": "Harvard Square at Mass Ave/ Dunster",
    "startlat": 42.373267999999996,
    "startlon": -71.118579,
    "endname": "Harvard Square at Mass Ave/ Dunster",
    "endlat": 42.373267999999996,
    "endlon": -71.118579,
    "starthour": 14,
    "trip": "'Harvard Square at Mass Ave/ Dunster', 'Harvard Square at Mass Ave/ Dunster'",
    "counts": 9
  },
  {
    "": 150,
    "ID": 150,
    "startname": "MIT at Mass Ave / Amherst St",
    "startlat": 42.3581,
    "startlon": -71.093198,
    "endname": "Kendall T",
    "endlat": 42.362427842912396,
    "endlon": -71.08495473861693,
    "starthour": 15,
    "trip": "'Kendall T', 'MIT at Mass Ave / Amherst St'",
    "counts": 22
  },
  {
    "": 151,
    "ID": 151,
    "startname": "Harvard Kennedy School at Bennett St / Eliot St",
    "startlat": 42.371991654086756,
    "startlon": -71.12226963043213,
    "endname": "Harvard Law School at Mass Ave / Jarvis St",
    "endlat": 42.379011,
    "endlon": -71.119945,
    "starthour": 15,
    "trip": "'Harvard Kennedy School at Bennett St / Eliot St', 'Harvard Law School at Mass Ave / Jarvis St'",
    "counts": 19
  },
  {
    "": 152,
    "ID": 152,
    "startname": "One Kendall Square at Hampshire St / Portland St",
    "startlat": 42.366277000000004,
    "startlon": -71.09169,
    "endname": "Porter Square Station",
    "endlat": 42.387995000000004,
    "endlon": -71.119084,
    "starthour": 15,
    "trip": "'One Kendall Square at Hampshire St / Portland St', 'Porter Square Station'",
    "counts": 19
  },
  {
    "": 153,
    "ID": 153,
    "startname": "MIT Stata Center at Vassar St / Main St",
    "startlat": 42.3619622,
    "startlon": -71.0920526,
    "endname": "MIT Vassar St",
    "endlat": 42.35560121327927,
    "endlon": -71.10394477844237,
    "starthour": 15,
    "trip": "'MIT Stata Center at Vassar St / Main St', 'MIT Vassar St'",
    "counts": 17
  },
  {
    "": 154,
    "ID": 154,
    "startname": "MIT at Mass Ave / Amherst St",
    "startlat": 42.3581,
    "startlon": -71.093198,
    "endname": "Central Square at Mass Ave / Essex St",
    "endlat": 42.36507,
    "endlon": -71.1031,
    "starthour": 15,
    "trip": "'Central Square at Mass Ave / Essex St', 'MIT at Mass Ave / Amherst St'",
    "counts": 16
  },
  {
    "": 155,
    "ID": 155,
    "startname": "MIT Pacific St at Purrington St",
    "startlat": 42.359573201090434,
    "startlon": -71.10129475593567,
    "endname": "MIT at Mass Ave / Amherst St",
    "endlat": 42.3581,
    "endlon": -71.093198,
    "starthour": 15,
    "trip": "'MIT Pacific St at Purrington St', 'MIT at Mass Ave / Amherst St'",
    "counts": 15
  },
  {
    "": 156,
    "ID": 156,
    "startname": "MIT Stata Center at Vassar St / Main St",
    "startlat": 42.3619622,
    "startlon": -71.0920526,
    "endname": "Kendall T",
    "endlat": 42.362427842912396,
    "endlon": -71.08495473861693,
    "starthour": 15,
    "trip": "'Kendall T', 'MIT Stata Center at Vassar St / Main St'",
    "counts": 14
  },
  {
    "": 157,
    "ID": 157,
    "startname": "MIT at Mass Ave / Amherst St",
    "startlat": 42.3581,
    "startlon": -71.093198,
    "endname": "Harvard Square at Mass Ave/ Dunster",
    "endlat": 42.373267999999996,
    "endlon": -71.118579,
    "starthour": 15,
    "trip": "'Harvard Square at Mass Ave/ Dunster', 'MIT at Mass Ave / Amherst St'",
    "counts": 14
  },
  {
    "": 158,
    "ID": 158,
    "startname": "MIT at Mass Ave / Amherst St",
    "startlat": 42.3581,
    "startlon": -71.093198,
    "endname": "MIT Vassar St",
    "endlat": 42.35560121327927,
    "endlon": -71.10394477844237,
    "starthour": 15,
    "trip": "'MIT Vassar St', 'MIT at Mass Ave / Amherst St'",
    "counts": 13
  },
  {
    "": 159,
    "ID": 159,
    "startname": "MIT Vassar St",
    "startlat": 42.35560121327927,
    "startlon": -71.10394477844237,
    "endname": "Kendall T",
    "endlat": 42.362427842912396,
    "endlon": -71.08495473861693,
    "starthour": 15,
    "trip": "'Kendall T', 'MIT Vassar St'",
    "counts": 13
  },
  {
    "": 160,
    "ID": 160,
    "startname": "MIT Vassar St",
    "startlat": 42.35560121327927,
    "startlon": -71.10394477844237,
    "endname": "MIT Stata Center at Vassar St / Main St",
    "endlat": 42.3619622,
    "endlon": -71.0920526,
    "starthour": 16,
    "trip": "'MIT Stata Center at Vassar St / Main St', 'MIT Vassar St'",
    "counts": 37
  },
  {
    "": 161,
    "ID": 161,
    "startname": "MIT Vassar St",
    "startlat": 42.35560121327927,
    "startlon": -71.10394477844237,
    "endname": "Kendall T",
    "endlat": 42.362427842912396,
    "endlon": -71.08495473861693,
    "starthour": 16,
    "trip": "'Kendall T', 'MIT Vassar St'",
    "counts": 26
  },
  {
    "": 162,
    "ID": 162,
    "startname": "Kendall T",
    "startlat": 42.362427842912396,
    "startlon": -71.08495473861693,
    "endname": "MIT at Mass Ave / Amherst St",
    "endlat": 42.3581,
    "endlon": -71.093198,
    "starthour": 16,
    "trip": "'Kendall T', 'MIT at Mass Ave / Amherst St'",
    "counts": 25
  },
  {
    "": 163,
    "ID": 163,
    "startname": "MIT Vassar St",
    "startlat": 42.35560121327927,
    "startlon": -71.10394477844237,
    "endname": "Ames St at Main St",
    "endlat": 42.3625,
    "endlon": -71.08821999999999,
    "starthour": 16,
    "trip": "'Ames St at Main St', 'MIT Vassar St'",
    "counts": 22
  },
  {
    "": 164,
    "ID": 164,
    "startname": "MIT at Mass Ave / Amherst St",
    "startlat": 42.3581,
    "startlon": -71.093198,
    "endname": "One Kendall Square at Hampshire St / Portland St",
    "endlat": 42.366277000000004,
    "endlon": -71.09169,
    "starthour": 16,
    "trip": "'MIT at Mass Ave / Amherst St', 'One Kendall Square at Hampshire St / Portland St'",
    "counts": 20
  },
  {
    "": 165,
    "ID": 165,
    "startname": "Kendall T",
    "startlat": 42.362427842912396,
    "startlon": -71.08495473861693,
    "endname": "MIT Pacific St at Purrington St",
    "endlat": 42.359573201090434,
    "endlon": -71.10129475593567,
    "starthour": 16,
    "trip": "'Kendall T', 'MIT Pacific St at Purrington St'",
    "counts": 18
  },
  {
    "": 166,
    "ID": 166,
    "startname": "One Kendall Square at Hampshire St / Portland St",
    "startlat": 42.366277000000004,
    "startlon": -71.09169,
    "endname": "MIT Stata Center at Vassar St / Main St",
    "endlat": 42.3619622,
    "endlon": -71.0920526,
    "starthour": 16,
    "trip": "'MIT Stata Center at Vassar St / Main St', 'One Kendall Square at Hampshire St / Portland St'",
    "counts": 17
  },
  {
    "": 167,
    "ID": 167,
    "startname": "MIT Stata Center at Vassar St / Main St",
    "startlat": 42.3619622,
    "startlon": -71.0920526,
    "endname": "MIT Pacific St at Purrington St",
    "endlat": 42.359573201090434,
    "endlon": -71.10129475593567,
    "starthour": 16,
    "trip": "'MIT Pacific St at Purrington St', 'MIT Stata Center at Vassar St / Main St'",
    "counts": 16
  },
  {
    "": 168,
    "ID": 168,
    "startname": "MIT at Mass Ave / Amherst St",
    "startlat": 42.3581,
    "startlon": -71.093198,
    "endname": "MIT Vassar St",
    "endlat": 42.35560121327927,
    "endlon": -71.10394477844237,
    "starthour": 16,
    "trip": "'MIT Vassar St', 'MIT at Mass Ave / Amherst St'",
    "counts": 15
  },
  {
    "": 169,
    "ID": 169,
    "startname": "MIT Pacific St at Purrington St",
    "startlat": 42.359573201090434,
    "startlon": -71.10129475593567,
    "endname": "Central Square at Mass Ave / Essex St",
    "endlat": 42.36507,
    "endlon": -71.1031,
    "starthour": 16,
    "trip": "'Central Square at Mass Ave / Essex St', 'MIT Pacific St at Purrington St'",
    "counts": 14
  },
  {
    "": 170,
    "ID": 170,
    "startname": "MIT Stata Center at Vassar St / Main St",
    "startlat": 42.3619622,
    "startlon": -71.0920526,
    "endname": "MIT Vassar St",
    "endlat": 42.35560121327927,
    "endlon": -71.10394477844237,
    "starthour": 17,
    "trip": "'MIT Stata Center at Vassar St / Main St', 'MIT Vassar St'",
    "counts": 29
  },
  {
    "": 171,
    "ID": 171,
    "startname": "Central Square at Mass Ave / Essex St",
    "startlat": 42.36507,
    "startlon": -71.1031,
    "endname": "Inman Square at Vellucci Plaza / Hampshire St",
    "endlat": 42.374035,
    "endlon": -71.101427,
    "starthour": 17,
    "trip": "'Central Square at Mass Ave / Essex St', 'Inman Square at Vellucci Plaza / Hampshire St'",
    "counts": 24
  },
  {
    "": 172,
    "ID": 172,
    "startname": "MIT at Mass Ave / Amherst St",
    "startlat": 42.3581,
    "startlon": -71.093198,
    "endname": "MIT Vassar St",
    "endlat": 42.35560121327927,
    "endlon": -71.10394477844237,
    "starthour": 17,
    "trip": "'MIT Vassar St', 'MIT at Mass Ave / Amherst St'",
    "counts": 24
  },
  {
    "": 173,
    "ID": 173,
    "startname": "MIT at Mass Ave / Amherst St",
    "startlat": 42.3581,
    "startlon": -71.093198,
    "endname": "Central Square at Mass Ave / Essex St",
    "endlat": 42.36507,
    "endlon": -71.1031,
    "starthour": 17,
    "trip": "'Central Square at Mass Ave / Essex St', 'MIT at Mass Ave / Amherst St'",
    "counts": 21
  },
  {
    "": 174,
    "ID": 174,
    "startname": "Kendall T",
    "startlat": 42.362427842912396,
    "startlon": -71.08495473861693,
    "endname": "Lechmere Station at Cambridge St / First St",
    "endlat": 42.370677,
    "endlon": -71.07652900000001,
    "starthour": 17,
    "trip": "'Kendall T', 'Lechmere Station at Cambridge St / First St'",
    "counts": 21
  },
  {
    "": 175,
    "ID": 175,
    "startname": "MIT Vassar St",
    "startlat": 42.35560121327927,
    "startlon": -71.10394477844237,
    "endname": "University Park",
    "endlat": 42.36264779118595,
    "endlon": -71.1000609397888,
    "starthour": 17,
    "trip": "'MIT Vassar St', 'University Park'",
    "counts": 20
  },
  {
    "": 176,
    "ID": 176,
    "startname": "MIT Pacific St at Purrington St",
    "startlat": 42.359573201090434,
    "startlon": -71.10129475593567,
    "endname": "Central Square at Mass Ave / Essex St",
    "endlat": 42.36507,
    "endlon": -71.1031,
    "starthour": 17,
    "trip": "'Central Square at Mass Ave / Essex St', 'MIT Pacific St at Purrington St'",
    "counts": 20
  },
  {
    "": 177,
    "ID": 177,
    "startname": "MIT Vassar St",
    "startlat": 42.35560121327927,
    "startlon": -71.10394477844237,
    "endname": "Central Square at Mass Ave / Essex St",
    "endlat": 42.36507,
    "endlon": -71.1031,
    "starthour": 17,
    "trip": "'Central Square at Mass Ave / Essex St', 'MIT Vassar St'",
    "counts": 18
  },
  {
    "": 178,
    "ID": 178,
    "startname": "Central Square at Mass Ave / Essex St",
    "startlat": 42.36507,
    "startlon": -71.1031,
    "endname": "Cambridge St - at Columbia St / Webster Ave",
    "endlat": 42.372969,
    "endlon": -71.094445,
    "starthour": 17,
    "trip": "'Cambridge St - at Columbia St / Webster Ave', 'Central Square at Mass Ave / Essex St'",
    "counts": 16
  },
  {
    "": 179,
    "ID": 179,
    "startname": "MIT at Mass Ave / Amherst St",
    "startlat": 42.3581,
    "startlon": -71.093198,
    "endname": "Cambridge St - at Columbia St / Webster Ave",
    "endlat": 42.372969,
    "endlon": -71.094445,
    "starthour": 17,
    "trip": "'Cambridge St - at Columbia St / Webster Ave', 'MIT at Mass Ave / Amherst St'",
    "counts": 16
  },
  {
    "": 180,
    "ID": 180,
    "startname": "MIT at Mass Ave / Amherst St",
    "startlat": 42.3581,
    "startlon": -71.093198,
    "endname": "MIT Vassar St",
    "endlat": 42.35560121327927,
    "endlon": -71.10394477844237,
    "starthour": 18,
    "trip": "'MIT Vassar St', 'MIT at Mass Ave / Amherst St'",
    "counts": 41
  },
  {
    "": 181,
    "ID": 181,
    "startname": "MIT Stata Center at Vassar St / Main St",
    "startlat": 42.3619622,
    "startlon": -71.0920526,
    "endname": "MIT Vassar St",
    "endlat": 42.35560121327927,
    "endlon": -71.10394477844237,
    "starthour": 18,
    "trip": "'MIT Stata Center at Vassar St / Main St', 'MIT Vassar St'",
    "counts": 28
  },
  {
    "": 182,
    "ID": 182,
    "startname": "Central Square at Mass Ave / Essex St",
    "startlat": 42.36507,
    "startlon": -71.1031,
    "endname": "MIT at Mass Ave / Amherst St",
    "endlat": 42.3581,
    "endlon": -71.093198,
    "starthour": 18,
    "trip": "'Central Square at Mass Ave / Essex St', 'MIT at Mass Ave / Amherst St'",
    "counts": 20
  },
  {
    "": 183,
    "ID": 183,
    "startname": "Central Square at Mass Ave / Essex St",
    "startlat": 42.36507,
    "startlon": -71.1031,
    "endname": "MIT Vassar St",
    "endlat": 42.35560121327927,
    "endlon": -71.10394477844237,
    "starthour": 18,
    "trip": "'Central Square at Mass Ave / Essex St', 'MIT Vassar St'",
    "counts": 17
  },
  {
    "": 184,
    "ID": 184,
    "startname": "Central Square at Mass Ave / Essex St",
    "startlat": 42.36507,
    "startlon": -71.1031,
    "endname": "Inman Square at Vellucci Plaza / Hampshire St",
    "endlat": 42.374035,
    "endlon": -71.101427,
    "starthour": 18,
    "trip": "'Central Square at Mass Ave / Essex St', 'Inman Square at Vellucci Plaza / Hampshire St'",
    "counts": 17
  },
  {
    "": 185,
    "ID": 185,
    "startname": "Central Square at Mass Ave / Essex St",
    "startlat": 42.36507,
    "startlon": -71.1031,
    "endname": "359 Broadway - Broadway at Fayette Street",
    "endlat": 42.370803,
    "endlon": -71.104412,
    "starthour": 18,
    "trip": "'359 Broadway - Broadway at Fayette Street', 'Central Square at Mass Ave / Essex St'",
    "counts": 17
  },
  {
    "": 186,
    "ID": 186,
    "startname": "Kendall T",
    "startlat": 42.362427842912396,
    "startlon": -71.08495473861693,
    "endname": "MIT Vassar St",
    "endlat": 42.35560121327927,
    "endlon": -71.10394477844237,
    "starthour": 18,
    "trip": "'Kendall T', 'MIT Vassar St'",
    "counts": 16
  },
  {
    "": 187,
    "ID": 187,
    "startname": "MIT Stata Center at Vassar St / Main St",
    "startlat": 42.3619622,
    "startlon": -71.0920526,
    "endname": "MIT Pacific St at Purrington St",
    "endlat": 42.359573201090434,
    "endlon": -71.10129475593567,
    "starthour": 18,
    "trip": "'MIT Pacific St at Purrington St', 'MIT Stata Center at Vassar St / Main St'",
    "counts": 16
  },
  {
    "": 188,
    "ID": 188,
    "startname": "MIT Stata Center at Vassar St / Main St",
    "startlat": 42.3619622,
    "startlon": -71.0920526,
    "endname": "Central Square at Mass Ave / Essex St",
    "endlat": 42.36507,
    "endlon": -71.1031,
    "starthour": 18,
    "trip": "'Central Square at Mass Ave / Essex St', 'MIT Stata Center at Vassar St / Main St'",
    "counts": 15
  },
  {
    "": 189,
    "ID": 189,
    "startname": "MIT at Mass Ave / Amherst St",
    "startlat": 42.3581,
    "startlon": -71.093198,
    "endname": "MIT Pacific St at Purrington St",
    "endlat": 42.359573201090434,
    "endlon": -71.10129475593567,
    "starthour": 18,
    "trip": "'MIT Pacific St at Purrington St', 'MIT at Mass Ave / Amherst St'",
    "counts": 14
  },
  {
    "": 190,
    "ID": 190,
    "startname": "MIT Vassar St",
    "startlat": 42.35560121327927,
    "startlon": -71.10394477844237,
    "endname": "MIT Stata Center at Vassar St / Main St",
    "endlat": 42.3619622,
    "endlon": -71.0920526,
    "starthour": 19,
    "trip": "'MIT Stata Center at Vassar St / Main St', 'MIT Vassar St'",
    "counts": 31
  },
  {
    "": 191,
    "ID": 191,
    "startname": "MIT at Mass Ave / Amherst St",
    "startlat": 42.3581,
    "startlon": -71.093198,
    "endname": "MIT Pacific St at Purrington St",
    "endlat": 42.359573201090434,
    "endlon": -71.10129475593567,
    "starthour": 19,
    "trip": "'MIT Pacific St at Purrington St', 'MIT at Mass Ave / Amherst St'",
    "counts": 21
  },
  {
    "": 192,
    "ID": 192,
    "startname": "MIT Stata Center at Vassar St / Main St",
    "startlat": 42.3619622,
    "startlon": -71.0920526,
    "endname": "Inman Square at Vellucci Plaza / Hampshire St",
    "endlat": 42.374035,
    "endlon": -71.101427,
    "starthour": 19,
    "trip": "'Inman Square at Vellucci Plaza / Hampshire St', 'MIT Stata Center at Vassar St / Main St'",
    "counts": 15
  },
  {
    "": 193,
    "ID": 193,
    "startname": "MIT at Mass Ave / Amherst St",
    "startlat": 42.3581,
    "startlon": -71.093198,
    "endname": "MIT Vassar St",
    "endlat": 42.35560121327927,
    "endlon": -71.10394477844237,
    "starthour": 19,
    "trip": "'MIT Vassar St', 'MIT at Mass Ave / Amherst St'",
    "counts": 13
  },
  {
    "": 194,
    "ID": 194,
    "startname": "Ames St at Main St",
    "startlat": 42.3625,
    "startlon": -71.08821999999999,
    "endname": "MIT Pacific St at Purrington St",
    "endlat": 42.359573201090434,
    "endlon": -71.10129475593567,
    "starthour": 19,
    "trip": "'Ames St at Main St', 'MIT Pacific St at Purrington St'",
    "counts": 12
  },
  {
    "": 195,
    "ID": 195,
    "startname": "Lower Cambridgeport at Magazine St/Riverside Rd",
    "startlat": 42.356953999999995,
    "startlon": -71.113687,
    "endname": "MIT Vassar St",
    "endlat": 42.35560121327927,
    "endlon": -71.10394477844237,
    "starthour": 19,
    "trip": "'Lower Cambridgeport at Magazine St/Riverside Rd', 'MIT Vassar St'",
    "counts": 12
  },
  {
    "": 196,
    "ID": 196,
    "startname": "Central Square at Mass Ave / Essex St",
    "startlat": 42.36507,
    "startlon": -71.1031,
    "endname": "Sidney Research Campus/ Erie Street at Waverly",
    "endlat": 42.35775309465199,
    "endlon": -71.10393404960631,
    "starthour": 19,
    "trip": "'Central Square at Mass Ave / Essex St', 'Sidney Research Campus/ Erie Street at Waverly'",
    "counts": 11
  },
  {
    "": 197,
    "ID": 197,
    "startname": "One Kendall Square at Hampshire St / Portland St",
    "startlat": 42.366277000000004,
    "startlon": -71.09169,
    "endname": "Kendall T",
    "endlat": 42.362427842912396,
    "endlon": -71.08495473861693,
    "starthour": 19,
    "trip": "'Kendall T', 'One Kendall Square at Hampshire St / Portland St'",
    "counts": 11
  },
  {
    "": 198,
    "ID": 198,
    "startname": "MIT Stata Center at Vassar St / Main St",
    "startlat": 42.3619622,
    "startlon": -71.0920526,
    "endname": "Central Square at Mass Ave / Essex St",
    "endlat": 42.36507,
    "endlon": -71.1031,
    "starthour": 19,
    "trip": "'Central Square at Mass Ave / Essex St', 'MIT Stata Center at Vassar St / Main St'",
    "counts": 11
  },
  {
    "": 199,
    "ID": 199,
    "startname": "MIT Stata Center at Vassar St / Main St",
    "startlat": 42.3619622,
    "startlon": -71.0920526,
    "endname": "University Park",
    "endlat": 42.36264779118595,
    "endlon": -71.1000609397888,
    "starthour": 19,
    "trip": "'MIT Stata Center at Vassar St / Main St', 'University Park'",
    "counts": 10
  },
  {
    "": 200,
    "ID": 200,
    "startname": "MIT Stata Center at Vassar St / Main St",
    "startlat": 42.3619622,
    "startlon": -71.0920526,
    "endname": "MIT Vassar St",
    "endlat": 42.35560121327927,
    "endlon": -71.10394477844237,
    "starthour": 20,
    "trip": "'MIT Stata Center at Vassar St / Main St', 'MIT Vassar St'",
    "counts": 20
  },
  {
    "": 201,
    "ID": 201,
    "startname": "Kendall T",
    "startlat": 42.362427842912396,
    "startlon": -71.08495473861693,
    "endname": "MIT at Mass Ave / Amherst St",
    "endlat": 42.3581,
    "endlon": -71.093198,
    "starthour": 20,
    "trip": "'Kendall T', 'MIT at Mass Ave / Amherst St'",
    "counts": 13
  },
  {
    "": 202,
    "ID": 202,
    "startname": "MIT at Mass Ave / Amherst St",
    "startlat": 42.3581,
    "startlon": -71.093198,
    "endname": "MIT Pacific St at Purrington St",
    "endlat": 42.359573201090434,
    "endlon": -71.10129475593567,
    "starthour": 20,
    "trip": "'MIT Pacific St at Purrington St', 'MIT at Mass Ave / Amherst St'",
    "counts": 11
  },
  {
    "": 203,
    "ID": 203,
    "startname": "MIT at Mass Ave / Amherst St",
    "startlat": 42.3581,
    "startlon": -71.093198,
    "endname": "MIT Vassar St",
    "endlat": 42.35560121327927,
    "endlon": -71.10394477844237,
    "starthour": 20,
    "trip": "'MIT Vassar St', 'MIT at Mass Ave / Amherst St'",
    "counts": 11
  },
  {
    "": 204,
    "ID": 204,
    "startname": "MIT Vassar St",
    "startlat": 42.35560121327927,
    "startlon": -71.10394477844237,
    "endname": "Lower Cambridgeport at Magazine St/Riverside Rd",
    "endlat": 42.356953999999995,
    "endlon": -71.113687,
    "starthour": 20,
    "trip": "'Lower Cambridgeport at Magazine St/Riverside Rd', 'MIT Vassar St'",
    "counts": 10
  },
  {
    "": 205,
    "ID": 205,
    "startname": "MIT Pacific St at Purrington St",
    "startlat": 42.359573201090434,
    "startlon": -71.10129475593567,
    "endname": "MIT Stata Center at Vassar St / Main St",
    "endlat": 42.3619622,
    "endlon": -71.0920526,
    "starthour": 20,
    "trip": "'MIT Pacific St at Purrington St', 'MIT Stata Center at Vassar St / Main St'",
    "counts": 9
  },
  {
    "": 206,
    "ID": 206,
    "startname": "Harvard University Radcliffe Quadrangle at Shepard St / Garden St",
    "startlat": 42.380287,
    "startlon": -71.125107,
    "endname": "Harvard University Gund Hall at Quincy St / Kirkland S",
    "endlat": 42.376369,
    "endlon": -71.114025,
    "starthour": 20,
    "trip": "'Harvard University Gund Hall at Quincy St / Kirkland S', 'Harvard University Radcliffe Quadrangle at Shepard St / Garden St'",
    "counts": 9
  },
  {
    "": 207,
    "ID": 207,
    "startname": "Kendall T",
    "startlat": 42.362427842912396,
    "startlon": -71.08495473861693,
    "endname": "MIT Pacific St at Purrington St",
    "endlat": 42.359573201090434,
    "endlon": -71.10129475593567,
    "starthour": 20,
    "trip": "'Kendall T', 'MIT Pacific St at Purrington St'",
    "counts": 9
  },
  {
    "": 208,
    "ID": 208,
    "startname": "University Park",
    "startlat": 42.36264779118595,
    "startlon": -71.1000609397888,
    "endname": "MIT Pacific St at Purrington St",
    "endlat": 42.359573201090434,
    "endlon": -71.10129475593567,
    "starthour": 20,
    "trip": "'MIT Pacific St at Purrington St', 'University Park'",
    "counts": 9
  },
  {
    "": 209,
    "ID": 209,
    "startname": "Central Sq Post Office / Cambridge City Hall at Mass Ave / Pleasant St",
    "startlat": 42.366426000000004,
    "startlon": -71.10549499999999,
    "endname": "MIT at Mass Ave / Amherst St",
    "endlat": 42.3581,
    "endlon": -71.093198,
    "starthour": 20,
    "trip": "'Central Sq Post Office / Cambridge City Hall at Mass Ave / Pleasant St', 'MIT at Mass Ave / Amherst St'",
    "counts": 8
  },
  {
    "": 210,
    "ID": 210,
    "startname": "MIT at Mass Ave / Amherst St",
    "startlat": 42.3581,
    "startlon": -71.093198,
    "endname": "MIT Pacific St at Purrington St",
    "endlat": 42.359573201090434,
    "endlon": -71.10129475593567,
    "starthour": 21,
    "trip": "'MIT Pacific St at Purrington St', 'MIT at Mass Ave / Amherst St'",
    "counts": 15
  },
  {
    "": 211,
    "ID": 211,
    "startname": "MIT Stata Center at Vassar St / Main St",
    "startlat": 42.3619622,
    "startlon": -71.0920526,
    "endname": "MIT Vassar St",
    "endlat": 42.35560121327927,
    "endlon": -71.10394477844237,
    "starthour": 21,
    "trip": "'MIT Stata Center at Vassar St / Main St', 'MIT Vassar St'",
    "counts": 12
  },
  {
    "": 212,
    "ID": 212,
    "startname": "Central Square at Mass Ave / Essex St",
    "startlat": 42.36507,
    "startlon": -71.1031,
    "endname": "MIT at Mass Ave / Amherst St",
    "endlat": 42.3581,
    "endlon": -71.093198,
    "starthour": 21,
    "trip": "'Central Square at Mass Ave / Essex St', 'MIT at Mass Ave / Amherst St'",
    "counts": 9
  },
  {
    "": 213,
    "ID": 213,
    "startname": "MIT Vassar St",
    "startlat": 42.35560121327927,
    "startlon": -71.10394477844237,
    "endname": "MIT at Mass Ave / Amherst St",
    "endlat": 42.3581,
    "endlon": -71.093198,
    "starthour": 21,
    "trip": "'MIT Vassar St', 'MIT at Mass Ave / Amherst St'",
    "counts": 8
  },
  {
    "": 214,
    "ID": 214,
    "startname": "Ames St at Main St",
    "startlat": 42.3625,
    "startlon": -71.08821999999999,
    "endname": "Third at Binney",
    "endlat": 42.365444861373994,
    "endlon": -71.0827714204788,
    "starthour": 21,
    "trip": "'Ames St at Main St', 'Third at Binney'",
    "counts": 8
  },
  {
    "": 215,
    "ID": 215,
    "startname": "MIT Stata Center at Vassar St / Main St",
    "startlat": 42.3619622,
    "startlon": -71.0920526,
    "endname": "Inman Square at Vellucci Plaza / Hampshire St",
    "endlat": 42.374035,
    "endlon": -71.101427,
    "starthour": 21,
    "trip": "'Inman Square at Vellucci Plaza / Hampshire St', 'MIT Stata Center at Vassar St / Main St'",
    "counts": 7
  },
  {
    "": 216,
    "ID": 216,
    "startname": "Central Square at Mass Ave / Essex St",
    "startlat": 42.36507,
    "startlon": -71.1031,
    "endname": "359 Broadway - Broadway at Fayette Street",
    "endlat": 42.370803,
    "endlon": -71.104412,
    "starthour": 21,
    "trip": "'359 Broadway - Broadway at Fayette Street', 'Central Square at Mass Ave / Essex St'",
    "counts": 6
  },
  {
    "": 217,
    "ID": 217,
    "startname": "MIT at Mass Ave / Amherst St",
    "startlat": 42.3581,
    "startlon": -71.093198,
    "endname": "Dana Park",
    "endlat": 42.361780439606044,
    "endlon": -71.10809952020645,
    "starthour": 21,
    "trip": "'Dana Park', 'MIT at Mass Ave / Amherst St'",
    "counts": 6
  },
  {
    "": 218,
    "ID": 218,
    "startname": "Harvard Square at Mass Ave/ Dunster",
    "startlat": 42.373267999999996,
    "startlon": -71.118579,
    "endname": "Harvard University Radcliffe Quadrangle at Shepard St / Garden St",
    "endlat": 42.380287,
    "endlon": -71.125107,
    "starthour": 21,
    "trip": "'Harvard Square at Mass Ave/ Dunster', 'Harvard University Radcliffe Quadrangle at Shepard St / Garden St'",
    "counts": 6
  },
  {
    "": 219,
    "ID": 219,
    "startname": "MIT Pacific St at Purrington St",
    "startlat": 42.359573201090434,
    "startlon": -71.10129475593567,
    "endname": "Central Square at Mass Ave / Essex St",
    "endlat": 42.36507,
    "endlon": -71.1031,
    "starthour": 21,
    "trip": "'Central Square at Mass Ave / Essex St', 'MIT Pacific St at Purrington St'",
    "counts": 6
  },
  {
    "": 220,
    "ID": 220,
    "startname": "MIT Vassar St",
    "startlat": 42.35560121327927,
    "startlon": -71.10394477844237,
    "endname": "MIT Pacific St at Purrington St",
    "endlat": 42.359573201090434,
    "endlon": -71.10129475593567,
    "starthour": 22,
    "trip": "'MIT Pacific St at Purrington St', 'MIT Vassar St'",
    "counts": 11
  },
  {
    "": 221,
    "ID": 221,
    "startname": "MIT Stata Center at Vassar St / Main St",
    "startlat": 42.3619622,
    "startlon": -71.0920526,
    "endname": "MIT Vassar St",
    "endlat": 42.35560121327927,
    "endlon": -71.10394477844237,
    "starthour": 22,
    "trip": "'MIT Stata Center at Vassar St / Main St', 'MIT Vassar St'",
    "counts": 11
  },
  {
    "": 222,
    "ID": 222,
    "startname": "Central Square at Mass Ave / Essex St",
    "startlat": 42.36507,
    "startlon": -71.1031,
    "endname": "MIT Pacific St at Purrington St",
    "endlat": 42.359573201090434,
    "endlon": -71.10129475593567,
    "starthour": 22,
    "trip": "'Central Square at Mass Ave / Essex St', 'MIT Pacific St at Purrington St'",
    "counts": 10
  },
  {
    "": 223,
    "ID": 223,
    "startname": "MIT Vassar St",
    "startlat": 42.35560121327927,
    "startlon": -71.10394477844237,
    "endname": "MIT at Mass Ave / Amherst St",
    "endlat": 42.3581,
    "endlon": -71.093198,
    "starthour": 22,
    "trip": "'MIT Vassar St', 'MIT at Mass Ave / Amherst St'",
    "counts": 9
  },
  {
    "": 224,
    "ID": 224,
    "startname": "One Kendall Square at Hampshire St / Portland St",
    "startlat": 42.366277000000004,
    "startlon": -71.09169,
    "endname": "MIT Vassar St",
    "endlat": 42.35560121327927,
    "endlon": -71.10394477844237,
    "starthour": 22,
    "trip": "'MIT Vassar St', 'One Kendall Square at Hampshire St / Portland St'",
    "counts": 6
  },
  {
    "": 225,
    "ID": 225,
    "startname": "Central Square at Mass Ave / Essex St",
    "startlat": 42.36507,
    "startlon": -71.1031,
    "endname": "359 Broadway - Broadway at Fayette Street",
    "endlat": 42.370803,
    "endlon": -71.104412,
    "starthour": 22,
    "trip": "'359 Broadway - Broadway at Fayette Street', 'Central Square at Mass Ave / Essex St'",
    "counts": 6
  },
  {
    "": 226,
    "ID": 226,
    "startname": "MIT at Mass Ave / Amherst St",
    "startlat": 42.3581,
    "startlon": -71.093198,
    "endname": "University Park",
    "endlat": 42.36264779118595,
    "endlon": -71.1000609397888,
    "starthour": 22,
    "trip": "'MIT at Mass Ave / Amherst St', 'University Park'",
    "counts": 6
  },
  {
    "": 227,
    "ID": 227,
    "startname": "University Park",
    "startlat": 42.36264779118595,
    "startlon": -71.1000609397888,
    "endname": "MIT Pacific St at Purrington St",
    "endlat": 42.359573201090434,
    "endlon": -71.10129475593567,
    "starthour": 22,
    "trip": "'MIT Pacific St at Purrington St', 'University Park'",
    "counts": 5
  },
  {
    "": 228,
    "ID": 228,
    "startname": "Kendall T",
    "startlat": 42.362427842912396,
    "startlon": -71.08495473861693,
    "endname": "One Kendall Square at Hampshire St / Portland St",
    "endlat": 42.366277000000004,
    "endlon": -71.09169,
    "starthour": 22,
    "trip": "'Kendall T', 'One Kendall Square at Hampshire St / Portland St'",
    "counts": 5
  },
  {
    "": 229,
    "ID": 229,
    "startname": "Binney St / Sixth St",
    "startlat": 42.366095,
    "startlon": -71.086388,
    "endname": "MIT Vassar St",
    "endlat": 42.35560121327927,
    "endlon": -71.10394477844237,
    "starthour": 22,
    "trip": "'Binney St / Sixth St', 'MIT Vassar St'",
    "counts": 4
  },
  {
    "": 230,
    "ID": 230,
    "startname": "MIT at Mass Ave / Amherst St",
    "startlat": 42.3581,
    "startlon": -71.093198,
    "endname": "MIT Vassar St",
    "endlat": 42.35560121327927,
    "endlon": -71.10394477844237,
    "starthour": 23,
    "trip": "'MIT Vassar St', 'MIT at Mass Ave / Amherst St'",
    "counts": 13
  },
  {
    "": 231,
    "ID": 231,
    "startname": "MIT at Mass Ave / Amherst St",
    "startlat": 42.3581,
    "startlon": -71.093198,
    "endname": "MIT Pacific St at Purrington St",
    "endlat": 42.359573201090434,
    "endlon": -71.10129475593567,
    "starthour": 23,
    "trip": "'MIT Pacific St at Purrington St', 'MIT at Mass Ave / Amherst St'",
    "counts": 9
  },
  {
    "": 232,
    "ID": 232,
    "startname": "Lechmere Station at Cambridge St / First St",
    "startlat": 42.370677,
    "startlon": -71.07652900000001,
    "endname": "Kendall Street",
    "endlat": 42.36356015842989,
    "endlon": -71.08216792345047,
    "starthour": 23,
    "trip": "'Kendall Street', 'Lechmere Station at Cambridge St / First St'",
    "counts": 8
  },
  {
    "": 233,
    "ID": 233,
    "startname": "MIT Stata Center at Vassar St / Main St",
    "startlat": 42.3619622,
    "startlon": -71.0920526,
    "endname": "MIT Pacific St at Purrington St",
    "endlat": 42.359573201090434,
    "endlon": -71.10129475593567,
    "starthour": 23,
    "trip": "'MIT Pacific St at Purrington St', 'MIT Stata Center at Vassar St / Main St'",
    "counts": 8
  },
  {
    "": 234,
    "ID": 234,
    "startname": "Ames St at Main St",
    "startlat": 42.3625,
    "startlon": -71.08821999999999,
    "endname": "359 Broadway - Broadway at Fayette Street",
    "endlat": 42.370803,
    "endlon": -71.104412,
    "starthour": 23,
    "trip": "'359 Broadway - Broadway at Fayette Street', 'Ames St at Main St'",
    "counts": 6
  },
  {
    "": 235,
    "ID": 235,
    "startname": "One Kendall Square at Hampshire St / Portland St",
    "startlat": 42.366277000000004,
    "startlon": -71.09169,
    "endname": "Linear Park - Mass. Ave. at Cameron Ave.",
    "endlat": 42.397828000000004,
    "endlon": -71.130516,
    "starthour": 23,
    "trip": "'Linear Park - Mass. Ave. at Cameron Ave. ', 'One Kendall Square at Hampshire St / Portland St'",
    "counts": 6
  },
  {
    "": 236,
    "ID": 236,
    "startname": "MIT Vassar St",
    "startlat": 42.35560121327927,
    "startlon": -71.10394477844237,
    "endname": "One Kendall Square at Hampshire St / Portland St",
    "endlat": 42.366277000000004,
    "endlon": -71.09169,
    "starthour": 23,
    "trip": "'MIT Vassar St', 'One Kendall Square at Hampshire St / Portland St'",
    "counts": 6
  },
  {
    "": 237,
    "ID": 237,
    "startname": "Kendall T",
    "startlat": 42.362427842912396,
    "startlon": -71.08495473861693,
    "endname": "MIT Vassar St",
    "endlat": 42.35560121327927,
    "endlon": -71.10394477844237,
    "starthour": 23,
    "trip": "'Kendall T', 'MIT Vassar St'",
    "counts": 6
  },
  {
    "": 238,
    "ID": 238,
    "startname": "MIT Stata Center at Vassar St / Main St",
    "startlat": 42.3619622,
    "startlon": -71.0920526,
    "endname": "MIT Vassar St",
    "endlat": 42.35560121327927,
    "endlon": -71.10394477844237,
    "starthour": 23,
    "trip": "'MIT Stata Center at Vassar St / Main St', 'MIT Vassar St'",
    "counts": 6
  },
  {
    "": 239,
    "ID": 239,
    "startname": "University Park",
    "startlat": 42.36264779118595,
    "startlon": -71.1000609397888,
    "endname": "MIT Pacific St at Purrington St",
    "endlat": 42.359573201090434,
    "endlon": -71.10129475593567,
    "starthour": 23,
    "trip": "'MIT Pacific St at Purrington St', 'University Park'",
    "counts": 5
  }
]