var nov = [
    {
      "": 0,
      "ID": 0,
      "startname": "Beacon St at Massachusetts Ave",
      "startlat": 42.350826806690954,
      "startlon": -71.0898108780384,
      "endname": "MIT at Mass Ave / Amherst St",
      "endlat": 42.3581,
      "endlon": -71.093198,
      "starthour": 0,
      "trip": "'Beacon St at Massachusetts Ave', 'MIT at Mass Ave / Amherst St'",
      "counts": 37
    },
    {
      "": 1,
      "ID": 1,
      "startname": "Cross St at Hanover St",
      "startlat": 42.362811,
      "startlon": -71.056067,
      "endname": "Warren St at Chelsea St",
      "endlat": 42.371848,
      "endlon": -71.060292,
      "starthour": 0,
      "trip": "'Cross St at Hanover St', 'Warren St at Chelsea St'",
      "counts": 10
    },
    {
      "": 2,
      "ID": 2,
      "startname": "MIT Vassar St",
      "startlat": 42.35560121327927,
      "startlon": -71.10394477844237,
      "endname": "MIT Pacific St at Purrington St",
      "endlat": 42.359573201090434,
      "endlon": -71.10129475593567,
      "starthour": 0,
      "trip": "'MIT Pacific St at Purrington St', 'MIT Vassar St'",
      "counts": 10
    },
    {
      "": 3,
      "ID": 3,
      "startname": "MIT at Mass Ave / Amherst St",
      "startlat": 42.3581,
      "startlon": -71.093198,
      "endname": "MIT Vassar St",
      "endlat": 42.35560121327927,
      "endlon": -71.10394477844237,
      "starthour": 0,
      "trip": "'MIT Vassar St', 'MIT at Mass Ave / Amherst St'",
      "counts": 9
    },
    {
      "": 4,
      "ID": 4,
      "startname": "MIT at Mass Ave / Amherst St",
      "startlat": 42.3581,
      "startlon": -71.093198,
      "endname": "MIT Pacific St at Purrington St",
      "endlat": 42.359573201090434,
      "endlon": -71.10129475593567,
      "starthour": 0,
      "trip": "'MIT Pacific St at Purrington St', 'MIT at Mass Ave / Amherst St'",
      "counts": 8
    },
    {
      "": 5,
      "ID": 5,
      "startname": "Aquarium T Stop - 200 Atlantic Ave",
      "startlat": 42.35991176110118,
      "startlon": -71.0514298081398,
      "endname": "Boston City Hall - 28 State St",
      "endlat": 42.35892,
      "endlon": -71.057629,
      "starthour": 0,
      "trip": "'Aquarium T Stop - 200 Atlantic Ave', 'Boston City Hall - 28 State St'",
      "counts": 7
    },
    {
      "": 6,
      "ID": 6,
      "startname": "Allston Green District - Griggs St at Commonwealth Ave",
      "startlat": 42.34922469338298,
      "startlon": -71.13275302578586,
      "endname": "One Kendall Square at Hampshire St / Portland St",
      "endlat": 42.366277000000004,
      "endlon": -71.09169,
      "starthour": 0,
      "trip": "'Allston Green District - Griggs St at Commonwealth Ave', 'One Kendall Square at Hampshire St / Portland St'",
      "counts": 6
    },
    {
      "": 7,
      "ID": 7,
      "startname": "Harvard Kennedy School at Bennett St / Eliot St",
      "startlat": 42.371991654086756,
      "startlon": -71.12226963043213,
      "endname": "Teele Square at 239 Holland St",
      "endlat": 42.402763,
      "endlon": -71.126908,
      "starthour": 0,
      "trip": "'Harvard Kennedy School at Bennett St / Eliot St', 'Teele Square at 239 Holland St'",
      "counts": 6
    },
    {
      "": 8,
      "ID": 8,
      "startname": "Back Bay T Stop - Dartmouth St at Stuart St",
      "startlat": 42.34807412317439,
      "startlon": -71.07657015323639,
      "endname": "Boylston St at Massachusetts Ave",
      "endlat": 42.347265,
      "endlon": -71.088088,
      "starthour": 0,
      "trip": "'Back Bay T Stop - Dartmouth St at Stuart St', 'Boylston St at Massachusetts Ave'",
      "counts": 6
    },
    {
      "": 9,
      "ID": 9,
      "startname": "Ruggles T Stop - Columbus Ave at Melnea Cass Blvd",
      "startlat": 42.33624444796878,
      "startlon": -71.08798563480376,
      "endname": "Northeastern University - North Parking Lot",
      "endlat": 42.341814,
      "endlon": -71.090179,
      "starthour": 0,
      "trip": "'Northeastern University - North Parking Lot', 'Ruggles T Stop - Columbus Ave at Melnea Cass Blvd'",
      "counts": 6
    },
    {
      "": 10,
      "ID": 10,
      "startname": "Beacon St at Massachusetts Ave",
      "startlat": 42.350826806690954,
      "startlon": -71.0898108780384,
      "endname": "MIT at Mass Ave / Amherst St",
      "endlat": 42.3581,
      "endlon": -71.093198,
      "starthour": 1,
      "trip": "'Beacon St at Massachusetts Ave', 'MIT at Mass Ave / Amherst St'",
      "counts": 22
    },
    {
      "": 11,
      "ID": 11,
      "startname": "New Balance - 20 Guest St",
      "startlat": 42.357329218677066,
      "startlon": -71.14673539996147,
      "endname": "Rindge Avenue - O'Neill Library",
      "endlat": 42.392765999999995,
      "endlon": -71.129042,
      "starthour": 1,
      "trip": "'New Balance - 20 Guest St', \"Rindge Avenue - O'Neill Library",
      "counts": 12
    },
    {
      "": 12,
      "ID": 12,
      "startname": "MIT at Mass Ave / Amherst St",
      "startlat": 42.3581,
      "startlon": -71.093198,
      "endname": "MIT at Mass Ave / Amherst St",
      "endlat": 42.3581,
      "endlon": -71.093198,
      "starthour": 1,
      "trip": "'MIT at Mass Ave / Amherst St', 'MIT at Mass Ave / Amherst St'",
      "counts": 6
    },
    {
      "": 13,
      "ID": 13,
      "startname": "MIT at Mass Ave / Amherst St",
      "startlat": 42.3581,
      "startlon": -71.093198,
      "endname": "MIT Vassar St",
      "endlat": 42.35560121327927,
      "endlon": -71.10394477844237,
      "starthour": 1,
      "trip": "'MIT Vassar St', 'MIT at Mass Ave / Amherst St'",
      "counts": 6
    },
    {
      "": 14,
      "ID": 14,
      "startname": "Ruggles T Stop - Columbus Ave at Melnea Cass Blvd",
      "startlat": 42.33624444796878,
      "startlon": -71.08798563480376,
      "endname": "Northeastern University - North Parking Lot",
      "endlat": 42.341814,
      "endlon": -71.090179,
      "starthour": 1,
      "trip": "'Northeastern University - North Parking Lot', 'Ruggles T Stop - Columbus Ave at Melnea Cass Blvd'",
      "counts": 5
    },
    {
      "": 15,
      "ID": 15,
      "startname": "Boylston St at Washington St",
      "startlat": 42.352409,
      "startlon": -71.062679,
      "endname": "Ruggles T Stop - Columbus Ave at Melnea Cass Blvd",
      "endlat": 42.33624444796878,
      "endlon": -71.08798563480376,
      "starthour": 1,
      "trip": "'Boylston St at Washington St', 'Ruggles T Stop - Columbus Ave at Melnea Cass Blvd'",
      "counts": 5
    },
    {
      "": 16,
      "ID": 16,
      "startname": "Cambridge Main Library at Broadway / Trowbridge St",
      "startlat": 42.373379,
      "startlon": -71.111075,
      "endname": "Beacon St at Massachusetts Ave",
      "endlat": 42.350826806690954,
      "endlon": -71.0898108780384,
      "starthour": 1,
      "trip": "'Beacon St at Massachusetts Ave', 'Cambridge Main Library at Broadway / Trowbridge St'",
      "counts": 5
    },
    {
      "": 17,
      "ID": 17,
      "startname": "Cross St at Hanover St",
      "startlat": 42.362811,
      "startlon": -71.056067,
      "endname": "Warren St at Chelsea St",
      "endlat": 42.371848,
      "endlon": -71.060292,
      "starthour": 1,
      "trip": "'Cross St at Hanover St', 'Warren St at Chelsea St'",
      "counts": 4
    },
    {
      "": 18,
      "ID": 18,
      "startname": "Boylston St at Fairfield St",
      "startlat": 42.348762,
      "startlon": -71.082383,
      "endname": "CambridgeSide Galleria - CambridgeSide PL at Land Blvd",
      "endlat": 42.366981,
      "endlon": -71.076472,
      "starthour": 1,
      "trip": "'Boylston St at Fairfield St', 'CambridgeSide Galleria - CambridgeSide PL at Land Blvd'",
      "counts": 4
    },
    {
      "": 19,
      "ID": 19,
      "startname": "Boylston St at Massachusetts Ave",
      "startlat": 42.347265,
      "startlon": -71.088088,
      "endname": "Newbury St at Hereford St",
      "endlat": 42.348717,
      "endlon": -71.085954,
      "starthour": 1,
      "trip": "'Boylston St at Massachusetts Ave', 'Newbury St at Hereford St'",
      "counts": 4
    },
    {
      "": 20,
      "ID": 20,
      "startname": "MIT at Mass Ave / Amherst St",
      "startlat": 42.3581,
      "startlon": -71.093198,
      "endname": "Beacon St at Massachusetts Ave",
      "endlat": 42.350826806690954,
      "endlon": -71.0898108780384,
      "starthour": 2,
      "trip": "'Beacon St at Massachusetts Ave', 'MIT at Mass Ave / Amherst St'",
      "counts": 22
    },
    {
      "": 21,
      "ID": 21,
      "startname": "Christian Science Plaza - Massachusetts Ave at Westland Ave",
      "startlat": 42.3436658245146,
      "startlon": -71.08582377433777,
      "endname": "HMS/HSPH - Avenue Louis Pasteur at Longwood Ave",
      "endlat": 42.337417484597296,
      "endlon": -71.10286116600038,
      "starthour": 2,
      "trip": "'Christian Science Plaza - Massachusetts Ave at Westland Ave', 'HMS/HSPH - Avenue Louis Pasteur at Longwood Ave'",
      "counts": 16
    },
    {
      "": 22,
      "ID": 22,
      "startname": "Kenmore Square",
      "startlat": 42.348706,
      "startlon": -71.097009,
      "endname": "MIT Pacific St at Purrington St",
      "endlat": 42.359573201090434,
      "endlon": -71.10129475593567,
      "starthour": 2,
      "trip": "'Kenmore Square', 'MIT Pacific St at Purrington St'",
      "counts": 7
    },
    {
      "": 23,
      "ID": 23,
      "startname": "Packard's Corner - Commonwealth Ave at Brighton Ave",
      "startlat": 42.352261,
      "startlon": -71.12383100000001,
      "endname": "Brighton Center - Washington St at Cambridge St",
      "endlat": 42.34894857235593,
      "endlon": -71.15027189254761,
      "starthour": 2,
      "trip": "'Brighton Center - Washington St at Cambridge St', \"Packard's Corner - Commonwealth Ave at Brighton Ave",
      "counts": 5
    },
    {
      "": 24,
      "ID": 24,
      "startname": "Kendall T",
      "startlat": 42.362427842912396,
      "startlon": -71.08495473861693,
      "endname": "Dana Park",
      "endlat": 42.361780439606044,
      "endlon": -71.10809952020645,
      "starthour": 2,
      "trip": "'Dana Park', 'Kendall T'",
      "counts": 4
    },
    {
      "": 25,
      "ID": 25,
      "startname": "MIT Stata Center at Vassar St / Main St",
      "startlat": 42.3621312344991,
      "startlon": -71.09115600585936,
      "endname": "MIT Pacific St at Purrington St",
      "endlat": 42.359573201090434,
      "endlon": -71.10129475593567,
      "starthour": 2,
      "trip": "'MIT Pacific St at Purrington St', 'MIT Stata Center at Vassar St / Main St'",
      "counts": 4
    },
    {
      "": 26,
      "ID": 26,
      "startname": "MIT at Mass Ave / Amherst St",
      "startlat": 42.3581,
      "startlon": -71.093198,
      "endname": "MIT Vassar St",
      "endlat": 42.35560121327927,
      "endlon": -71.10394477844237,
      "starthour": 2,
      "trip": "'MIT Vassar St', 'MIT at Mass Ave / Amherst St'",
      "counts": 4
    },
    {
      "": 27,
      "ID": 27,
      "startname": "New Balance - 20 Guest St",
      "startlat": 42.357329218677066,
      "startlon": -71.14673539996147,
      "endname": "Rindge Avenue - O'Neill Library",
      "endlat": 42.392765999999995,
      "endlon": -71.129042,
      "starthour": 2,
      "trip": "'New Balance - 20 Guest St', \"Rindge Avenue - O'Neill Library",
      "counts": 3
    },
    {
      "": 28,
      "ID": 28,
      "startname": "Northeastern University - North Parking Lot",
      "startlat": 42.341814,
      "startlon": -71.090179,
      "endname": "Kenmore Square",
      "endlat": 42.348706,
      "endlon": -71.097009,
      "starthour": 2,
      "trip": "'Kenmore Square', 'Northeastern University - North Parking Lot'",
      "counts": 3
    },
    {
      "": 29,
      "ID": 29,
      "startname": "Cross St at Hanover St",
      "startlat": 42.362811,
      "startlon": -71.056067,
      "endname": "Broadway St at Mt Pleasant St",
      "endlat": 42.38614141163957,
      "endlon": -71.07828140258789,
      "starthour": 2,
      "trip": "'Broadway St at Mt Pleasant St', 'Cross St at Hanover St'",
      "counts": 3
    },
    {
      "": 30,
      "ID": 30,
      "startname": "MIT at Mass Ave / Amherst St",
      "startlat": 42.3581,
      "startlon": -71.093198,
      "endname": "MIT Vassar St",
      "endlat": 42.35560121327927,
      "endlon": -71.10394477844237,
      "starthour": 3,
      "trip": "'MIT Vassar St', 'MIT at Mass Ave / Amherst St'",
      "counts": 6
    },
    {
      "": 31,
      "ID": 31,
      "startname": "MIT at Mass Ave / Amherst St",
      "startlat": 42.3581,
      "startlon": -71.093198,
      "endname": "Beacon St at Massachusetts Ave",
      "endlat": 42.350826806690954,
      "endlon": -71.0898108780384,
      "starthour": 3,
      "trip": "'Beacon St at Massachusetts Ave', 'MIT at Mass Ave / Amherst St'",
      "counts": 5
    },
    {
      "": 32,
      "ID": 32,
      "startname": "Boylston St at Massachusetts Ave",
      "startlat": 42.347265,
      "startlon": -71.088088,
      "endname": "Copley Square - Dartmouth St at Boylston St",
      "endlat": 42.34976701008725,
      "endlon": -71.0773265361786,
      "starthour": 3,
      "trip": "'Boylston St at Massachusetts Ave', 'Copley Square - Dartmouth St at Boylston St'",
      "counts": 4
    },
    {
      "": 33,
      "ID": 33,
      "startname": "Davis Square",
      "startlat": 42.396969,
      "startlon": -71.123024,
      "endname": "Somerville City Hall",
      "endlat": 42.386844,
      "endlon": -71.09812,
      "starthour": 3,
      "trip": "'Davis Square', 'Somerville City Hall'",
      "counts": 3
    },
    {
      "": 34,
      "ID": 34,
      "startname": "Kenmore Square",
      "startlat": 42.348706,
      "startlon": -71.097009,
      "endname": "Boylston St at Massachusetts Ave",
      "endlat": 42.347265,
      "endlon": -71.088088,
      "starthour": 3,
      "trip": "'Boylston St at Massachusetts Ave', 'Kenmore Square'",
      "counts": 3
    },
    {
      "": 35,
      "ID": 35,
      "startname": "Allston Green District - Griggs St at Commonwealth Ave",
      "startlat": 42.34922469338298,
      "startlon": -71.13275302578586,
      "endname": "Boston Medical Center - E Concord St at Harrison Ave",
      "endlat": 42.336437,
      "endlon": -71.073089,
      "starthour": 3,
      "trip": "'Allston Green District - Griggs St at Commonwealth Ave', 'Boston Medical Center - E Concord St at Harrison Ave'",
      "counts": 3
    },
    {
      "": 36,
      "ID": 36,
      "startname": "Packard's Corner - Commonwealth Ave at Brighton Ave",
      "startlat": 42.352261,
      "startlon": -71.12383100000001,
      "endname": "Brighton Center - Washington St at Cambridge St",
      "endlat": 42.34894857235593,
      "endlon": -71.15027189254761,
      "starthour": 3,
      "trip": "'Brighton Center - Washington St at Cambridge St', \"Packard's Corner - Commonwealth Ave at Brighton Ave",
      "counts": 3
    },
    {
      "": 37,
      "ID": 37,
      "startname": "Northeastern University - North Parking Lot",
      "startlat": 42.341814,
      "startlon": -71.090179,
      "endname": "Ruggles T Stop - Columbus Ave at Melnea Cass Blvd",
      "endlat": 42.33624444796878,
      "endlon": -71.08798563480376,
      "starthour": 3,
      "trip": "'Northeastern University - North Parking Lot', 'Ruggles T Stop - Columbus Ave at Melnea Cass Blvd'",
      "counts": 3
    },
    {
      "": 38,
      "ID": 38,
      "startname": "Central Square at Mass Ave / Essex St",
      "startlat": 42.36507,
      "startlon": -71.1031,
      "endname": "Binney St / Sixth St",
      "endlat": 42.366095,
      "endlon": -71.086388,
      "starthour": 3,
      "trip": "'Binney St / Sixth St', 'Central Square at Mass Ave / Essex St'",
      "counts": 2
    },
    {
      "": 39,
      "ID": 39,
      "startname": "Binney St / Sixth St",
      "startlat": 42.366095,
      "startlon": -71.086388,
      "endname": "Broadway St at Mt Pleasant St",
      "endlat": 42.38614141163957,
      "endlon": -71.07828140258789,
      "starthour": 3,
      "trip": "'Binney St / Sixth St', 'Broadway St at Mt Pleasant St'",
      "counts": 2
    },
    {
      "": 40,
      "ID": 40,
      "startname": "Bowdoin St at Quincy St",
      "startlat": 42.30785224238503,
      "startlon": -71.06512248516083,
      "endname": "Boylston St at Arlington St",
      "endlat": 42.352583438376996,
      "endlon": -71.06766249993595,
      "starthour": 4,
      "trip": "'Bowdoin St at Quincy St', 'Boylston St at Arlington St'",
      "counts": 12
    },
    {
      "": 41,
      "ID": 41,
      "startname": "Packard's Corner - Commonwealth Ave at Brighton Ave",
      "startlat": 42.352261,
      "startlon": -71.12383100000001,
      "endname": "Christian Science Plaza - Massachusetts Ave at Westland Ave",
      "endlat": 42.3436658245146,
      "endlon": -71.08582377433777,
      "starthour": 4,
      "trip": "'Christian Science Plaza - Massachusetts Ave at Westland Ave', \"Packard's Corner - Commonwealth Ave at Brighton Ave",
      "counts": 11
    },
    {
      "": 42,
      "ID": 42,
      "startname": "Newmarket Square T Stop - Massachusetts Ave at Newmarket Square",
      "startlat": 42.326599,
      "startlon": -71.066498,
      "endname": "Arch St at Franklin St",
      "endlat": 42.35581929709065,
      "endlon": -71.05887290099417,
      "starthour": 4,
      "trip": "'Arch St at Franklin St', 'Newmarket Square T Stop - Massachusetts Ave at Newmarket Square'",
      "counts": 7
    },
    {
      "": 43,
      "ID": 43,
      "startname": "Upham's Corner",
      "startlat": 42.31750891943043,
      "startlon": -71.06416625906604,
      "endname": "South End Library - Tremont St at W Newton St",
      "endlat": 42.341332,
      "endlon": -71.076847,
      "starthour": 4,
      "trip": "'South End Library - Tremont St at W Newton St', \"Upham's Corner",
      "counts": 6
    },
    {
      "": 44,
      "ID": 44,
      "startname": "Northeastern University - North Parking Lot",
      "startlat": 42.341814,
      "startlon": -71.090179,
      "endname": "Copley Square - Dartmouth St at Boylston St",
      "endlat": 42.34976701008725,
      "endlon": -71.0773265361786,
      "starthour": 4,
      "trip": "'Copley Square - Dartmouth St at Boylston St', 'Northeastern University - North Parking Lot'",
      "counts": 6
    },
    {
      "": 45,
      "ID": 45,
      "startname": "Copley Square - Dartmouth St at Boylston St",
      "startlat": 42.34976701008725,
      "startlon": -71.0773265361786,
      "endname": "Boylston St at Massachusetts Ave",
      "endlat": 42.347265,
      "endlon": -71.088088,
      "starthour": 4,
      "trip": "'Boylston St at Massachusetts Ave', 'Copley Square - Dartmouth St at Boylston St'",
      "counts": 4
    },
    {
      "": 46,
      "ID": 46,
      "startname": "E Cottage St at Columbia Rd",
      "startlat": 42.320561,
      "startlon": -71.06198,
      "endname": "Arch St at Franklin St",
      "endlat": 42.35581929709065,
      "endlon": -71.05887290099417,
      "starthour": 4,
      "trip": "'Arch St at Franklin St', 'E Cottage St at Columbia Rd'",
      "counts": 4
    },
    {
      "": 47,
      "ID": 47,
      "startname": "Allston Green District - Griggs St at Commonwealth Ave",
      "startlat": 42.34922469338298,
      "startlon": -71.13275302578586,
      "endname": "Boston Medical Center - E Concord St at Harrison Ave",
      "endlat": 42.336437,
      "endlon": -71.073089,
      "starthour": 4,
      "trip": "'Allston Green District - Griggs St at Commonwealth Ave', 'Boston Medical Center - E Concord St at Harrison Ave'",
      "counts": 4
    },
    {
      "": 48,
      "ID": 48,
      "startname": "MIT Pacific St at Purrington St",
      "startlat": 42.359573201090434,
      "startlon": -71.10129475593567,
      "endname": "Ames St at Main St",
      "endlat": 42.3625,
      "endlon": -71.08821999999999,
      "starthour": 4,
      "trip": "'Ames St at Main St', 'MIT Pacific St at Purrington St'",
      "counts": 3
    },
    {
      "": 49,
      "ID": 49,
      "startname": "MIT at Mass Ave / Amherst St",
      "startlat": 42.3581,
      "startlon": -71.093198,
      "endname": "MIT Pacific St at Purrington St",
      "endlat": 42.359573201090434,
      "endlon": -71.10129475593567,
      "starthour": 4,
      "trip": "'MIT Pacific St at Purrington St', 'MIT at Mass Ave / Amherst St'",
      "counts": 3
    },
    {
      "": 50,
      "ID": 50,
      "startname": "Powder House Circle - Nathan Tufts Park",
      "startlat": 42.400877,
      "startlon": -71.116772,
      "endname": "Davis Square",
      "endlat": 42.396969,
      "endlon": -71.123024,
      "starthour": 5,
      "trip": "'Davis Square', 'Powder House Circle - Nathan Tufts Park'",
      "counts": 19
    },
    {
      "": 51,
      "ID": 51,
      "startname": "Tremont St at E Berkeley St",
      "startlat": 42.345392,
      "startlon": -71.069616,
      "endname": "Arch St at Franklin St",
      "endlat": 42.35581929709065,
      "endlon": -71.05887290099417,
      "starthour": 5,
      "trip": "'Arch St at Franklin St', 'Tremont St at E Berkeley St'",
      "counts": 19
    },
    {
      "": 52,
      "ID": 52,
      "startname": "Coolidge Corner - Beacon St @ Centre St",
      "startlat": 42.341598,
      "startlon": -71.123338,
      "endname": "One Kendall Square at Hampshire St / Portland St",
      "endlat": 42.366277000000004,
      "endlon": -71.09169,
      "starthour": 5,
      "trip": "'Coolidge Corner - Beacon St @ Centre St', 'One Kendall Square at Hampshire St / Portland St'",
      "counts": 18
    },
    {
      "": 53,
      "ID": 53,
      "startname": "Cambridge St at Joy St",
      "startlat": 42.361199417496216,
      "startlon": -71.06519486764228,
      "endname": "Post Office Square - Pearl St at Milk St",
      "endlat": 42.356755,
      "endlon": -71.05540699999999,
      "starthour": 5,
      "trip": "'Cambridge St at Joy St', 'Post Office Square - Pearl St at Milk St'",
      "counts": 17
    },
    {
      "": 54,
      "ID": 54,
      "startname": "Lewis Wharf at Atlantic Ave",
      "startlat": 42.363871,
      "startlon": -71.050877,
      "endname": "Post Office Square - Pearl St at Milk St",
      "endlat": 42.356755,
      "endlon": -71.05540699999999,
      "starthour": 5,
      "trip": "'Lewis Wharf at Atlantic Ave', 'Post Office Square - Pearl St at Milk St'",
      "counts": 17
    },
    {
      "": 55,
      "ID": 55,
      "startname": "South Station - 700 Atlantic Ave",
      "startlat": 42.352175,
      "startlon": -71.055547,
      "endname": "Congress St at Northern Ave",
      "endlat": 42.3481,
      "endlon": -71.03764,
      "starthour": 5,
      "trip": "'Congress St at Northern Ave', 'South Station - 700 Atlantic Ave'",
      "counts": 17
    },
    {
      "": 56,
      "ID": 56,
      "startname": "Christian Science Plaza - Massachusetts Ave at Westland Ave",
      "startlat": 42.3436658245146,
      "startlon": -71.08582377433777,
      "endname": "Boston Medical Center - E Concord St at Harrison Ave",
      "endlat": 42.336437,
      "endlon": -71.073089,
      "starthour": 5,
      "trip": "'Boston Medical Center - E Concord St at Harrison Ave', 'Christian Science Plaza - Massachusetts Ave at Westland Ave'",
      "counts": 16
    },
    {
      "": 57,
      "ID": 57,
      "startname": "Washington St at Waltham St",
      "startlat": 42.341522,
      "startlon": -71.068922,
      "endname": "HMS/HSPH - Avenue Louis Pasteur at Longwood Ave",
      "endlat": 42.337417484597296,
      "endlon": -71.10286116600038,
      "starthour": 5,
      "trip": "'HMS/HSPH - Avenue Louis Pasteur at Longwood Ave', 'Washington St at Waltham St'",
      "counts": 16
    },
    {
      "": 58,
      "ID": 58,
      "startname": "Yawkey Way at Boylston St.",
      "startlat": 42.3446808403874,
      "startlon": -71.09785348176956,
      "endname": "Charles Circle - Charles St at Cambridge St",
      "endlat": 42.36075761041193,
      "endlon": -71.07132909824031,
      "starthour": 5,
      "trip": "'Charles Circle - Charles St at Cambridge St', 'Yawkey Way at Boylston St.'",
      "counts": 13
    },
    {
      "": 59,
      "ID": 59,
      "startname": "Lewis Wharf at Atlantic Ave",
      "startlat": 42.363871,
      "startlon": -71.050877,
      "endname": "Seaport Blvd at Sleeper St",
      "endlat": 42.353178091862524,
      "endlon": -71.04817356923377,
      "starthour": 5,
      "trip": "'Lewis Wharf at Atlantic Ave', 'Seaport Blvd at Sleeper St'",
      "counts": 12
    },
    {
      "": 60,
      "ID": 60,
      "startname": "Teele Square at 239 Holland St",
      "startlat": 42.402763,
      "startlon": -71.126908,
      "endname": "Davis Square",
      "endlat": 42.396969,
      "endlon": -71.123024,
      "starthour": 6,
      "trip": "'Davis Square', 'Teele Square at 239 Holland St'",
      "counts": 45
    },
    {
      "": 61,
      "ID": 61,
      "startname": "Coolidge Corner - Beacon St @ Centre St",
      "startlat": 42.341598,
      "startlon": -71.123338,
      "endname": "Longwood Ave at Binney St",
      "endlat": 42.338629,
      "endlon": -71.1065,
      "starthour": 6,
      "trip": "'Coolidge Corner - Beacon St @ Centre St', 'Longwood Ave at Binney St'",
      "counts": 36
    },
    {
      "": 62,
      "ID": 62,
      "startname": "Nashua Street at Red Auerbach Way",
      "startlat": 42.365673,
      "startlon": -71.064263,
      "endname": "Post Office Square - Pearl St at Milk St",
      "endlat": 42.356755,
      "endlon": -71.05540699999999,
      "starthour": 6,
      "trip": "'Nashua Street at Red Auerbach Way', 'Post Office Square - Pearl St at Milk St'",
      "counts": 31
    },
    {
      "": 63,
      "ID": 63,
      "startname": "Porter Square Station",
      "startlat": 42.387995000000004,
      "startlon": -71.119084,
      "endname": "One Kendall Square at Hampshire St / Portland St",
      "endlat": 42.366277000000004,
      "endlon": -71.09169,
      "starthour": 6,
      "trip": "'One Kendall Square at Hampshire St / Portland St', 'Porter Square Station'",
      "counts": 25
    },
    {
      "": 64,
      "ID": 64,
      "startname": "W Broadway at D St",
      "startlat": 42.3391085,
      "startlon": -71.05144320000001,
      "endname": "Purchase St at Pearl St",
      "endlat": 42.354659000000005,
      "endlon": -71.05318100000001,
      "starthour": 6,
      "trip": "'Purchase St at Pearl St', 'W Broadway at D St'",
      "counts": 23
    },
    {
      "": 65,
      "ID": 65,
      "startname": "Linear Park - Mass. Ave. at Cameron Ave.",
      "startlat": 42.397828000000004,
      "startlon": -71.130516,
      "endname": "Davis Square",
      "endlat": 42.396969,
      "endlon": -71.123024,
      "starthour": 6,
      "trip": "'Davis Square', 'Linear Park - Mass. Ave. at Cameron Ave. '",
      "counts": 23
    },
    {
      "": 66,
      "ID": 66,
      "startname": "Cross St at Hanover St",
      "startlat": 42.362811,
      "startlon": -71.056067,
      "endname": "Post Office Square - Pearl St at Milk St",
      "endlat": 42.356755,
      "endlon": -71.05540699999999,
      "starthour": 6,
      "trip": "'Cross St at Hanover St', 'Post Office Square - Pearl St at Milk St'",
      "counts": 22
    },
    {
      "": 67,
      "ID": 67,
      "startname": "Nashua Street at Red Auerbach Way",
      "startlat": 42.365673,
      "startlon": -71.064263,
      "endname": "Boylston St at Arlington St",
      "endlat": 42.352583438376996,
      "endlon": -71.06766249993595,
      "starthour": 6,
      "trip": "'Boylston St at Arlington St', 'Nashua Street at Red Auerbach Way'",
      "counts": 21
    },
    {
      "": 68,
      "ID": 68,
      "startname": "Washington St at Waltham St",
      "startlat": 42.341522,
      "startlon": -71.068922,
      "endname": "HMS/HSPH - Avenue Louis Pasteur at Longwood Ave",
      "endlat": 42.337417484597296,
      "endlon": -71.10286116600038,
      "starthour": 6,
      "trip": "'HMS/HSPH - Avenue Louis Pasteur at Longwood Ave', 'Washington St at Waltham St'",
      "counts": 20
    },
    {
      "": 69,
      "ID": 69,
      "startname": "Nashua Street at Red Auerbach Way",
      "startlat": 42.365673,
      "startlon": -71.064263,
      "endname": "Surface Rd at India St",
      "endlat": 42.358155,
      "endlon": -71.05216300000001,
      "starthour": 6,
      "trip": "'Nashua Street at Red Auerbach Way', 'Surface Rd at India St'",
      "counts": 18
    },
    {
      "": 70,
      "ID": 70,
      "startname": "Linear Park - Mass. Ave. at Cameron Ave.",
      "startlat": 42.397828000000004,
      "startlon": -71.130516,
      "endname": "Davis Square",
      "endlat": 42.396969,
      "endlon": -71.123024,
      "starthour": 7,
      "trip": "'Davis Square', 'Linear Park - Mass. Ave. at Cameron Ave. '",
      "counts": 57
    },
    {
      "": 71,
      "ID": 71,
      "startname": "Teele Square at 239 Holland St",
      "startlat": 42.402763,
      "startlon": -71.126908,
      "endname": "Davis Square",
      "endlat": 42.396969,
      "endlon": -71.123024,
      "starthour": 7,
      "trip": "'Davis Square', 'Teele Square at 239 Holland St'",
      "counts": 46
    },
    {
      "": 72,
      "ID": 72,
      "startname": "MIT Vassar St",
      "startlat": 42.35560121327927,
      "startlon": -71.10394477844237,
      "endname": "Ames St at Main St",
      "endlat": 42.3625,
      "endlon": -71.08821999999999,
      "starthour": 7,
      "trip": "'Ames St at Main St', 'MIT Vassar St'",
      "counts": 36
    },
    {
      "": 73,
      "ID": 73,
      "startname": "Beacon St at Massachusetts Ave",
      "startlat": 42.350826806690954,
      "startlon": -71.0898108780384,
      "endname": "MIT at Mass Ave / Amherst St",
      "endlat": 42.3581,
      "endlon": -71.093198,
      "starthour": 7,
      "trip": "'Beacon St at Massachusetts Ave', 'MIT at Mass Ave / Amherst St'",
      "counts": 29
    },
    {
      "": 74,
      "ID": 74,
      "startname": "Tremont St at E Berkeley St",
      "startlat": 42.345392,
      "startlon": -71.069616,
      "endname": "South Station - 700 Atlantic Ave",
      "endlat": 42.352175,
      "endlon": -71.055547,
      "starthour": 7,
      "trip": "'South Station - 700 Atlantic Ave', 'Tremont St at E Berkeley St'",
      "counts": 28
    },
    {
      "": 75,
      "ID": 75,
      "startname": "Columbus Ave at Massachusetts Ave",
      "startlat": 42.340542615516355,
      "startlon": -71.08138847914233,
      "endname": "MIT Stata Center at Vassar St / Main St",
      "endlat": 42.3621312344991,
      "endlon": -71.09115600585936,
      "starthour": 7,
      "trip": "'Columbus Ave at Massachusetts Ave', 'MIT Stata Center at Vassar St / Main St'",
      "counts": 28
    },
    {
      "": 76,
      "ID": 76,
      "startname": "Curtis Hall - South St at Centre St",
      "startlat": 42.309053999999996,
      "startlon": -71.11543,
      "endname": "Green Street T Stop - Green St at Amory St",
      "endlat": 42.310579,
      "endlon": -71.107341,
      "starthour": 7,
      "trip": "'Curtis Hall - South St at Centre St', 'Green Street T Stop - Green St at Amory St'",
      "counts": 27
    },
    {
      "": 77,
      "ID": 77,
      "startname": "MIT Vassar St",
      "startlat": 42.35560121327927,
      "startlon": -71.10394477844237,
      "endname": "MIT Stata Center at Vassar St / Main St",
      "endlat": 42.3621312344991,
      "endlon": -71.09115600585936,
      "starthour": 7,
      "trip": "'MIT Stata Center at Vassar St / Main St', 'MIT Vassar St'",
      "counts": 25
    },
    {
      "": 78,
      "ID": 78,
      "startname": "Washington St at Waltham St",
      "startlat": 42.341522,
      "startlon": -71.068922,
      "endname": "Arch St at Franklin St",
      "endlat": 42.35581929709065,
      "endlon": -71.05887290099417,
      "starthour": 7,
      "trip": "'Arch St at Franklin St', 'Washington St at Waltham St'",
      "counts": 23
    },
    {
      "": 79,
      "ID": 79,
      "startname": "Back Bay T Stop - Dartmouth St at Stuart St",
      "startlat": 42.34807412317439,
      "startlon": -71.07657015323639,
      "endname": "MIT Stata Center at Vassar St / Main St",
      "endlat": 42.3621312344991,
      "endlon": -71.09115600585936,
      "starthour": 7,
      "trip": "'Back Bay T Stop - Dartmouth St at Stuart St', 'MIT Stata Center at Vassar St / Main St'",
      "counts": 23
    },
    {
      "": 80,
      "ID": 80,
      "startname": "South Station - 700 Atlantic Ave",
      "startlat": 42.352175,
      "startlon": -71.055547,
      "endname": "Lewis Wharf at Atlantic Ave",
      "endlat": 42.363871,
      "endlon": -71.050877,
      "starthour": 8,
      "trip": "'Lewis Wharf at Atlantic Ave', 'South Station - 700 Atlantic Ave'",
      "counts": 76
    },
    {
      "": 81,
      "ID": 81,
      "startname": "MIT Pacific St at Purrington St",
      "startlat": 42.359573201090434,
      "startlon": -71.10129475593567,
      "endname": "Kendall T",
      "endlat": 42.362427842912396,
      "endlon": -71.08495473861693,
      "starthour": 8,
      "trip": "'Kendall T', 'MIT Pacific St at Purrington St'",
      "counts": 71
    },
    {
      "": 82,
      "ID": 82,
      "startname": "Teele Square at 239 Holland St",
      "startlat": 42.402763,
      "startlon": -71.126908,
      "endname": "Davis Square",
      "endlat": 42.396969,
      "endlon": -71.123024,
      "starthour": 8,
      "trip": "'Davis Square', 'Teele Square at 239 Holland St'",
      "counts": 59
    },
    {
      "": 83,
      "ID": 83,
      "startname": "MIT Vassar St",
      "startlat": 42.35560121327927,
      "startlon": -71.10394477844237,
      "endname": "MIT Stata Center at Vassar St / Main St",
      "endlat": 42.3621312344991,
      "endlon": -71.09115600585936,
      "starthour": 8,
      "trip": "'MIT Stata Center at Vassar St / Main St', 'MIT Vassar St'",
      "counts": 53
    },
    {
      "": 84,
      "ID": 84,
      "startname": "Linear Park - Mass. Ave. at Cameron Ave.",
      "startlat": 42.397828000000004,
      "startlon": -71.130516,
      "endname": "Davis Square",
      "endlat": 42.396969,
      "endlon": -71.123024,
      "starthour": 8,
      "trip": "'Davis Square', 'Linear Park - Mass. Ave. at Cameron Ave. '",
      "counts": 45
    },
    {
      "": 85,
      "ID": 85,
      "startname": "Kendall T",
      "startlat": 42.362427842912396,
      "startlon": -71.08495473861693,
      "endname": "MIT Vassar St",
      "endlat": 42.35560121327927,
      "endlon": -71.10394477844237,
      "starthour": 8,
      "trip": "'Kendall T', 'MIT Vassar St'",
      "counts": 44
    },
    {
      "": 86,
      "ID": 86,
      "startname": "South Station - 700 Atlantic Ave",
      "startlat": 42.352175,
      "startlon": -71.055547,
      "endname": "ID Building East",
      "endlat": 42.344827,
      "endlon": -71.028664,
      "starthour": 8,
      "trip": "'ID Building East', 'South Station - 700 Atlantic Ave'",
      "counts": 43
    },
    {
      "": 87,
      "ID": 87,
      "startname": "Harvard University Housing - 115 Putnam Ave at Peabody Terrace",
      "startlat": 42.366621,
      "startlon": -71.114214,
      "endname": "Harvard Kennedy School at Bennett St / Eliot St",
      "endlat": 42.371991654086756,
      "endlon": -71.12226963043213,
      "starthour": 8,
      "trip": "'Harvard Kennedy School at Bennett St / Eliot St', 'Harvard University Housing - 115 Putnam Ave at Peabody Terrace'",
      "counts": 42
    },
    {
      "": 88,
      "ID": 88,
      "startname": "MIT Vassar St",
      "startlat": 42.35560121327927,
      "startlon": -71.10394477844237,
      "endname": "MIT at Mass Ave / Amherst St",
      "endlat": 42.3581,
      "endlon": -71.093198,
      "starthour": 8,
      "trip": "'MIT Vassar St', 'MIT at Mass Ave / Amherst St'",
      "counts": 41
    },
    {
      "": 89,
      "ID": 89,
      "startname": "MIT Vassar St",
      "startlat": 42.35560121327927,
      "startlon": -71.10394477844237,
      "endname": "Ames St at Main St",
      "endlat": 42.3625,
      "endlon": -71.08821999999999,
      "starthour": 8,
      "trip": "'Ames St at Main St', 'MIT Vassar St'",
      "counts": 38
    },
    {
      "": 90,
      "ID": 90,
      "startname": "MIT Vassar St",
      "startlat": 42.35560121327927,
      "startlon": -71.10394477844237,
      "endname": "MIT Stata Center at Vassar St / Main St",
      "endlat": 42.3621312344991,
      "endlon": -71.09115600585936,
      "starthour": 9,
      "trip": "'MIT Stata Center at Vassar St / Main St', 'MIT Vassar St'",
      "counts": 56
    },
    {
      "": 91,
      "ID": 91,
      "startname": "MIT Pacific St at Purrington St",
      "startlat": 42.359573201090434,
      "startlon": -71.10129475593567,
      "endname": "MIT Stata Center at Vassar St / Main St",
      "endlat": 42.3621312344991,
      "endlon": -71.09115600585936,
      "starthour": 9,
      "trip": "'MIT Pacific St at Purrington St', 'MIT Stata Center at Vassar St / Main St'",
      "counts": 54
    },
    {
      "": 92,
      "ID": 92,
      "startname": "MIT at Mass Ave / Amherst St",
      "startlat": 42.3581,
      "startlon": -71.093198,
      "endname": "MIT Stata Center at Vassar St / Main St",
      "endlat": 42.3621312344991,
      "endlon": -71.09115600585936,
      "starthour": 9,
      "trip": "'MIT Stata Center at Vassar St / Main St', 'MIT at Mass Ave / Amherst St'",
      "counts": 51
    },
    {
      "": 93,
      "ID": 93,
      "startname": "MIT Vassar St",
      "startlat": 42.35560121327927,
      "startlon": -71.10394477844237,
      "endname": "MIT at Mass Ave / Amherst St",
      "endlat": 42.3581,
      "endlon": -71.093198,
      "starthour": 9,
      "trip": "'MIT Vassar St', 'MIT at Mass Ave / Amherst St'",
      "counts": 43
    },
    {
      "": 94,
      "ID": 94,
      "startname": "Davis Square",
      "startlat": 42.396969,
      "startlon": -71.123024,
      "endname": "Packard Ave / Powderhouse Blvd",
      "endlat": 42.40449,
      "endlon": -71.123413,
      "starthour": 9,
      "trip": "'Davis Square', 'Packard Ave / Powderhouse Blvd'",
      "counts": 42
    },
    {
      "": 95,
      "ID": 95,
      "startname": "MIT Pacific St at Purrington St",
      "startlat": 42.359573201090434,
      "startlon": -71.10129475593567,
      "endname": "Kendall T",
      "endlat": 42.362427842912396,
      "endlon": -71.08495473861693,
      "starthour": 9,
      "trip": "'Kendall T', 'MIT Pacific St at Purrington St'",
      "counts": 42
    },
    {
      "": 96,
      "ID": 96,
      "startname": "Beacon St at Massachusetts Ave",
      "startlat": 42.350826806690954,
      "startlon": -71.0898108780384,
      "endname": "MIT at Mass Ave / Amherst St",
      "endlat": 42.3581,
      "endlon": -71.093198,
      "starthour": 9,
      "trip": "'Beacon St at Massachusetts Ave', 'MIT at Mass Ave / Amherst St'",
      "counts": 40
    },
    {
      "": 97,
      "ID": 97,
      "startname": "Lechmere Station at Cambridge St / First St",
      "startlat": 42.370677,
      "startlon": -71.07652900000001,
      "endname": "Kendall T",
      "endlat": 42.362427842912396,
      "endlon": -71.08495473861693,
      "starthour": 9,
      "trip": "'Kendall T', 'Lechmere Station at Cambridge St / First St'",
      "counts": 37
    },
    {
      "": 98,
      "ID": 98,
      "startname": "Kendall T",
      "startlat": 42.362427842912396,
      "startlon": -71.08495473861693,
      "endname": "MIT Vassar St",
      "endlat": 42.35560121327927,
      "endlon": -71.10394477844237,
      "starthour": 9,
      "trip": "'Kendall T', 'MIT Vassar St'",
      "counts": 34
    },
    {
      "": 99,
      "ID": 99,
      "startname": "359 Broadway - Broadway at Fayette Street",
      "startlat": 42.370803,
      "startlon": -71.104412,
      "endname": "MIT Stata Center at Vassar St / Main St",
      "endlat": 42.3621312344991,
      "endlon": -71.09115600585936,
      "starthour": 9,
      "trip": "'359 Broadway - Broadway at Fayette Street', 'MIT Stata Center at Vassar St / Main St'",
      "counts": 33
    },
    {
      "": 100,
      "ID": 100,
      "startname": "Beacon St at Massachusetts Ave",
      "startlat": 42.350826806690954,
      "startlon": -71.0898108780384,
      "endname": "MIT at Mass Ave / Amherst St",
      "endlat": 42.3581,
      "endlon": -71.093198,
      "starthour": 10,
      "trip": "'Beacon St at Massachusetts Ave', 'MIT at Mass Ave / Amherst St'",
      "counts": 48
    },
    {
      "": 101,
      "ID": 101,
      "startname": "MIT at Mass Ave / Amherst St",
      "startlat": 42.3581,
      "startlon": -71.093198,
      "endname": "MIT Stata Center at Vassar St / Main St",
      "endlat": 42.3621312344991,
      "endlon": -71.09115600585936,
      "starthour": 10,
      "trip": "'MIT Stata Center at Vassar St / Main St', 'MIT at Mass Ave / Amherst St'",
      "counts": 45
    },
    {
      "": 102,
      "ID": 102,
      "startname": "MIT Pacific St at Purrington St",
      "startlat": 42.359573201090434,
      "startlon": -71.10129475593567,
      "endname": "MIT Stata Center at Vassar St / Main St",
      "endlat": 42.3621312344991,
      "endlon": -71.09115600585936,
      "starthour": 10,
      "trip": "'MIT Pacific St at Purrington St', 'MIT Stata Center at Vassar St / Main St'",
      "counts": 44
    },
    {
      "": 103,
      "ID": 103,
      "startname": "MIT Pacific St at Purrington St",
      "startlat": 42.359573201090434,
      "startlon": -71.10129475593567,
      "endname": "MIT at Mass Ave / Amherst St",
      "endlat": 42.3581,
      "endlon": -71.093198,
      "starthour": 10,
      "trip": "'MIT Pacific St at Purrington St', 'MIT at Mass Ave / Amherst St'",
      "counts": 36
    },
    {
      "": 104,
      "ID": 104,
      "startname": "MIT at Mass Ave / Amherst St",
      "startlat": 42.3581,
      "startlon": -71.093198,
      "endname": "MIT Vassar St",
      "endlat": 42.35560121327927,
      "endlon": -71.10394477844237,
      "starthour": 10,
      "trip": "'MIT Vassar St', 'MIT at Mass Ave / Amherst St'",
      "counts": 33
    },
    {
      "": 105,
      "ID": 105,
      "startname": "MIT Vassar St",
      "startlat": 42.35560121327927,
      "startlon": -71.10394477844237,
      "endname": "MIT Stata Center at Vassar St / Main St",
      "endlat": 42.3621312344991,
      "endlon": -71.09115600585936,
      "starthour": 10,
      "trip": "'MIT Stata Center at Vassar St / Main St', 'MIT Vassar St'",
      "counts": 31
    },
    {
      "": 106,
      "ID": 106,
      "startname": "Kendall T",
      "startlat": 42.362427842912396,
      "startlon": -71.08495473861693,
      "endname": "MIT Pacific St at Purrington St",
      "endlat": 42.359573201090434,
      "endlon": -71.10129475593567,
      "starthour": 10,
      "trip": "'Kendall T', 'MIT Pacific St at Purrington St'",
      "counts": 25
    },
    {
      "": 107,
      "ID": 107,
      "startname": "Beacon St at Massachusetts Ave",
      "startlat": 42.350826806690954,
      "startlon": -71.0898108780384,
      "endname": "MIT Stata Center at Vassar St / Main St",
      "endlat": 42.3621312344991,
      "endlon": -71.09115600585936,
      "starthour": 10,
      "trip": "'Beacon St at Massachusetts Ave', 'MIT Stata Center at Vassar St / Main St'",
      "counts": 25
    },
    {
      "": 108,
      "ID": 108,
      "startname": "Harvard Square at Mass Ave/ Dunster",
      "startlat": 42.373267999999996,
      "startlon": -71.118579,
      "endname": "Harvard Law School at Mass Ave / Jarvis St",
      "endlat": 42.379011,
      "endlon": -71.119945,
      "starthour": 10,
      "trip": "'Harvard Law School at Mass Ave / Jarvis St', 'Harvard Square at Mass Ave/ Dunster'",
      "counts": 23
    },
    {
      "": 109,
      "ID": 109,
      "startname": "One Kendall Square at Hampshire St / Portland St",
      "startlat": 42.366277000000004,
      "startlon": -71.09169,
      "endname": "MIT Stata Center at Vassar St / Main St",
      "endlat": 42.3621312344991,
      "endlon": -71.09115600585936,
      "starthour": 10,
      "trip": "'MIT Stata Center at Vassar St / Main St', 'One Kendall Square at Hampshire St / Portland St'",
      "counts": 22
    },
    {
      "": 110,
      "ID": 110,
      "startname": "MIT at Mass Ave / Amherst St",
      "startlat": 42.3581,
      "startlon": -71.093198,
      "endname": "Beacon St at Massachusetts Ave",
      "endlat": 42.350826806690954,
      "endlon": -71.0898108780384,
      "starthour": 11,
      "trip": "'Beacon St at Massachusetts Ave', 'MIT at Mass Ave / Amherst St'",
      "counts": 76
    },
    {
      "": 111,
      "ID": 111,
      "startname": "MIT at Mass Ave / Amherst St",
      "startlat": 42.3581,
      "startlon": -71.093198,
      "endname": "MIT Vassar St",
      "endlat": 42.35560121327927,
      "endlon": -71.10394477844237,
      "starthour": 11,
      "trip": "'MIT Vassar St', 'MIT at Mass Ave / Amherst St'",
      "counts": 35
    },
    {
      "": 112,
      "ID": 112,
      "startname": "MIT at Mass Ave / Amherst St",
      "startlat": 42.3581,
      "startlon": -71.093198,
      "endname": "MIT Stata Center at Vassar St / Main St",
      "endlat": 42.3621312344991,
      "endlon": -71.09115600585936,
      "starthour": 11,
      "trip": "'MIT Stata Center at Vassar St / Main St', 'MIT at Mass Ave / Amherst St'",
      "counts": 32
    },
    {
      "": 113,
      "ID": 113,
      "startname": "MIT Pacific St at Purrington St",
      "startlat": 42.359573201090434,
      "startlon": -71.10129475593567,
      "endname": "MIT Stata Center at Vassar St / Main St",
      "endlat": 42.3621312344991,
      "endlon": -71.09115600585936,
      "starthour": 11,
      "trip": "'MIT Pacific St at Purrington St', 'MIT Stata Center at Vassar St / Main St'",
      "counts": 31
    },
    {
      "": 114,
      "ID": 114,
      "startname": "MIT Pacific St at Purrington St",
      "startlat": 42.359573201090434,
      "startlon": -71.10129475593567,
      "endname": "Kendall T",
      "endlat": 42.362427842912396,
      "endlon": -71.08495473861693,
      "starthour": 11,
      "trip": "'Kendall T', 'MIT Pacific St at Purrington St'",
      "counts": 30
    },
    {
      "": 115,
      "ID": 115,
      "startname": "MIT at Mass Ave / Amherst St",
      "startlat": 42.3581,
      "startlon": -71.093198,
      "endname": "MIT Pacific St at Purrington St",
      "endlat": 42.359573201090434,
      "endlon": -71.10129475593567,
      "starthour": 11,
      "trip": "'MIT Pacific St at Purrington St', 'MIT at Mass Ave / Amherst St'",
      "counts": 28
    },
    {
      "": 116,
      "ID": 116,
      "startname": "MIT Stata Center at Vassar St / Main St",
      "startlat": 42.3621312344991,
      "startlon": -71.09115600585936,
      "endname": "MIT Vassar St",
      "endlat": 42.35560121327927,
      "endlon": -71.10394477844237,
      "starthour": 11,
      "trip": "'MIT Stata Center at Vassar St / Main St', 'MIT Vassar St'",
      "counts": 27
    },
    {
      "": 117,
      "ID": 117,
      "startname": "Kendall T",
      "startlat": 42.362427842912396,
      "startlon": -71.08495473861693,
      "endname": "MIT Stata Center at Vassar St / Main St",
      "endlat": 42.3621312344991,
      "endlon": -71.09115600585936,
      "starthour": 11,
      "trip": "'Kendall T', 'MIT Stata Center at Vassar St / Main St'",
      "counts": 21
    },
    {
      "": 118,
      "ID": 118,
      "startname": "Central Square at Mass Ave / Essex St",
      "startlat": 42.36507,
      "startlon": -71.1031,
      "endname": "MIT at Mass Ave / Amherst St",
      "endlat": 42.3581,
      "endlon": -71.093198,
      "starthour": 11,
      "trip": "'Central Square at Mass Ave / Essex St', 'MIT at Mass Ave / Amherst St'",
      "counts": 20
    },
    {
      "": 119,
      "ID": 119,
      "startname": "Kendall T",
      "startlat": 42.362427842912396,
      "startlon": -71.08495473861693,
      "endname": "One Kendall Square at Hampshire St / Portland St",
      "endlat": 42.366277000000004,
      "endlon": -71.09169,
      "starthour": 11,
      "trip": "'Kendall T', 'One Kendall Square at Hampshire St / Portland St'",
      "counts": 19
    },
    {
      "": 120,
      "ID": 120,
      "startname": "MIT at Mass Ave / Amherst St",
      "startlat": 42.3581,
      "startlon": -71.093198,
      "endname": "Beacon St at Massachusetts Ave",
      "endlat": 42.350826806690954,
      "endlon": -71.0898108780384,
      "starthour": 12,
      "trip": "'Beacon St at Massachusetts Ave', 'MIT at Mass Ave / Amherst St'",
      "counts": 83
    },
    {
      "": 121,
      "ID": 121,
      "startname": "MIT at Mass Ave / Amherst St",
      "startlat": 42.3581,
      "startlon": -71.093198,
      "endname": "MIT Vassar St",
      "endlat": 42.35560121327927,
      "endlon": -71.10394477844237,
      "starthour": 12,
      "trip": "'MIT Vassar St', 'MIT at Mass Ave / Amherst St'",
      "counts": 66
    },
    {
      "": 122,
      "ID": 122,
      "startname": "Kendall T",
      "startlat": 42.362427842912396,
      "startlon": -71.08495473861693,
      "endname": "MIT Pacific St at Purrington St",
      "endlat": 42.359573201090434,
      "endlon": -71.10129475593567,
      "starthour": 12,
      "trip": "'Kendall T', 'MIT Pacific St at Purrington St'",
      "counts": 61
    },
    {
      "": 123,
      "ID": 123,
      "startname": "MIT at Mass Ave / Amherst St",
      "startlat": 42.3581,
      "startlon": -71.093198,
      "endname": "Kendall T",
      "endlat": 42.362427842912396,
      "endlon": -71.08495473861693,
      "starthour": 12,
      "trip": "'Kendall T', 'MIT at Mass Ave / Amherst St'",
      "counts": 56
    },
    {
      "": 124,
      "ID": 124,
      "startname": "MIT at Mass Ave / Amherst St",
      "startlat": 42.3581,
      "startlon": -71.093198,
      "endname": "MIT Stata Center at Vassar St / Main St",
      "endlat": 42.3621312344991,
      "endlon": -71.09115600585936,
      "starthour": 12,
      "trip": "'MIT Stata Center at Vassar St / Main St', 'MIT at Mass Ave / Amherst St'",
      "counts": 53
    },
    {
      "": 125,
      "ID": 125,
      "startname": "MIT Pacific St at Purrington St",
      "startlat": 42.359573201090434,
      "startlon": -71.10129475593567,
      "endname": "MIT Stata Center at Vassar St / Main St",
      "endlat": 42.3621312344991,
      "endlon": -71.09115600585936,
      "starthour": 12,
      "trip": "'MIT Pacific St at Purrington St', 'MIT Stata Center at Vassar St / Main St'",
      "counts": 44
    },
    {
      "": 126,
      "ID": 126,
      "startname": "MIT Stata Center at Vassar St / Main St",
      "startlat": 42.3621312344991,
      "startlon": -71.09115600585936,
      "endname": "MIT Vassar St",
      "endlat": 42.35560121327927,
      "endlon": -71.10394477844237,
      "starthour": 12,
      "trip": "'MIT Stata Center at Vassar St / Main St', 'MIT Vassar St'",
      "counts": 36
    },
    {
      "": 127,
      "ID": 127,
      "startname": "Central Square at Mass Ave / Essex St",
      "startlat": 42.36507,
      "startlon": -71.1031,
      "endname": "MIT at Mass Ave / Amherst St",
      "endlat": 42.3581,
      "endlon": -71.093198,
      "starthour": 12,
      "trip": "'Central Square at Mass Ave / Essex St', 'MIT at Mass Ave / Amherst St'",
      "counts": 29
    },
    {
      "": 128,
      "ID": 128,
      "startname": "Ames St at Main St",
      "startlat": 42.3625,
      "startlon": -71.08821999999999,
      "endname": "MIT at Mass Ave / Amherst St",
      "endlat": 42.3581,
      "endlon": -71.093198,
      "starthour": 12,
      "trip": "'Ames St at Main St', 'MIT at Mass Ave / Amherst St'",
      "counts": 24
    },
    {
      "": 129,
      "ID": 129,
      "startname": "ID Building West",
      "startlat": 42.344796,
      "startlon": -71.031614,
      "endname": "Congress St at Northern Ave",
      "endlat": 42.3481,
      "endlon": -71.03764,
      "starthour": 12,
      "trip": "'Congress St at Northern Ave', 'ID Building West'",
      "counts": 23
    },
    {
      "": 130,
      "ID": 130,
      "startname": "Beacon St at Massachusetts Ave",
      "startlat": 42.350826806690954,
      "startlon": -71.0898108780384,
      "endname": "MIT at Mass Ave / Amherst St",
      "endlat": 42.3581,
      "endlon": -71.093198,
      "starthour": 13,
      "trip": "'Beacon St at Massachusetts Ave', 'MIT at Mass Ave / Amherst St'",
      "counts": 89
    },
    {
      "": 131,
      "ID": 131,
      "startname": "MIT at Mass Ave / Amherst St",
      "startlat": 42.3581,
      "startlon": -71.093198,
      "endname": "MIT Vassar St",
      "endlat": 42.35560121327927,
      "endlon": -71.10394477844237,
      "starthour": 13,
      "trip": "'MIT Vassar St', 'MIT at Mass Ave / Amherst St'",
      "counts": 39
    },
    {
      "": 132,
      "ID": 132,
      "startname": "MIT at Mass Ave / Amherst St",
      "startlat": 42.3581,
      "startlon": -71.093198,
      "endname": "MIT Stata Center at Vassar St / Main St",
      "endlat": 42.3621312344991,
      "endlon": -71.09115600585936,
      "starthour": 13,
      "trip": "'MIT Stata Center at Vassar St / Main St', 'MIT at Mass Ave / Amherst St'",
      "counts": 37
    },
    {
      "": 133,
      "ID": 133,
      "startname": "Kendall T",
      "startlat": 42.362427842912396,
      "startlon": -71.08495473861693,
      "endname": "MIT at Mass Ave / Amherst St",
      "endlat": 42.3581,
      "endlon": -71.093198,
      "starthour": 13,
      "trip": "'Kendall T', 'MIT at Mass Ave / Amherst St'",
      "counts": 37
    },
    {
      "": 134,
      "ID": 134,
      "startname": "MIT Stata Center at Vassar St / Main St",
      "startlat": 42.3621312344991,
      "startlon": -71.09115600585936,
      "endname": "MIT Vassar St",
      "endlat": 42.35560121327927,
      "endlon": -71.10394477844237,
      "starthour": 13,
      "trip": "'MIT Stata Center at Vassar St / Main St', 'MIT Vassar St'",
      "counts": 34
    },
    {
      "": 135,
      "ID": 135,
      "startname": "Central Square at Mass Ave / Essex St",
      "startlat": 42.36507,
      "startlon": -71.1031,
      "endname": "MIT at Mass Ave / Amherst St",
      "endlat": 42.3581,
      "endlon": -71.093198,
      "starthour": 13,
      "trip": "'Central Square at Mass Ave / Essex St', 'MIT at Mass Ave / Amherst St'",
      "counts": 30
    },
    {
      "": 136,
      "ID": 136,
      "startname": "MIT at Mass Ave / Amherst St",
      "startlat": 42.3581,
      "startlon": -71.093198,
      "endname": "Ames St at Main St",
      "endlat": 42.3625,
      "endlon": -71.08821999999999,
      "starthour": 13,
      "trip": "'Ames St at Main St', 'MIT at Mass Ave / Amherst St'",
      "counts": 27
    },
    {
      "": 137,
      "ID": 137,
      "startname": "Kendall T",
      "startlat": 42.362427842912396,
      "startlon": -71.08495473861693,
      "endname": "MIT Stata Center at Vassar St / Main St",
      "endlat": 42.3621312344991,
      "endlon": -71.09115600585936,
      "starthour": 13,
      "trip": "'Kendall T', 'MIT Stata Center at Vassar St / Main St'",
      "counts": 26
    },
    {
      "": 138,
      "ID": 138,
      "startname": "MIT Stata Center at Vassar St / Main St",
      "startlat": 42.3621312344991,
      "startlon": -71.09115600585936,
      "endname": "MIT Pacific St at Purrington St",
      "endlat": 42.359573201090434,
      "endlon": -71.10129475593567,
      "starthour": 13,
      "trip": "'MIT Pacific St at Purrington St', 'MIT Stata Center at Vassar St / Main St'",
      "counts": 25
    },
    {
      "": 139,
      "ID": 139,
      "startname": "Harvard Square at Mass Ave/ Dunster",
      "startlat": 42.373267999999996,
      "startlon": -71.118579,
      "endname": "MIT at Mass Ave / Amherst St",
      "endlat": 42.3581,
      "endlon": -71.093198,
      "starthour": 13,
      "trip": "'Harvard Square at Mass Ave/ Dunster', 'MIT at Mass Ave / Amherst St'",
      "counts": 23
    },
    {
      "": 140,
      "ID": 140,
      "startname": "MIT at Mass Ave / Amherst St",
      "startlat": 42.3581,
      "startlon": -71.093198,
      "endname": "Beacon St at Massachusetts Ave",
      "endlat": 42.350826806690954,
      "endlon": -71.0898108780384,
      "starthour": 14,
      "trip": "'Beacon St at Massachusetts Ave', 'MIT at Mass Ave / Amherst St'",
      "counts": 98
    },
    {
      "": 141,
      "ID": 141,
      "startname": "MIT at Mass Ave / Amherst St",
      "startlat": 42.3581,
      "startlon": -71.093198,
      "endname": "MIT Stata Center at Vassar St / Main St",
      "endlat": 42.3621312344991,
      "endlon": -71.09115600585936,
      "starthour": 14,
      "trip": "'MIT Stata Center at Vassar St / Main St', 'MIT at Mass Ave / Amherst St'",
      "counts": 55
    },
    {
      "": 142,
      "ID": 142,
      "startname": "MIT Vassar St",
      "startlat": 42.35560121327927,
      "startlon": -71.10394477844237,
      "endname": "MIT at Mass Ave / Amherst St",
      "endlat": 42.3581,
      "endlon": -71.093198,
      "starthour": 14,
      "trip": "'MIT Vassar St', 'MIT at Mass Ave / Amherst St'",
      "counts": 51
    },
    {
      "": 143,
      "ID": 143,
      "startname": "Kendall T",
      "startlat": 42.362427842912396,
      "startlon": -71.08495473861693,
      "endname": "MIT Pacific St at Purrington St",
      "endlat": 42.359573201090434,
      "endlon": -71.10129475593567,
      "starthour": 14,
      "trip": "'Kendall T', 'MIT Pacific St at Purrington St'",
      "counts": 49
    },
    {
      "": 144,
      "ID": 144,
      "startname": "MIT at Mass Ave / Amherst St",
      "startlat": 42.3581,
      "startlon": -71.093198,
      "endname": "Kendall T",
      "endlat": 42.362427842912396,
      "endlon": -71.08495473861693,
      "starthour": 14,
      "trip": "'Kendall T', 'MIT at Mass Ave / Amherst St'",
      "counts": 46
    },
    {
      "": 145,
      "ID": 145,
      "startname": "Ames St at Main St",
      "startlat": 42.3625,
      "startlon": -71.08821999999999,
      "endname": "MIT at Mass Ave / Amherst St",
      "endlat": 42.3581,
      "endlon": -71.093198,
      "starthour": 14,
      "trip": "'Ames St at Main St', 'MIT at Mass Ave / Amherst St'",
      "counts": 32
    },
    {
      "": 146,
      "ID": 146,
      "startname": "MIT Pacific St at Purrington St",
      "startlat": 42.359573201090434,
      "startlon": -71.10129475593567,
      "endname": "MIT Stata Center at Vassar St / Main St",
      "endlat": 42.3621312344991,
      "endlon": -71.09115600585936,
      "starthour": 14,
      "trip": "'MIT Pacific St at Purrington St', 'MIT Stata Center at Vassar St / Main St'",
      "counts": 28
    },
    {
      "": 147,
      "ID": 147,
      "startname": "MIT at Mass Ave / Amherst St",
      "startlat": 42.3581,
      "startlon": -71.093198,
      "endname": "University Park",
      "endlat": 42.36264779118595,
      "endlon": -71.1000609397888,
      "starthour": 14,
      "trip": "'MIT at Mass Ave / Amherst St', 'University Park'",
      "counts": 28
    },
    {
      "": 148,
      "ID": 148,
      "startname": "Central Square at Mass Ave / Essex St",
      "startlat": 42.36507,
      "startlon": -71.1031,
      "endname": "MIT at Mass Ave / Amherst St",
      "endlat": 42.3581,
      "endlon": -71.093198,
      "starthour": 14,
      "trip": "'Central Square at Mass Ave / Essex St', 'MIT at Mass Ave / Amherst St'",
      "counts": 28
    },
    {
      "": 149,
      "ID": 149,
      "startname": "MIT Vassar St",
      "startlat": 42.35560121327927,
      "startlon": -71.10394477844237,
      "endname": "MIT Stata Center at Vassar St / Main St",
      "endlat": 42.3621312344991,
      "endlon": -71.09115600585936,
      "starthour": 14,
      "trip": "'MIT Stata Center at Vassar St / Main St', 'MIT Vassar St'",
      "counts": 27
    },
    {
      "": 150,
      "ID": 150,
      "startname": "MIT at Mass Ave / Amherst St",
      "startlat": 42.3581,
      "startlon": -71.093198,
      "endname": "Beacon St at Massachusetts Ave",
      "endlat": 42.350826806690954,
      "endlon": -71.0898108780384,
      "starthour": 15,
      "trip": "'Beacon St at Massachusetts Ave', 'MIT at Mass Ave / Amherst St'",
      "counts": 102
    },
    {
      "": 151,
      "ID": 151,
      "startname": "MIT Pacific St at Purrington St",
      "startlat": 42.359573201090434,
      "startlon": -71.10129475593567,
      "endname": "Kendall T",
      "endlat": 42.362427842912396,
      "endlon": -71.08495473861693,
      "starthour": 15,
      "trip": "'Kendall T', 'MIT Pacific St at Purrington St'",
      "counts": 38
    },
    {
      "": 152,
      "ID": 152,
      "startname": "MIT at Mass Ave / Amherst St",
      "startlat": 42.3581,
      "startlon": -71.093198,
      "endname": "MIT Vassar St",
      "endlat": 42.35560121327927,
      "endlon": -71.10394477844237,
      "starthour": 15,
      "trip": "'MIT Vassar St', 'MIT at Mass Ave / Amherst St'",
      "counts": 36
    },
    {
      "": 153,
      "ID": 153,
      "startname": "One Kendall Square at Hampshire St / Portland St",
      "startlat": 42.366277000000004,
      "startlon": -71.09169,
      "endname": "Porter Square Station",
      "endlat": 42.387995000000004,
      "endlon": -71.119084,
      "starthour": 15,
      "trip": "'One Kendall Square at Hampshire St / Portland St', 'Porter Square Station'",
      "counts": 34
    },
    {
      "": 154,
      "ID": 154,
      "startname": "MIT at Mass Ave / Amherst St",
      "startlat": 42.3581,
      "startlon": -71.093198,
      "endname": "Central Square at Mass Ave / Essex St",
      "endlat": 42.36507,
      "endlon": -71.1031,
      "starthour": 15,
      "trip": "'Central Square at Mass Ave / Essex St', 'MIT at Mass Ave / Amherst St'",
      "counts": 30
    },
    {
      "": 155,
      "ID": 155,
      "startname": "MIT Stata Center at Vassar St / Main St",
      "startlat": 42.3621312344991,
      "startlon": -71.09115600585936,
      "endname": "MIT Vassar St",
      "endlat": 42.35560121327927,
      "endlon": -71.10394477844237,
      "starthour": 15,
      "trip": "'MIT Stata Center at Vassar St / Main St', 'MIT Vassar St'",
      "counts": 28
    },
    {
      "": 156,
      "ID": 156,
      "startname": "MIT Stata Center at Vassar St / Main St",
      "startlat": 42.3621312344991,
      "startlon": -71.09115600585936,
      "endname": "MIT at Mass Ave / Amherst St",
      "endlat": 42.3581,
      "endlon": -71.093198,
      "starthour": 15,
      "trip": "'MIT Stata Center at Vassar St / Main St', 'MIT at Mass Ave / Amherst St'",
      "counts": 25
    },
    {
      "": 157,
      "ID": 157,
      "startname": "MIT at Mass Ave / Amherst St",
      "startlat": 42.3581,
      "startlon": -71.093198,
      "endname": "Boylston St at Massachusetts Ave",
      "endlat": 42.347265,
      "endlon": -71.088088,
      "starthour": 15,
      "trip": "'Boylston St at Massachusetts Ave', 'MIT at Mass Ave / Amherst St'",
      "counts": 24
    },
    {
      "": 158,
      "ID": 158,
      "startname": "Kendall T",
      "startlat": 42.362427842912396,
      "startlon": -71.08495473861693,
      "endname": "MIT at Mass Ave / Amherst St",
      "endlat": 42.3581,
      "endlon": -71.093198,
      "starthour": 15,
      "trip": "'Kendall T', 'MIT at Mass Ave / Amherst St'",
      "counts": 24
    },
    {
      "": 159,
      "ID": 159,
      "startname": "MIT Pacific St at Purrington St",
      "startlat": 42.359573201090434,
      "startlon": -71.10129475593567,
      "endname": "MIT at Mass Ave / Amherst St",
      "endlat": 42.3581,
      "endlon": -71.093198,
      "starthour": 15,
      "trip": "'MIT Pacific St at Purrington St', 'MIT at Mass Ave / Amherst St'",
      "counts": 21
    },
    {
      "": 160,
      "ID": 160,
      "startname": "Beacon St at Massachusetts Ave",
      "startlat": 42.350826806690954,
      "startlon": -71.0898108780384,
      "endname": "MIT at Mass Ave / Amherst St",
      "endlat": 42.3581,
      "endlon": -71.093198,
      "starthour": 16,
      "trip": "'Beacon St at Massachusetts Ave', 'MIT at Mass Ave / Amherst St'",
      "counts": 124
    },
    {
      "": 161,
      "ID": 161,
      "startname": "MIT Stata Center at Vassar St / Main St",
      "startlat": 42.3621312344991,
      "startlon": -71.09115600585936,
      "endname": "Nashua Street at Red Auerbach Way",
      "endlat": 42.365673,
      "endlon": -71.064263,
      "starthour": 16,
      "trip": "'MIT Stata Center at Vassar St / Main St', 'Nashua Street at Red Auerbach Way'",
      "counts": 54
    },
    {
      "": 162,
      "ID": 162,
      "startname": "MIT Vassar St",
      "startlat": 42.35560121327927,
      "startlon": -71.10394477844237,
      "endname": "MIT at Mass Ave / Amherst St",
      "endlat": 42.3581,
      "endlon": -71.093198,
      "starthour": 16,
      "trip": "'MIT Vassar St', 'MIT at Mass Ave / Amherst St'",
      "counts": 54
    },
    {
      "": 163,
      "ID": 163,
      "startname": "Congress St at Sleeper St",
      "startlat": 42.351004495946704,
      "startlon": -71.04930013418199,
      "endname": "Nashua Street at Red Auerbach Way",
      "endlat": 42.365673,
      "endlon": -71.064263,
      "starthour": 16,
      "trip": "'Congress St at Sleeper St', 'Nashua Street at Red Auerbach Way'",
      "counts": 53
    },
    {
      "": 164,
      "ID": 164,
      "startname": "MIT Stata Center at Vassar St / Main St",
      "startlat": 42.3621312344991,
      "startlon": -71.09115600585936,
      "endname": "MIT Vassar St",
      "endlat": 42.35560121327927,
      "endlon": -71.10394477844237,
      "starthour": 16,
      "trip": "'MIT Stata Center at Vassar St / Main St', 'MIT Vassar St'",
      "counts": 49
    },
    {
      "": 165,
      "ID": 165,
      "startname": "MIT Vassar St",
      "startlat": 42.35560121327927,
      "startlon": -71.10394477844237,
      "endname": "Ames St at Main St",
      "endlat": 42.3625,
      "endlon": -71.08821999999999,
      "starthour": 16,
      "trip": "'Ames St at Main St', 'MIT Vassar St'",
      "counts": 47
    },
    {
      "": 166,
      "ID": 166,
      "startname": "MIT Stata Center at Vassar St / Main St",
      "startlat": 42.3621312344991,
      "startlon": -71.09115600585936,
      "endname": "MIT Pacific St at Purrington St",
      "endlat": 42.359573201090434,
      "endlon": -71.10129475593567,
      "starthour": 16,
      "trip": "'MIT Pacific St at Purrington St', 'MIT Stata Center at Vassar St / Main St'",
      "counts": 46
    },
    {
      "": 167,
      "ID": 167,
      "startname": "South Station - 700 Atlantic Ave",
      "startlat": 42.352175,
      "startlon": -71.055547,
      "endname": "Nashua Street at Red Auerbach Way",
      "endlat": 42.365673,
      "endlon": -71.064263,
      "starthour": 16,
      "trip": "'Nashua Street at Red Auerbach Way', 'South Station - 700 Atlantic Ave'",
      "counts": 43
    },
    {
      "": 168,
      "ID": 168,
      "startname": "Kendall T",
      "startlat": 42.362427842912396,
      "startlon": -71.08495473861693,
      "endname": "MIT at Mass Ave / Amherst St",
      "endlat": 42.3581,
      "endlon": -71.093198,
      "starthour": 16,
      "trip": "'Kendall T', 'MIT at Mass Ave / Amherst St'",
      "counts": 42
    },
    {
      "": 169,
      "ID": 169,
      "startname": "MIT Stata Center at Vassar St / Main St",
      "startlat": 42.3621312344991,
      "startlon": -71.09115600585936,
      "endname": "MIT at Mass Ave / Amherst St",
      "endlat": 42.3581,
      "endlon": -71.093198,
      "starthour": 16,
      "trip": "'MIT Stata Center at Vassar St / Main St', 'MIT at Mass Ave / Amherst St'",
      "counts": 41
    },
    {
      "": 170,
      "ID": 170,
      "startname": "Beacon St at Massachusetts Ave",
      "startlat": 42.350826806690954,
      "startlon": -71.0898108780384,
      "endname": "MIT at Mass Ave / Amherst St",
      "endlat": 42.3581,
      "endlon": -71.093198,
      "starthour": 17,
      "trip": "'Beacon St at Massachusetts Ave', 'MIT at Mass Ave / Amherst St'",
      "counts": 99
    },
    {
      "": 171,
      "ID": 171,
      "startname": "MIT at Mass Ave / Amherst St",
      "startlat": 42.3581,
      "startlon": -71.093198,
      "endname": "MIT Vassar St",
      "endlat": 42.35560121327927,
      "endlon": -71.10394477844237,
      "starthour": 17,
      "trip": "'MIT Vassar St', 'MIT at Mass Ave / Amherst St'",
      "counts": 59
    },
    {
      "": 172,
      "ID": 172,
      "startname": "Davis Square",
      "startlat": 42.396969,
      "startlon": -71.123024,
      "endname": "Linear Park - Mass. Ave. at Cameron Ave.",
      "endlat": 42.397828000000004,
      "endlon": -71.130516,
      "starthour": 17,
      "trip": "'Davis Square', 'Linear Park - Mass. Ave. at Cameron Ave. '",
      "counts": 58
    },
    {
      "": 173,
      "ID": 173,
      "startname": "Kendall T",
      "startlat": 42.362427842912396,
      "startlon": -71.08495473861693,
      "endname": "MIT Pacific St at Purrington St",
      "endlat": 42.359573201090434,
      "endlon": -71.10129475593567,
      "starthour": 17,
      "trip": "'Kendall T', 'MIT Pacific St at Purrington St'",
      "counts": 48
    },
    {
      "": 174,
      "ID": 174,
      "startname": "South Station - 700 Atlantic Ave",
      "startlat": 42.352175,
      "startlon": -71.055547,
      "endname": "Lewis Wharf at Atlantic Ave",
      "endlat": 42.363871,
      "endlon": -71.050877,
      "starthour": 17,
      "trip": "'Lewis Wharf at Atlantic Ave', 'South Station - 700 Atlantic Ave'",
      "counts": 38
    },
    {
      "": 175,
      "ID": 175,
      "startname": "MIT Stata Center at Vassar St / Main St",
      "startlat": 42.3621312344991,
      "startlon": -71.09115600585936,
      "endname": "MIT Vassar St",
      "endlat": 42.35560121327927,
      "endlon": -71.10394477844237,
      "starthour": 17,
      "trip": "'MIT Stata Center at Vassar St / Main St', 'MIT Vassar St'",
      "counts": 36
    },
    {
      "": 176,
      "ID": 176,
      "startname": "Arch St at Franklin St",
      "startlat": 42.35581929709065,
      "startlon": -71.05887290099417,
      "endname": "Nashua Street at Red Auerbach Way",
      "endlat": 42.365673,
      "endlon": -71.064263,
      "starthour": 17,
      "trip": "'Arch St at Franklin St', 'Nashua Street at Red Auerbach Way'",
      "counts": 34
    },
    {
      "": 177,
      "ID": 177,
      "startname": "Davis Square",
      "startlat": 42.396969,
      "startlon": -71.123024,
      "endname": "Packard Ave / Powderhouse Blvd",
      "endlat": 42.40449,
      "endlon": -71.123413,
      "starthour": 17,
      "trip": "'Davis Square', 'Packard Ave / Powderhouse Blvd'",
      "counts": 34
    },
    {
      "": 178,
      "ID": 178,
      "startname": "Ames St at Main St",
      "startlat": 42.3625,
      "startlon": -71.08821999999999,
      "endname": "Nashua Street at Red Auerbach Way",
      "endlat": 42.365673,
      "endlon": -71.064263,
      "starthour": 17,
      "trip": "'Ames St at Main St', 'Nashua Street at Red Auerbach Way'",
      "counts": 33
    },
    {
      "": 179,
      "ID": 179,
      "startname": "MIT Pacific St at Purrington St",
      "startlat": 42.359573201090434,
      "startlon": -71.10129475593567,
      "endname": "Central Square at Mass Ave / Essex St",
      "endlat": 42.36507,
      "endlon": -71.1031,
      "starthour": 17,
      "trip": "'Central Square at Mass Ave / Essex St', 'MIT Pacific St at Purrington St'",
      "counts": 31
    },
    {
      "": 180,
      "ID": 180,
      "startname": "MIT at Mass Ave / Amherst St",
      "startlat": 42.3581,
      "startlon": -71.093198,
      "endname": "Beacon St at Massachusetts Ave",
      "endlat": 42.350826806690954,
      "endlon": -71.0898108780384,
      "starthour": 18,
      "trip": "'Beacon St at Massachusetts Ave', 'MIT at Mass Ave / Amherst St'",
      "counts": 63
    },
    {
      "": 181,
      "ID": 181,
      "startname": "MIT Vassar St",
      "startlat": 42.35560121327927,
      "startlon": -71.10394477844237,
      "endname": "MIT Stata Center at Vassar St / Main St",
      "endlat": 42.3621312344991,
      "endlon": -71.09115600585936,
      "starthour": 18,
      "trip": "'MIT Stata Center at Vassar St / Main St', 'MIT Vassar St'",
      "counts": 58
    },
    {
      "": 182,
      "ID": 182,
      "startname": "Davis Square",
      "startlat": 42.396969,
      "startlon": -71.123024,
      "endname": "Linear Park - Mass. Ave. at Cameron Ave.",
      "endlat": 42.397828000000004,
      "endlon": -71.130516,
      "starthour": 18,
      "trip": "'Davis Square', 'Linear Park - Mass. Ave. at Cameron Ave. '",
      "counts": 54
    },
    {
      "": 183,
      "ID": 183,
      "startname": "MIT at Mass Ave / Amherst St",
      "startlat": 42.3581,
      "startlon": -71.093198,
      "endname": "MIT Vassar St",
      "endlat": 42.35560121327927,
      "endlon": -71.10394477844237,
      "starthour": 18,
      "trip": "'MIT Vassar St', 'MIT at Mass Ave / Amherst St'",
      "counts": 46
    },
    {
      "": 184,
      "ID": 184,
      "startname": "MIT Stata Center at Vassar St / Main St",
      "startlat": 42.3621312344991,
      "startlon": -71.09115600585936,
      "endname": "MIT Pacific St at Purrington St",
      "endlat": 42.359573201090434,
      "endlon": -71.10129475593567,
      "starthour": 18,
      "trip": "'MIT Pacific St at Purrington St', 'MIT Stata Center at Vassar St / Main St'",
      "counts": 46
    },
    {
      "": 185,
      "ID": 185,
      "startname": "Central Square at Mass Ave / Essex St",
      "startlat": 42.36507,
      "startlon": -71.1031,
      "endname": "MIT at Mass Ave / Amherst St",
      "endlat": 42.3581,
      "endlon": -71.093198,
      "starthour": 18,
      "trip": "'Central Square at Mass Ave / Essex St', 'MIT at Mass Ave / Amherst St'",
      "counts": 35
    },
    {
      "": 186,
      "ID": 186,
      "startname": "Central Square at Mass Ave / Essex St",
      "startlat": 42.36507,
      "startlon": -71.1031,
      "endname": "MIT Pacific St at Purrington St",
      "endlat": 42.359573201090434,
      "endlon": -71.10129475593567,
      "starthour": 18,
      "trip": "'Central Square at Mass Ave / Essex St', 'MIT Pacific St at Purrington St'",
      "counts": 30
    },
    {
      "": 187,
      "ID": 187,
      "startname": "Boston Medical Center - E Concord St at Harrison Ave",
      "startlat": 42.336437,
      "startlon": -71.073089,
      "endname": "Back Bay T Stop - Dartmouth St at Stuart St",
      "endlat": 42.34807412317439,
      "endlon": -71.07657015323639,
      "starthour": 18,
      "trip": "'Back Bay T Stop - Dartmouth St at Stuart St', 'Boston Medical Center - E Concord St at Harrison Ave'",
      "counts": 26
    },
    {
      "": 188,
      "ID": 188,
      "startname": "Davis Square",
      "startlat": 42.396969,
      "startlon": -71.123024,
      "endname": "Teele Square at 239 Holland St",
      "endlat": 42.402763,
      "endlon": -71.126908,
      "starthour": 18,
      "trip": "'Davis Square', 'Teele Square at 239 Holland St'",
      "counts": 26
    },
    {
      "": 189,
      "ID": 189,
      "startname": "MIT Vassar St",
      "startlat": 42.35560121327927,
      "startlon": -71.10394477844237,
      "endname": "University Park",
      "endlat": 42.36264779118595,
      "endlon": -71.1000609397888,
      "starthour": 18,
      "trip": "'MIT Vassar St', 'University Park'",
      "counts": 25
    },
    {
      "": 190,
      "ID": 190,
      "startname": "MIT at Mass Ave / Amherst St",
      "startlat": 42.3581,
      "startlon": -71.093198,
      "endname": "Beacon St at Massachusetts Ave",
      "endlat": 42.350826806690954,
      "endlon": -71.0898108780384,
      "starthour": 19,
      "trip": "'Beacon St at Massachusetts Ave', 'MIT at Mass Ave / Amherst St'",
      "counts": 93
    },
    {
      "": 191,
      "ID": 191,
      "startname": "MIT at Mass Ave / Amherst St",
      "startlat": 42.3581,
      "startlon": -71.093198,
      "endname": "MIT Vassar St",
      "endlat": 42.35560121327927,
      "endlon": -71.10394477844237,
      "starthour": 19,
      "trip": "'MIT Vassar St', 'MIT at Mass Ave / Amherst St'",
      "counts": 43
    },
    {
      "": 192,
      "ID": 192,
      "startname": "Central Square at Mass Ave / Essex St",
      "startlat": 42.36507,
      "startlon": -71.1031,
      "endname": "MIT Pacific St at Purrington St",
      "endlat": 42.359573201090434,
      "endlon": -71.10129475593567,
      "starthour": 19,
      "trip": "'Central Square at Mass Ave / Essex St', 'MIT Pacific St at Purrington St'",
      "counts": 32
    },
    {
      "": 193,
      "ID": 193,
      "startname": "Kendall T",
      "startlat": 42.362427842912396,
      "startlon": -71.08495473861693,
      "endname": "MIT Pacific St at Purrington St",
      "endlat": 42.359573201090434,
      "endlon": -71.10129475593567,
      "starthour": 19,
      "trip": "'Kendall T', 'MIT Pacific St at Purrington St'",
      "counts": 30
    },
    {
      "": 194,
      "ID": 194,
      "startname": "MIT Stata Center at Vassar St / Main St",
      "startlat": 42.3621312344991,
      "startlon": -71.09115600585936,
      "endname": "MIT Vassar St",
      "endlat": 42.35560121327927,
      "endlon": -71.10394477844237,
      "starthour": 19,
      "trip": "'MIT Stata Center at Vassar St / Main St', 'MIT Vassar St'",
      "counts": 29
    },
    {
      "": 195,
      "ID": 195,
      "startname": "MIT Pacific St at Purrington St",
      "startlat": 42.359573201090434,
      "startlon": -71.10129475593567,
      "endname": "MIT Stata Center at Vassar St / Main St",
      "endlat": 42.3621312344991,
      "endlon": -71.09115600585936,
      "starthour": 19,
      "trip": "'MIT Pacific St at Purrington St', 'MIT Stata Center at Vassar St / Main St'",
      "counts": 28
    },
    {
      "": 196,
      "ID": 196,
      "startname": "Linear Park - Mass. Ave. at Cameron Ave.",
      "startlat": 42.397828000000004,
      "startlon": -71.130516,
      "endname": "Davis Square",
      "endlat": 42.396969,
      "endlon": -71.123024,
      "starthour": 19,
      "trip": "'Davis Square', 'Linear Park - Mass. Ave. at Cameron Ave. '",
      "counts": 28
    },
    {
      "": 197,
      "ID": 197,
      "startname": "Davis Square",
      "startlat": 42.396969,
      "startlon": -71.123024,
      "endname": "Teele Square at 239 Holland St",
      "endlat": 42.402763,
      "endlon": -71.126908,
      "starthour": 19,
      "trip": "'Davis Square', 'Teele Square at 239 Holland St'",
      "counts": 27
    },
    {
      "": 198,
      "ID": 198,
      "startname": "University Park",
      "startlat": 42.36264779118595,
      "startlon": -71.1000609397888,
      "endname": "MIT Vassar St",
      "endlat": 42.35560121327927,
      "endlon": -71.10394477844237,
      "starthour": 19,
      "trip": "'MIT Vassar St', 'University Park'",
      "counts": 27
    },
    {
      "": 199,
      "ID": 199,
      "startname": "Kendall T",
      "startlat": 42.362427842912396,
      "startlon": -71.08495473861693,
      "endname": "One Kendall Square at Hampshire St / Portland St",
      "endlat": 42.366277000000004,
      "endlon": -71.09169,
      "starthour": 19,
      "trip": "'Kendall T', 'One Kendall Square at Hampshire St / Portland St'",
      "counts": 23
    },
    {
      "": 200,
      "ID": 200,
      "startname": "MIT at Mass Ave / Amherst St",
      "startlat": 42.3581,
      "startlon": -71.093198,
      "endname": "Beacon St at Massachusetts Ave",
      "endlat": 42.350826806690954,
      "endlon": -71.0898108780384,
      "starthour": 20,
      "trip": "'Beacon St at Massachusetts Ave', 'MIT at Mass Ave / Amherst St'",
      "counts": 72
    },
    {
      "": 201,
      "ID": 201,
      "startname": "Davis Square",
      "startlat": 42.396969,
      "startlon": -71.123024,
      "endname": "Linear Park - Mass. Ave. at Cameron Ave.",
      "endlat": 42.397828000000004,
      "endlon": -71.130516,
      "starthour": 20,
      "trip": "'Davis Square', 'Linear Park - Mass. Ave. at Cameron Ave. '",
      "counts": 30
    },
    {
      "": 202,
      "ID": 202,
      "startname": "MIT at Mass Ave / Amherst St",
      "startlat": 42.3581,
      "startlon": -71.093198,
      "endname": "MIT Pacific St at Purrington St",
      "endlat": 42.359573201090434,
      "endlon": -71.10129475593567,
      "starthour": 20,
      "trip": "'MIT Pacific St at Purrington St', 'MIT at Mass Ave / Amherst St'",
      "counts": 30
    },
    {
      "": 203,
      "ID": 203,
      "startname": "MIT at Mass Ave / Amherst St",
      "startlat": 42.3581,
      "startlon": -71.093198,
      "endname": "MIT Vassar St",
      "endlat": 42.35560121327927,
      "endlon": -71.10394477844237,
      "starthour": 20,
      "trip": "'MIT Vassar St', 'MIT at Mass Ave / Amherst St'",
      "counts": 28
    },
    {
      "": 204,
      "ID": 204,
      "startname": "Central Square at Mass Ave / Essex St",
      "startlat": 42.36507,
      "startlon": -71.1031,
      "endname": "MIT Pacific St at Purrington St",
      "endlat": 42.359573201090434,
      "endlon": -71.10129475593567,
      "starthour": 20,
      "trip": "'Central Square at Mass Ave / Essex St', 'MIT Pacific St at Purrington St'",
      "counts": 27
    },
    {
      "": 205,
      "ID": 205,
      "startname": "Kendall T",
      "startlat": 42.362427842912396,
      "startlon": -71.08495473861693,
      "endname": "MIT Pacific St at Purrington St",
      "endlat": 42.359573201090434,
      "endlon": -71.10129475593567,
      "starthour": 20,
      "trip": "'Kendall T', 'MIT Pacific St at Purrington St'",
      "counts": 20
    },
    {
      "": 206,
      "ID": 206,
      "startname": "University Park",
      "startlat": 42.36264779118595,
      "startlon": -71.1000609397888,
      "endname": "MIT at Mass Ave / Amherst St",
      "endlat": 42.3581,
      "endlon": -71.093198,
      "starthour": 20,
      "trip": "'MIT at Mass Ave / Amherst St', 'University Park'",
      "counts": 18
    },
    {
      "": 207,
      "ID": 207,
      "startname": "MIT Stata Center at Vassar St / Main St",
      "startlat": 42.3621312344991,
      "startlon": -71.09115600585936,
      "endname": "MIT Vassar St",
      "endlat": 42.35560121327927,
      "endlon": -71.10394477844237,
      "starthour": 20,
      "trip": "'MIT Stata Center at Vassar St / Main St', 'MIT Vassar St'",
      "counts": 18
    },
    {
      "": 208,
      "ID": 208,
      "startname": "MIT Pacific St at Purrington St",
      "startlat": 42.359573201090434,
      "startlon": -71.10129475593567,
      "endname": "MIT Stata Center at Vassar St / Main St",
      "endlat": 42.3621312344991,
      "endlon": -71.09115600585936,
      "starthour": 20,
      "trip": "'MIT Pacific St at Purrington St', 'MIT Stata Center at Vassar St / Main St'",
      "counts": 17
    },
    {
      "": 209,
      "ID": 209,
      "startname": "Central Square at Mass Ave / Essex St",
      "startlat": 42.36507,
      "startlon": -71.1031,
      "endname": "Sidney Research Campus/ Erie Street at Waverly",
      "endlat": 42.35775309465199,
      "endlon": -71.10393404960631,
      "starthour": 20,
      "trip": "'Central Square at Mass Ave / Essex St', 'Sidney Research Campus/ Erie Street at Waverly'",
      "counts": 16
    },
    {
      "": 210,
      "ID": 210,
      "startname": "Beacon St at Massachusetts Ave",
      "startlat": 42.350826806690954,
      "startlon": -71.0898108780384,
      "endname": "MIT at Mass Ave / Amherst St",
      "endlat": 42.3581,
      "endlon": -71.093198,
      "starthour": 21,
      "trip": "'Beacon St at Massachusetts Ave', 'MIT at Mass Ave / Amherst St'",
      "counts": 62
    },
    {
      "": 211,
      "ID": 211,
      "startname": "MIT Vassar St",
      "startlat": 42.35560121327927,
      "startlon": -71.10394477844237,
      "endname": "MIT at Mass Ave / Amherst St",
      "endlat": 42.3581,
      "endlon": -71.093198,
      "starthour": 21,
      "trip": "'MIT Vassar St', 'MIT at Mass Ave / Amherst St'",
      "counts": 28
    },
    {
      "": 212,
      "ID": 212,
      "startname": "Central Square at Mass Ave / Essex St",
      "startlat": 42.36507,
      "startlon": -71.1031,
      "endname": "MIT Pacific St at Purrington St",
      "endlat": 42.359573201090434,
      "endlon": -71.10129475593567,
      "starthour": 21,
      "trip": "'Central Square at Mass Ave / Essex St', 'MIT Pacific St at Purrington St'",
      "counts": 18
    },
    {
      "": 213,
      "ID": 213,
      "startname": "MIT Vassar St",
      "startlat": 42.35560121327927,
      "startlon": -71.10394477844237,
      "endname": "MIT Pacific St at Purrington St",
      "endlat": 42.359573201090434,
      "endlon": -71.10129475593567,
      "starthour": 21,
      "trip": "'MIT Pacific St at Purrington St', 'MIT Vassar St'",
      "counts": 17
    },
    {
      "": 214,
      "ID": 214,
      "startname": "Harvard University Radcliffe Quadrangle at Shepard St / Garden St",
      "startlat": 42.380287,
      "startlon": -71.125107,
      "endname": "Harvard University Gund Hall at Quincy St / Kirkland S",
      "endlat": 42.376369,
      "endlon": -71.114025,
      "starthour": 21,
      "trip": "'Harvard University Gund Hall at Quincy St / Kirkland S', 'Harvard University Radcliffe Quadrangle at Shepard St / Garden St'",
      "counts": 16
    },
    {
      "": 215,
      "ID": 215,
      "startname": "Central Square at Mass Ave / Essex St",
      "startlat": 42.36507,
      "startlon": -71.1031,
      "endname": "MIT Vassar St",
      "endlat": 42.35560121327927,
      "endlon": -71.10394477844237,
      "starthour": 21,
      "trip": "'Central Square at Mass Ave / Essex St', 'MIT Vassar St'",
      "counts": 14
    },
    {
      "": 216,
      "ID": 216,
      "startname": "MIT Vassar St",
      "startlat": 42.35560121327927,
      "startlon": -71.10394477844237,
      "endname": "University Park",
      "endlat": 42.36264779118595,
      "endlon": -71.1000609397888,
      "starthour": 21,
      "trip": "'MIT Vassar St', 'University Park'",
      "counts": 14
    },
    {
      "": 217,
      "ID": 217,
      "startname": "Sidney Research Campus/ Erie Street at Waverly",
      "startlat": 42.35775309465199,
      "startlon": -71.10393404960631,
      "endname": "MIT Vassar St",
      "endlat": 42.35560121327927,
      "endlon": -71.10394477844237,
      "starthour": 21,
      "trip": "'MIT Vassar St', 'Sidney Research Campus/ Erie Street at Waverly'",
      "counts": 13
    },
    {
      "": 218,
      "ID": 218,
      "startname": "Central Square at Mass Ave / Essex St",
      "startlat": 42.36507,
      "startlon": -71.1031,
      "endname": "Dana Park",
      "endlat": 42.361780439606044,
      "endlon": -71.10809952020645,
      "starthour": 21,
      "trip": "'Central Square at Mass Ave / Essex St', 'Dana Park'",
      "counts": 13
    },
    {
      "": 219,
      "ID": 219,
      "startname": "Davis Square",
      "startlat": 42.396969,
      "startlon": -71.123024,
      "endname": "Linear Park - Mass. Ave. at Cameron Ave.",
      "endlat": 42.397828000000004,
      "endlon": -71.130516,
      "starthour": 21,
      "trip": "'Davis Square', 'Linear Park - Mass. Ave. at Cameron Ave. '",
      "counts": 13
    },
    {
      "": 220,
      "ID": 220,
      "startname": "Beacon St at Massachusetts Ave",
      "startlat": 42.350826806690954,
      "startlon": -71.0898108780384,
      "endname": "MIT at Mass Ave / Amherst St",
      "endlat": 42.3581,
      "endlon": -71.093198,
      "starthour": 22,
      "trip": "'Beacon St at Massachusetts Ave', 'MIT at Mass Ave / Amherst St'",
      "counts": 35
    },
    {
      "": 221,
      "ID": 221,
      "startname": "MIT at Mass Ave / Amherst St",
      "startlat": 42.3581,
      "startlon": -71.093198,
      "endname": "MIT Vassar St",
      "endlat": 42.35560121327927,
      "endlon": -71.10394477844237,
      "starthour": 22,
      "trip": "'MIT Vassar St', 'MIT at Mass Ave / Amherst St'",
      "counts": 24
    },
    {
      "": 222,
      "ID": 222,
      "startname": "MIT Stata Center at Vassar St / Main St",
      "startlat": 42.3621312344991,
      "startlon": -71.09115600585936,
      "endname": "MIT Pacific St at Purrington St",
      "endlat": 42.359573201090434,
      "endlon": -71.10129475593567,
      "starthour": 22,
      "trip": "'MIT Pacific St at Purrington St', 'MIT Stata Center at Vassar St / Main St'",
      "counts": 12
    },
    {
      "": 223,
      "ID": 223,
      "startname": "MIT Pacific St at Purrington St",
      "startlat": 42.359573201090434,
      "startlon": -71.10129475593567,
      "endname": "Ames St at Main St",
      "endlat": 42.3625,
      "endlon": -71.08821999999999,
      "starthour": 22,
      "trip": "'Ames St at Main St', 'MIT Pacific St at Purrington St'",
      "counts": 12
    },
    {
      "": 224,
      "ID": 224,
      "startname": "Lewis Wharf at Atlantic Ave",
      "startlat": 42.363871,
      "startlon": -71.050877,
      "endname": "Chinatown Gate Plaza",
      "endlat": 42.351356,
      "endlon": -71.05936700000001,
      "starthour": 22,
      "trip": "'Chinatown Gate Plaza', 'Lewis Wharf at Atlantic Ave'",
      "counts": 12
    },
    {
      "": 225,
      "ID": 225,
      "startname": "Central Square at Mass Ave / Essex St",
      "startlat": 42.36507,
      "startlon": -71.1031,
      "endname": "MIT Pacific St at Purrington St",
      "endlat": 42.359573201090434,
      "endlon": -71.10129475593567,
      "starthour": 22,
      "trip": "'Central Square at Mass Ave / Essex St', 'MIT Pacific St at Purrington St'",
      "counts": 11
    },
    {
      "": 226,
      "ID": 226,
      "startname": "Newbury St at Hereford St",
      "startlat": 42.348717,
      "startlon": -71.085954,
      "endname": "Back Bay T Stop - Dartmouth St at Stuart St",
      "endlat": 42.34807412317439,
      "endlon": -71.07657015323639,
      "starthour": 22,
      "trip": "'Back Bay T Stop - Dartmouth St at Stuart St', 'Newbury St at Hereford St'",
      "counts": 11
    },
    {
      "": 227,
      "ID": 227,
      "startname": "University Park",
      "startlat": 42.36264779118595,
      "startlon": -71.1000609397888,
      "endname": "MIT Vassar St",
      "endlat": 42.35560121327927,
      "endlon": -71.10394477844237,
      "starthour": 22,
      "trip": "'MIT Vassar St', 'University Park'",
      "counts": 10
    },
    {
      "": 228,
      "ID": 228,
      "startname": "Davis Square",
      "startlat": 42.396969,
      "startlon": -71.123024,
      "endname": "Clarendon Hill at Broadway",
      "endlat": 42.406302000000004,
      "endlon": -71.132446,
      "starthour": 22,
      "trip": "'Clarendon Hill at Broadway', 'Davis Square'",
      "counts": 10
    },
    {
      "": 229,
      "ID": 229,
      "startname": "University Park",
      "startlat": 42.36264779118595,
      "startlon": -71.1000609397888,
      "endname": "MIT Pacific St at Purrington St",
      "endlat": 42.359573201090434,
      "endlon": -71.10129475593567,
      "starthour": 22,
      "trip": "'MIT Pacific St at Purrington St', 'University Park'",
      "counts": 10
    },
    {
      "": 230,
      "ID": 230,
      "startname": "Beacon St at Massachusetts Ave",
      "startlat": 42.350826806690954,
      "startlon": -71.0898108780384,
      "endname": "MIT at Mass Ave / Amherst St",
      "endlat": 42.3581,
      "endlon": -71.093198,
      "starthour": 23,
      "trip": "'Beacon St at Massachusetts Ave', 'MIT at Mass Ave / Amherst St'",
      "counts": 46
    },
    {
      "": 231,
      "ID": 231,
      "startname": "MIT Vassar St",
      "startlat": 42.35560121327927,
      "startlon": -71.10394477844237,
      "endname": "MIT at Mass Ave / Amherst St",
      "endlat": 42.3581,
      "endlon": -71.093198,
      "starthour": 23,
      "trip": "'MIT Vassar St', 'MIT at Mass Ave / Amherst St'",
      "counts": 16
    },
    {
      "": 232,
      "ID": 232,
      "startname": "Allston Green District - Griggs St at Commonwealth Ave",
      "startlat": 42.34922469338298,
      "startlon": -71.13275302578586,
      "endname": "One Kendall Square at Hampshire St / Portland St",
      "endlat": 42.366277000000004,
      "endlon": -71.09169,
      "starthour": 23,
      "trip": "'Allston Green District - Griggs St at Commonwealth Ave', 'One Kendall Square at Hampshire St / Portland St'",
      "counts": 15
    },
    {
      "": 233,
      "ID": 233,
      "startname": "MIT Pacific St at Purrington St",
      "startlat": 42.359573201090434,
      "startlon": -71.10129475593567,
      "endname": "Ames St at Main St",
      "endlat": 42.3625,
      "endlon": -71.08821999999999,
      "starthour": 23,
      "trip": "'Ames St at Main St', 'MIT Pacific St at Purrington St'",
      "counts": 11
    },
    {
      "": 234,
      "ID": 234,
      "startname": "Conway Park - Somerville Avenue",
      "startlat": 42.383404999999996,
      "startlon": -71.10759300000001,
      "endname": "One Kendall Square at Hampshire St / Portland St",
      "endlat": 42.366277000000004,
      "endlon": -71.09169,
      "starthour": 23,
      "trip": "'Conway Park - Somerville Avenue', 'One Kendall Square at Hampshire St / Portland St'",
      "counts": 11
    },
    {
      "": 235,
      "ID": 235,
      "startname": "Binney St / Sixth St",
      "startlat": 42.366095,
      "startlon": -71.086388,
      "endname": "Kendall Street",
      "endlat": 42.36356015842989,
      "endlon": -71.08216792345047,
      "starthour": 23,
      "trip": "'Binney St / Sixth St', 'Kendall Street'",
      "counts": 10
    },
    {
      "": 236,
      "ID": 236,
      "startname": "MIT Pacific St at Purrington St",
      "startlat": 42.359573201090434,
      "startlon": -71.10129475593567,
      "endname": "MIT Vassar St",
      "endlat": 42.35560121327927,
      "endlon": -71.10394477844237,
      "starthour": 23,
      "trip": "'MIT Pacific St at Purrington St', 'MIT Vassar St'",
      "counts": 10
    },
    {
      "": 237,
      "ID": 237,
      "startname": "MIT at Mass Ave / Amherst St",
      "startlat": 42.3581,
      "startlon": -71.093198,
      "endname": "MIT Pacific St at Purrington St",
      "endlat": 42.359573201090434,
      "endlon": -71.10129475593567,
      "starthour": 23,
      "trip": "'MIT Pacific St at Purrington St', 'MIT at Mass Ave / Amherst St'",
      "counts": 8
    },
    {
      "": 238,
      "ID": 238,
      "startname": "University Park",
      "startlat": 42.36264779118595,
      "startlon": -71.1000609397888,
      "endname": "MIT Vassar St",
      "endlat": 42.35560121327927,
      "endlon": -71.10394477844237,
      "starthour": 23,
      "trip": "'MIT Vassar St', 'University Park'",
      "counts": 8
    },
    {
      "": 239,
      "ID": 239,
      "startname": "Christian Science Plaza - Massachusetts Ave at Westland Ave",
      "startlat": 42.3436658245146,
      "startlon": -71.08582377433777,
      "endname": "Allston Green District - Griggs St at Commonwealth Ave",
      "endlat": 42.34922469338298,
      "endlon": -71.13275302578586,
      "starthour": 23,
      "trip": "'Allston Green District - Griggs St at Commonwealth Ave', 'Christian Science Plaza - Massachusetts Ave at Westland Ave'",
      "counts": 8
    }
  ]